time,.header.seq,.header.stamp.secs,.header.stamp.nsecs,.header.frame_id,.status.status,.status.service,.latitude,.longitude,.altitude,.position_covariance,.position_covariance_type
2018/12/16/17:22:06.469339,103725,1545002526,469070911,imu_link,0,1,30.6277332306,-96.4820785522,47.6366920471,"(1.0, 0.0, 0.0, 0.0, 1.0, 0.0, 0.0, 0.0, 0.0001)",0
2018/12/16/17:22:06.475916,103726,1545002526,475739955,imu_link,0,1,30.6277332306,-96.4820785522,47.6368331909,"(1.0, 0.0, 0.0, 0.0, 1.0, 0.0, 0.0, 0.0, 0.0001)",0
2018/12/16/17:22:06.485940,103727,1545002526,485723972,imu_link,0,1,30.6277332306,-96.4820785522,47.6374778748,"(1.0, 0.0, 0.0, 0.0, 1.0, 0.0, 0.0, 0.0, 0.0001)",0
2018/12/16/17:22:06.495853,103728,1545002526,495683908,imu_link,0,1,30.6277332306,-96.4820785522,47.6381225586,"(1.0, 0.0, 0.0, 0.0, 1.0, 0.0, 0.0, 0.0, 0.0001)",0
2018/12/16/17:22:06.505876,103729,1545002526,505709886,imu_link,0,1,30.6277332306,-96.4820785522,47.6382789612,"(1.0, 0.0, 0.0, 0.0, 1.0, 0.0, 0.0, 0.0, 0.0001)",0
2018/12/16/17:22:06.516216,103730,1545002526,515954017,imu_link,0,1,30.6277332306,-96.4820785522,47.6384391785,"(1.0, 0.0, 0.0, 0.0, 1.0, 0.0, 0.0, 0.0, 0.0001)",0
2018/12/16/17:22:06.525876,103731,1545002526,525712013,imu_link,0,1,30.6277332306,-96.4820785522,47.6378631592,"(1.0, 0.0, 0.0, 0.0, 1.0, 0.0, 0.0, 0.0, 0.0001)",0
2018/12/16/17:22:06.536031,103732,1545002526,535857915,imu_link,0,1,30.6277332306,-96.4820785522,47.637298584,"(1.0, 0.0, 0.0, 0.0, 1.0, 0.0, 0.0, 0.0, 0.0001)",0
2018/12/16/17:22:06.545894,103733,1545002526,545710086,imu_link,0,1,30.6277351379,-96.4820785522,47.6377334595,"(1.0, 0.0, 0.0, 0.0, 1.0, 0.0, 0.0, 0.0, 0.0001)",0
2018/12/16/17:22:06.555896,103734,1545002526,555697917,imu_link,0,1,30.6277351379,-96.4820785522,47.6381759644,"(1.0, 0.0, 0.0, 0.0, 1.0, 0.0, 0.0, 0.0, 0.0001)",0
2018/12/16/17:22:06.566069,103735,1545002526,565864086,imu_link,0,1,30.6277351379,-96.4820785522,47.638381958,"(1.0, 0.0, 0.0, 0.0, 1.0, 0.0, 0.0, 0.0, 0.0001)",0
2018/12/16/17:22:06.577996,103736,1545002526,575823068,imu_link,0,1,30.6277351379,-96.4820785522,47.6385993958,"(1.0, 0.0, 0.0, 0.0, 1.0, 0.0, 0.0, 0.0, 0.0001)",0
2018/12/16/17:22:06.585969,103737,1545002526,585730075,imu_link,0,1,30.6277351379,-96.4820785522,47.6378059387,"(1.0, 0.0, 0.0, 0.0, 1.0, 0.0, 0.0, 0.0, 0.0001)",0
2018/12/16/17:22:06.596366,103738,1545002526,595868110,imu_link,0,1,30.6277351379,-96.4820785522,47.6370124817,"(1.0, 0.0, 0.0, 0.0, 1.0, 0.0, 0.0, 0.0, 0.0001)",0
2018/12/16/17:22:06.606306,103739,1545002526,606122016,imu_link,0,1,30.6277351379,-96.4820785522,47.638004303,"(1.0, 0.0, 0.0, 0.0, 1.0, 0.0, 0.0, 0.0, 0.0001)",0
2018/12/16/17:22:06.615989,103740,1545002526,615720033,imu_link,0,1,30.6277351379,-96.4820785522,47.6389923096,"(1.0, 0.0, 0.0, 0.0, 1.0, 0.0, 0.0, 0.0, 0.0001)",0
2018/12/16/17:22:06.625947,103741,1545002526,625749111,imu_link,0,1,30.6277351379,-96.4820785522,47.6397285461,"(1.0, 0.0, 0.0, 0.0, 1.0, 0.0, 0.0, 0.0, 0.0001)",0
2018/12/16/17:22:06.635988,103742,1545002526,635757923,imu_link,0,1,30.6277351379,-96.4820785522,47.6404800415,"(1.0, 0.0, 0.0, 0.0, 1.0, 0.0, 0.0, 0.0, 0.0001)",0
2018/12/16/17:22:06.645904,103743,1545002526,645724058,imu_link,0,1,30.6277351379,-96.4820785522,47.6330184937,"(1.0, 0.0, 0.0, 0.0, 1.0, 0.0, 0.0, 0.0, 0.0001)",0
2018/12/16/17:22:06.655883,103744,1545002526,655678987,imu_link,0,1,30.6277351379,-96.4820785522,47.6259918213,"(1.0, 0.0, 0.0, 0.0, 1.0, 0.0, 0.0, 0.0, 0.0001)",0
2018/12/16/17:22:06.666152,103745,1545002526,665919065,imu_link,0,1,30.6277351379,-96.4820785522,47.6271286011,"(1.0, 0.0, 0.0, 0.0, 1.0, 0.0, 0.0, 0.0, 0.0001)",0
2018/12/16/17:22:06.675888,103746,1545002526,675690889,imu_link,0,1,30.6277351379,-96.4820785522,47.6277427673,"(1.0, 0.0, 0.0, 0.0, 1.0, 0.0, 0.0, 0.0, 0.0001)",0
2018/12/16/17:22:06.685933,103747,1545002526,685765981,imu_link,0,1,30.6277351379,-96.4820785522,47.6273956299,"(1.0, 0.0, 0.0, 0.0, 1.0, 0.0, 0.0, 0.0, 0.0001)",0
2018/12/16/17:22:06.696320,103748,1545002526,695694923,imu_link,0,1,30.6277351379,-96.4820785522,47.6270446777,"(1.0, 0.0, 0.0, 0.0, 1.0, 0.0, 0.0, 0.0, 0.0001)",0
2018/12/16/17:22:06.705919,103749,1545002526,705722093,imu_link,0,1,30.6277351379,-96.4820785522,47.6264533997,"(1.0, 0.0, 0.0, 0.0, 1.0, 0.0, 0.0, 0.0, 0.0001)",0
2018/12/16/17:22:06.715994,103750,1545002526,715755939,imu_link,0,1,30.6277351379,-96.4820785522,47.6258506775,"(1.0, 0.0, 0.0, 0.0, 1.0, 0.0, 0.0, 0.0, 0.0001)",0
2018/12/16/17:22:06.725952,103751,1545002526,725750923,imu_link,0,1,30.6277351379,-96.4820785522,47.6254806519,"(1.0, 0.0, 0.0, 0.0, 1.0, 0.0, 0.0, 0.0, 0.0001)",0
2018/12/16/17:22:06.736159,103752,1545002526,735925912,imu_link,0,1,30.6277351379,-96.4820785522,47.6251068115,"(1.0, 0.0, 0.0, 0.0, 1.0, 0.0, 0.0, 0.0, 0.0001)",0
2018/12/16/17:22:06.745722,103753,1545002526,745543956,imu_link,0,1,30.6277351379,-96.4820785522,47.6249694824,"(1.0, 0.0, 0.0, 0.0, 1.0, 0.0, 0.0, 0.0, 0.0001)",0
2018/12/16/17:22:06.755930,103754,1545002526,755738019,imu_link,0,1,30.6277351379,-96.4820785522,47.6248283386,"(1.0, 0.0, 0.0, 0.0, 1.0, 0.0, 0.0, 0.0, 0.0001)",0
2018/12/16/17:22:06.766353,103755,1545002526,765683889,imu_link,0,1,30.6277351379,-96.4820785522,47.6246833801,"(1.0, 0.0, 0.0, 0.0, 1.0, 0.0, 0.0, 0.0, 0.0001)",0
2018/12/16/17:22:06.776021,103756,1545002526,775845050,imu_link,0,1,30.6277351379,-96.4820785522,47.6245384216,"(1.0, 0.0, 0.0, 0.0, 1.0, 0.0, 0.0, 0.0, 0.0001)",0
2018/12/16/17:22:06.785819,103757,1545002526,785654067,imu_link,0,1,30.6277351379,-96.4820785522,47.6246414185,"(1.0, 0.0, 0.0, 0.0, 1.0, 0.0, 0.0, 0.0, 0.0001)",0
2018/12/16/17:22:06.796144,103758,1545002526,795840024,imu_link,0,1,30.6277370453,-96.4820785522,47.6247444153,"(1.0, 0.0, 0.0, 0.0, 1.0, 0.0, 0.0, 0.0, 0.0001)",0
2018/12/16/17:22:06.806022,103759,1545002526,805860996,imu_link,0,1,30.6277370453,-96.4820785522,47.6248512268,"(1.0, 0.0, 0.0, 0.0, 1.0, 0.0, 0.0, 0.0, 0.0001)",0
2018/12/16/17:22:06.816070,103760,1545002526,815876960,imu_link,0,1,30.6277370453,-96.4820785522,47.6249694824,"(1.0, 0.0, 0.0, 0.0, 1.0, 0.0, 0.0, 0.0, 0.0001)",0
2018/12/16/17:22:06.825970,103761,1545002526,825787067,imu_link,0,1,30.6277370453,-96.4820785522,47.6250915527,"(1.0, 0.0, 0.0, 0.0, 1.0, 0.0, 0.0, 0.0, 0.0001)",0
2018/12/16/17:22:06.835930,103762,1545002526,835710048,imu_link,0,1,30.6277370453,-96.4820785522,47.6252059937,"(1.0, 0.0, 0.0, 0.0, 1.0, 0.0, 0.0, 0.0, 0.0001)",0
2018/12/16/17:22:06.845870,103763,1545002526,845664978,imu_link,0,1,30.6277370453,-96.4820785522,47.6250724792,"(1.0, 0.0, 0.0, 0.0, 1.0, 0.0, 0.0, 0.0, 0.0001)",0
2018/12/16/17:22:06.855967,103764,1545002526,855761051,imu_link,0,1,30.6277370453,-96.4820785522,47.6249427795,"(1.0, 0.0, 0.0, 0.0, 1.0, 0.0, 0.0, 0.0, 0.0001)",0
2018/12/16/17:22:06.866144,103765,1545002526,865884065,imu_link,0,1,30.6277370453,-96.4820785522,47.6253166199,"(1.0, 0.0, 0.0, 0.0, 1.0, 0.0, 0.0, 0.0, 0.0001)",0
2018/12/16/17:22:06.876043,103766,1545002526,875849008,imu_link,0,1,30.6277370453,-96.4820785522,47.625705719,"(1.0, 0.0, 0.0, 0.0, 1.0, 0.0, 0.0, 0.0, 0.0001)",0
2018/12/16/17:22:06.885985,103767,1545002526,885727882,imu_link,0,1,30.6277370453,-96.4820785522,47.6258544922,"(1.0, 0.0, 0.0, 0.0, 1.0, 0.0, 0.0, 0.0, 0.0001)",0
2018/12/16/17:22:06.895879,103768,1545002526,895673036,imu_link,0,1,30.6277370453,-96.4820785522,47.620880127,"(1.0, 0.0, 0.0, 0.0, 1.0, 0.0, 0.0, 0.0, 0.0001)",0
2018/12/16/17:22:06.905833,103769,1545002526,905662059,imu_link,0,1,30.6277370453,-96.4820785522,47.6163597107,"(1.0, 0.0, 0.0, 0.0, 1.0, 0.0, 0.0, 0.0, 0.0001)",0
2018/12/16/17:22:06.922455,103770,1545002526,916188955,imu_link,0,1,30.6277370453,-96.4820785522,47.6169700623,"(1.0, 0.0, 0.0, 0.0, 1.0, 0.0, 0.0, 0.0, 0.0001)",0
2018/12/16/17:22:06.926021,103771,1545002526,925810098,imu_link,0,1,30.6277370453,-96.4820785522,47.6175880432,"(1.0, 0.0, 0.0, 0.0, 1.0, 0.0, 0.0, 0.0, 0.0001)",0
2018/12/16/17:22:06.936107,103772,1545002526,935862064,imu_link,0,1,30.6277370453,-96.4820785522,47.6182174683,"(1.0, 0.0, 0.0, 0.0, 1.0, 0.0, 0.0, 0.0, 0.0001)",0
2018/12/16/17:22:06.946134,103773,1545002526,945915937,imu_link,0,1,30.6277370453,-96.4820785522,47.6178779602,"(1.0, 0.0, 0.0, 0.0, 1.0, 0.0, 0.0, 0.0, 0.0001)",0
2018/12/16/17:22:06.957037,103774,1545002526,956748962,imu_link,0,1,30.6277370453,-96.4820785522,47.6175460815,"(1.0, 0.0, 0.0, 0.0, 1.0, 0.0, 0.0, 0.0, 0.0001)",0
2018/12/16/17:22:06.966225,103775,1545002526,965981006,imu_link,0,1,30.6277370453,-96.4820785522,47.616985321,"(1.0, 0.0, 0.0, 0.0, 1.0, 0.0, 0.0, 0.0, 0.0001)",0
2018/12/16/17:22:06.976404,103776,1545002526,975871086,imu_link,0,1,30.6277370453,-96.4820785522,47.6164283752,"(1.0, 0.0, 0.0, 0.0, 1.0, 0.0, 0.0, 0.0, 0.0001)",0
2018/12/16/17:22:06.985992,103777,1545002526,985799074,imu_link,0,1,30.6277370453,-96.4820785522,47.6163482666,"(1.0, 0.0, 0.0, 0.0, 1.0, 0.0, 0.0, 0.0, 0.0001)",0
2018/12/16/17:22:06.996114,103778,1545002526,995882034,imu_link,0,1,30.6277389526,-96.4820785522,47.6162796021,"(1.0, 0.0, 0.0, 0.0, 1.0, 0.0, 0.0, 0.0, 0.0001)",0
2018/12/16/17:22:07.005922,103779,1545002527,5661010,imu_link,0,1,30.6277389526,-96.4820785522,47.6159706116,"(1.0, 0.0, 0.0, 0.0, 1.0, 0.0, 0.0, 0.0, 0.0001)",0
2018/12/16/17:22:07.016454,103780,1545002527,16067028,imu_link,0,1,30.6277389526,-96.4820785522,47.6156539917,"(1.0, 0.0, 0.0, 0.0, 1.0, 0.0, 0.0, 0.0, 0.0001)",0
2018/12/16/17:22:07.026069,103781,1545002527,25866985,imu_link,0,1,30.6277389526,-96.4820785522,47.6155776978,"(1.0, 0.0, 0.0, 0.0, 1.0, 0.0, 0.0, 0.0, 0.0001)",0
2018/12/16/17:22:07.035973,103782,1545002527,35826921,imu_link,0,1,30.6277389526,-96.4820785522,47.6155128479,"(1.0, 0.0, 0.0, 0.0, 1.0, 0.0, 0.0, 0.0, 0.0001)",0
2018/12/16/17:22:07.045969,103783,1545002527,45768022,imu_link,0,1,30.6277389526,-96.4820785522,47.6152000427,"(1.0, 0.0, 0.0, 0.0, 1.0, 0.0, 0.0, 0.0, 0.0001)",0
2018/12/16/17:22:07.055959,103784,1545002527,55766105,imu_link,0,1,30.6277389526,-96.4820785522,47.6148948669,"(1.0, 0.0, 0.0, 0.0, 1.0, 0.0, 0.0, 0.0, 0.0001)",0
2018/12/16/17:22:07.066069,103785,1545002527,65834045,imu_link,0,1,30.6277389526,-96.4820785522,47.6148490906,"(1.0, 0.0, 0.0, 0.0, 1.0, 0.0, 0.0, 0.0, 0.0001)",0
2018/12/16/17:22:07.075927,103786,1545002527,75778961,imu_link,0,1,30.6277389526,-96.4820785522,47.6148071289,"(1.0, 0.0, 0.0, 0.0, 1.0, 0.0, 0.0, 0.0, 0.0001)",0
2018/12/16/17:22:07.085931,103787,1545002527,85700988,imu_link,0,1,30.6277389526,-96.4820785522,47.6145248413,"(1.0, 0.0, 0.0, 0.0, 1.0, 0.0, 0.0, 0.0, 0.0001)",0
2018/12/16/17:22:07.095982,103788,1545002527,95779895,imu_link,0,1,30.6277389526,-96.4820785522,47.6142463684,"(1.0, 0.0, 0.0, 0.0, 1.0, 0.0, 0.0, 0.0, 0.0001)",0
2018/12/16/17:22:07.105885,103789,1545002527,105671882,imu_link,0,1,30.6277389526,-96.4820785522,47.6134681702,"(1.0, 0.0, 0.0, 0.0, 1.0, 0.0, 0.0, 0.0, 0.0001)",0
2018/12/16/17:22:07.116144,103790,1545002527,115911006,imu_link,0,1,30.6277389526,-96.4820785522,47.612701416,"(1.0, 0.0, 0.0, 0.0, 1.0, 0.0, 0.0, 0.0, 0.0001)",0
2018/12/16/17:22:07.125920,103791,1545002527,125747919,imu_link,0,1,30.6277389526,-96.4820785522,47.6116828918,"(1.0, 0.0, 0.0, 0.0, 1.0, 0.0, 0.0, 0.0, 0.0001)",0
2018/12/16/17:22:07.136084,103792,1545002527,135838985,imu_link,0,1,30.6277389526,-96.4820785522,47.6106643677,"(1.0, 0.0, 0.0, 0.0, 1.0, 0.0, 0.0, 0.0, 0.0001)",0
2018/12/16/17:22:07.145901,103793,1545002527,145699977,imu_link,0,1,30.6277389526,-96.4820785522,47.6054992676,"(1.0, 0.0, 0.0, 0.0, 1.0, 0.0, 0.0, 0.0, 0.0001)",0
2018/12/16/17:22:07.156024,103794,1545002527,155802011,imu_link,0,1,30.62774086,-96.4820785522,47.6005897522,"(1.0, 0.0, 0.0, 0.0, 1.0, 0.0, 0.0, 0.0, 0.0001)",0
2018/12/16/17:22:07.166267,103795,1545002527,166034936,imu_link,0,1,30.62774086,-96.4820785522,47.6008529663,"(1.0, 0.0, 0.0, 0.0, 1.0, 0.0, 0.0, 0.0, 0.0001)",0
2018/12/16/17:22:07.176040,103796,1545002527,175820112,imu_link,0,1,30.62774086,-96.4820785522,47.6008262634,"(1.0, 0.0, 0.0, 0.0, 1.0, 0.0, 0.0, 0.0, 0.0001)",0
2018/12/16/17:22:07.185952,103797,1545002527,185765981,imu_link,0,1,30.62774086,-96.4820785522,47.6012763977,"(1.0, 0.0, 0.0, 0.0, 1.0, 0.0, 0.0, 0.0, 0.0001)",0
2018/12/16/17:22:07.196076,103798,1545002527,195851087,imu_link,0,1,30.62774086,-96.4820785522,47.6017379761,"(1.0, 0.0, 0.0, 0.0, 1.0, 0.0, 0.0, 0.0, 0.0001)",0
2018/12/16/17:22:07.205864,103799,1545002527,205671072,imu_link,0,1,30.62774086,-96.4820785522,47.6019630432,"(1.0, 0.0, 0.0, 0.0, 1.0, 0.0, 0.0, 0.0, 0.0001)",0
2018/12/16/17:22:07.216159,103800,1545002527,215991020,imu_link,0,1,30.62774086,-96.4820785522,47.6021881104,"(1.0, 0.0, 0.0, 0.0, 1.0, 0.0, 0.0, 0.0, 0.0001)",0
2018/12/16/17:22:07.225860,103801,1545002527,225657939,imu_link,0,1,30.62774086,-96.4820785522,47.6024208069,"(1.0, 0.0, 0.0, 0.0, 1.0, 0.0, 0.0, 0.0, 0.0001)",0
2018/12/16/17:22:07.235895,103802,1545002527,235696077,imu_link,0,1,30.62774086,-96.4820785522,47.6026611328,"(1.0, 0.0, 0.0, 0.0, 1.0, 0.0, 0.0, 0.0, 0.0001)",0
2018/12/16/17:22:07.245925,103803,1545002527,245752096,imu_link,0,1,30.62774086,-96.4820785522,47.6028938293,"(1.0, 0.0, 0.0, 0.0, 1.0, 0.0, 0.0, 0.0, 0.0001)",0
2018/12/16/17:22:07.256483,103804,1545002527,256226062,imu_link,0,1,30.62774086,-96.4820785522,47.6031227112,"(1.0, 0.0, 0.0, 0.0, 1.0, 0.0, 0.0, 0.0, 0.0001)",0
2018/12/16/17:22:07.266340,103805,1545002527,265810966,imu_link,0,1,30.62774086,-96.4820785522,47.6035957336,"(1.0, 0.0, 0.0, 0.0, 1.0, 0.0, 0.0, 0.0, 0.0001)",0
2018/12/16/17:22:07.276011,103806,1545002527,275788068,imu_link,0,1,30.62774086,-96.4820785522,47.6040802002,"(1.0, 0.0, 0.0, 0.0, 1.0, 0.0, 0.0, 0.0, 0.0001)",0
2018/12/16/17:22:07.286036,103807,1545002527,285845041,imu_link,0,1,30.62774086,-96.4820785522,47.6035690308,"(1.0, 0.0, 0.0, 0.0, 1.0, 0.0, 0.0, 0.0, 0.0001)",0
2018/12/16/17:22:07.296075,103808,1545002527,295907020,imu_link,0,1,30.62774086,-96.4820785522,47.6030349731,"(1.0, 0.0, 0.0, 0.0, 1.0, 0.0, 0.0, 0.0, 0.0001)",0
2018/12/16/17:22:07.305898,103809,1545002527,305721998,imu_link,0,1,30.6277427673,-96.4820785522,47.6027488708,"(1.0, 0.0, 0.0, 0.0, 1.0, 0.0, 0.0, 0.0, 0.0001)",0
2018/12/16/17:22:07.316126,103810,1545002527,315893888,imu_link,0,1,30.6277427673,-96.4820785522,47.6024703979,"(1.0, 0.0, 0.0, 0.0, 1.0, 0.0, 0.0, 0.0, 0.0001)",0
2018/12/16/17:22:07.325945,103811,1545002527,325712919,imu_link,0,1,30.6277427673,-96.4820785522,47.602684021,"(1.0, 0.0, 0.0, 0.0, 1.0, 0.0, 0.0, 0.0, 0.0001)",0
2018/12/16/17:22:07.336169,103812,1545002527,335954904,imu_link,0,1,30.6277427673,-96.4820785522,47.6028862,"(1.0, 0.0, 0.0, 0.0, 1.0, 0.0, 0.0, 0.0, 0.0001)",0
2018/12/16/17:22:07.345920,103813,1545002527,345743894,imu_link,0,1,30.6277427673,-96.4820785522,47.6033401489,"(1.0, 0.0, 0.0, 0.0, 1.0, 0.0, 0.0, 0.0, 0.0001)",0
2018/12/16/17:22:07.356050,103814,1545002527,355840921,imu_link,0,1,30.6277427673,-96.4820785522,47.6038017273,"(1.0, 0.0, 0.0, 0.0, 1.0, 0.0, 0.0, 0.0, 0.0001)",0
2018/12/16/17:22:07.366036,103815,1545002527,365799903,imu_link,0,1,30.6277427673,-96.4820785522,47.6035194397,"(1.0, 0.0, 0.0, 0.0, 1.0, 0.0, 0.0, 0.0, 0.0001)",0
2018/12/16/17:22:07.375984,103816,1545002527,375828981,imu_link,0,1,30.6277427673,-96.4820785522,47.6032447815,"(1.0, 0.0, 0.0, 0.0, 1.0, 0.0, 0.0, 0.0, 0.0001)",0
2018/12/16/17:22:07.385944,103817,1545002527,385792970,imu_link,0,1,30.6277427673,-96.4820785522,47.6034927368,"(1.0, 0.0, 0.0, 0.0, 1.0, 0.0, 0.0, 0.0, 0.0001)",0
2018/12/16/17:22:07.396023,103818,1545002527,395840883,imu_link,0,1,30.6277427673,-96.4820785522,47.5985450745,"(1.0, 0.0, 0.0, 0.0, 1.0, 0.0, 0.0, 0.0, 0.0001)",0
2018/12/16/17:22:07.405953,103819,1545002527,405741930,imu_link,0,1,30.6277427673,-96.4820785522,47.5940437317,"(1.0, 0.0, 0.0, 0.0, 1.0, 0.0, 0.0, 0.0, 0.0001)",0
2018/12/16/17:22:07.416261,103820,1545002527,416085004,imu_link,0,1,30.6277427673,-96.4820785522,47.5947380066,"(1.0, 0.0, 0.0, 0.0, 1.0, 0.0, 0.0, 0.0, 0.0001)",0
2018/12/16/17:22:07.426015,103821,1545002527,425828933,imu_link,0,1,30.6277427673,-96.4820785522,47.5949630737,"(1.0, 0.0, 0.0, 0.0, 1.0, 0.0, 0.0, 0.0, 0.0001)",0
2018/12/16/17:22:07.436065,103822,1545002527,435847043,imu_link,0,1,30.6277446747,-96.4820785522,47.595199585,"(1.0, 0.0, 0.0, 0.0, 1.0, 0.0, 0.0, 0.0, 0.0001)",0
2018/12/16/17:22:07.445907,103823,1545002527,445732116,imu_link,0,1,30.6277446747,-96.4820785522,47.5945014954,"(1.0, 0.0, 0.0, 0.0, 1.0, 0.0, 0.0, 0.0, 0.0001)",0
2018/12/16/17:22:07.456430,103824,1545002527,456178903,imu_link,0,1,30.6277446747,-96.4820785522,47.5938110352,"(1.0, 0.0, 0.0, 0.0, 1.0, 0.0, 0.0, 0.0, 0.0001)",0
2018/12/16/17:22:07.466158,103825,1545002527,465939998,imu_link,0,1,30.6277446747,-96.4820785522,47.5931282043,"(1.0, 0.0, 0.0, 0.0, 1.0, 0.0, 0.0, 0.0, 0.0001)",0
2018/12/16/17:22:07.476133,103826,1545002527,475939989,imu_link,0,1,30.6277446747,-96.4820785522,47.5924415588,"(1.0, 0.0, 0.0, 0.0, 1.0, 0.0, 0.0, 0.0, 0.0001)",0
2018/12/16/17:22:07.485993,103827,1545002527,485797882,imu_link,0,1,30.6277446747,-96.4820785522,47.5931968689,"(1.0, 0.0, 0.0, 0.0, 1.0, 0.0, 0.0, 0.0, 0.0001)",0
2018/12/16/17:22:07.495938,103828,1545002527,495667934,imu_link,0,1,30.6277446747,-96.4820785522,47.5939559937,"(1.0, 0.0, 0.0, 0.0, 1.0, 0.0, 0.0, 0.0, 0.0001)",0
2018/12/16/17:22:07.505837,103829,1545002527,505671024,imu_link,0,1,30.6277446747,-96.4820785522,47.5944747925,"(1.0, 0.0, 0.0, 0.0, 1.0, 0.0, 0.0, 0.0, 0.0001)",0
2018/12/16/17:22:07.516114,103830,1545002527,515875101,imu_link,0,1,30.6277446747,-96.4820785522,47.5949897766,"(1.0, 0.0, 0.0, 0.0, 1.0, 0.0, 0.0, 0.0, 0.0001)",0
2018/12/16/17:22:07.525887,103831,1545002527,525737047,imu_link,0,1,30.6277446747,-96.4820785522,47.5959892273,"(1.0, 0.0, 0.0, 0.0, 1.0, 0.0, 0.0, 0.0, 0.0001)",0
2018/12/16/17:22:07.536002,103832,1545002527,535774946,imu_link,0,1,30.6277446747,-96.4820785522,47.596988678,"(1.0, 0.0, 0.0, 0.0, 1.0, 0.0, 0.0, 0.0, 0.0001)",0
2018/12/16/17:22:07.545888,103833,1545002527,545711994,imu_link,0,1,30.6277446747,-96.4820785522,47.5977401733,"(1.0, 0.0, 0.0, 0.0, 1.0, 0.0, 0.0, 0.0, 0.0001)",0
2018/12/16/17:22:07.556033,103834,1545002527,555787086,imu_link,0,1,30.627746582,-96.4820785522,47.5984687805,"(1.0, 0.0, 0.0, 0.0, 1.0, 0.0, 0.0, 0.0, 0.0001)",0
2018/12/16/17:22:07.566332,103835,1545002527,566097974,imu_link,0,1,30.627746582,-96.4820785522,47.5981903076,"(1.0, 0.0, 0.0, 0.0, 1.0, 0.0, 0.0, 0.0, 0.0001)",0
2018/12/16/17:22:07.576210,103836,1545002527,575993061,imu_link,0,1,30.627746582,-96.4820785522,47.5979118347,"(1.0, 0.0, 0.0, 0.0, 1.0, 0.0, 0.0, 0.0, 0.0001)",0
2018/12/16/17:22:07.586075,103837,1545002527,585902929,imu_link,0,1,30.627746582,-96.4820785522,47.5981292725,"(1.0, 0.0, 0.0, 0.0, 1.0, 0.0, 0.0, 0.0, 0.0001)",0
2018/12/16/17:22:07.595940,103838,1545002527,595731019,imu_link,0,1,30.627746582,-96.4820785522,47.5983276367,"(1.0, 0.0, 0.0, 0.0, 1.0, 0.0, 0.0, 0.0, 0.0001)",0
2018/12/16/17:22:07.605916,103839,1545002527,605735063,imu_link,0,1,30.627746582,-96.4820785522,47.5979995728,"(1.0, 0.0, 0.0, 0.0, 1.0, 0.0, 0.0, 0.0, 0.0001)",0
2018/12/16/17:22:07.616391,103840,1545002527,615792989,imu_link,0,1,30.627746582,-96.4820785522,47.5976753235,"(1.0, 0.0, 0.0, 0.0, 1.0, 0.0, 0.0, 0.0, 0.0001)",0
2018/12/16/17:22:07.625955,103841,1545002527,625775098,imu_link,0,1,30.627746582,-96.4820785522,47.597869873,"(1.0, 0.0, 0.0, 0.0, 1.0, 0.0, 0.0, 0.0, 0.0001)",0
2018/12/16/17:22:07.636070,103842,1545002527,635840892,imu_link,0,1,30.627746582,-96.4820785522,47.5980682373,"(1.0, 0.0, 0.0, 0.0, 1.0, 0.0, 0.0, 0.0, 0.0001)",0
2018/12/16/17:22:07.645944,103843,1545002527,645770072,imu_link,0,1,30.627746582,-96.4820785522,47.5926513672,"(1.0, 0.0, 0.0, 0.0, 1.0, 0.0, 0.0, 0.0, 0.0001)",0
2018/12/16/17:22:07.656068,103844,1545002527,655855894,imu_link,0,1,30.627746582,-96.4820785522,47.5872764587,"(1.0, 0.0, 0.0, 0.0, 1.0, 0.0, 0.0, 0.0, 0.0001)",0
2018/12/16/17:22:07.666146,103845,1545002527,665955066,imu_link,0,1,30.6277484894,-96.4820785522,47.5875511169,"(1.0, 0.0, 0.0, 0.0, 1.0, 0.0, 0.0, 0.0, 0.0001)",0
2018/12/16/17:22:07.676181,103846,1545002527,675924062,imu_link,0,1,30.6277484894,-96.4820785522,47.5877761841,"(1.0, 0.0, 0.0, 0.0, 1.0, 0.0, 0.0, 0.0, 0.0001)",0
2018/12/16/17:22:07.686077,103847,1545002527,685826063,imu_link,0,1,30.6277484894,-96.4820785522,47.5887451172,"(1.0, 0.0, 0.0, 0.0, 1.0, 0.0, 0.0, 0.0, 0.0001)",0
2018/12/16/17:22:07.695901,103848,1545002527,695699930,imu_link,0,1,30.6277484894,-96.4820785522,47.5897521973,"(1.0, 0.0, 0.0, 0.0, 1.0, 0.0, 0.0, 0.0, 0.0001)",0
2018/12/16/17:22:07.706193,103849,1545002527,705833911,imu_link,0,1,30.6277484894,-96.4820785522,47.5900878906,"(1.0, 0.0, 0.0, 0.0, 1.0, 0.0, 0.0, 0.0, 0.0001)",0
2018/12/16/17:22:07.716053,103850,1545002527,715881109,imu_link,0,1,30.6277484894,-96.4820785522,47.5904655457,"(1.0, 0.0, 0.0, 0.0, 1.0, 0.0, 0.0, 0.0, 0.0001)",0
2018/12/16/17:22:07.725932,103851,1545002527,725763082,imu_link,0,1,30.6277484894,-96.4820785522,47.5915908813,"(1.0, 0.0, 0.0, 0.0, 1.0, 0.0, 0.0, 0.0, 0.0001)",0
2018/12/16/17:22:07.736075,103852,1545002527,735888957,imu_link,0,1,30.6277484894,-96.4820785522,47.5927467346,"(1.0, 0.0, 0.0, 0.0, 1.0, 0.0, 0.0, 0.0, 0.0001)",0
2018/12/16/17:22:07.745904,103853,1545002527,745732069,imu_link,0,1,30.6277484894,-96.4820785522,47.5932006836,"(1.0, 0.0, 0.0, 0.0, 1.0, 0.0, 0.0, 0.0, 0.0001)",0
2018/12/16/17:22:07.755908,103854,1545002527,755697011,imu_link,0,1,30.6277484894,-96.4820785522,47.593662262,"(1.0, 0.0, 0.0, 0.0, 1.0, 0.0, 0.0, 0.0, 0.0001)",0
2018/12/16/17:22:07.766266,103855,1545002527,766057014,imu_link,0,1,30.6277484894,-96.4820785522,47.5941162109,"(1.0, 0.0, 0.0, 0.0, 1.0, 0.0, 0.0, 0.0, 0.0001)",0
2018/12/16/17:22:07.775885,103856,1545002527,775719881,imu_link,0,1,30.6277503967,-96.4820785522,47.5945663452,"(1.0, 0.0, 0.0, 0.0, 1.0, 0.0, 0.0, 0.0, 0.0001)",0
2018/12/16/17:22:07.786341,103857,1545002527,785957098,imu_link,0,1,30.6277503967,-96.4820785522,47.5962219238,"(1.0, 0.0, 0.0, 0.0, 1.0, 0.0, 0.0, 0.0, 0.0001)",0
2018/12/16/17:22:07.796014,103858,1545002527,795818090,imu_link,0,1,30.6277503967,-96.4820785522,47.5978660583,"(1.0, 0.0, 0.0, 0.0, 1.0, 0.0, 0.0, 0.0, 0.0001)",0
2018/12/16/17:22:07.805976,103859,1545002527,805766105,imu_link,0,1,30.6277503967,-96.4820785522,47.5985107422,"(1.0, 0.0, 0.0, 0.0, 1.0, 0.0, 0.0, 0.0, 0.0001)",0
2018/12/16/17:22:07.817132,103860,1545002527,816915035,imu_link,0,1,30.6277503967,-96.4820785522,47.5991401672,"(1.0, 0.0, 0.0, 0.0, 1.0, 0.0, 0.0, 0.0, 0.0001)",0
2018/12/16/17:22:07.825999,103861,1545002527,825824022,imu_link,0,1,30.6277503967,-96.4820785522,47.5995368958,"(1.0, 0.0, 0.0, 0.0, 1.0, 0.0, 0.0, 0.0, 0.0001)",0
2018/12/16/17:22:07.836026,103862,1545002527,835855007,imu_link,0,1,30.6277503967,-96.4820785522,47.5999259949,"(1.0, 0.0, 0.0, 0.0, 1.0, 0.0, 0.0, 0.0, 0.0001)",0
2018/12/16/17:22:07.845900,103863,1545002527,845732927,imu_link,0,1,30.6277503967,-96.4820785522,47.6013069153,"(1.0, 0.0, 0.0, 0.0, 1.0, 0.0, 0.0, 0.0, 0.0001)",0
2018/12/16/17:22:07.856040,103864,1545002527,855822086,imu_link,0,1,30.6277503967,-96.4820785522,47.6026878357,"(1.0, 0.0, 0.0, 0.0, 1.0, 0.0, 0.0, 0.0, 0.0001)",0
2018/12/16/17:22:07.866026,103865,1545002527,865845918,imu_link,0,1,30.6277503967,-96.4820785522,47.6040878296,"(1.0, 0.0, 0.0, 0.0, 1.0, 0.0, 0.0, 0.0, 0.0001)",0
2018/12/16/17:22:07.875877,103866,1545002527,875694036,imu_link,0,1,30.6277523041,-96.4820785522,47.6055374146,"(1.0, 0.0, 0.0, 0.0, 1.0, 0.0, 0.0, 0.0, 0.0001)",0
2018/12/16/17:22:07.885950,103867,1545002527,885742902,imu_link,0,1,30.6277523041,-96.4820785522,47.6059913635,"(1.0, 0.0, 0.0, 0.0, 1.0, 0.0, 0.0, 0.0, 0.0001)",0
2018/12/16/17:22:07.895878,103868,1545002527,895725011,imu_link,0,1,30.6277523041,-96.4820785522,47.5986976624,"(1.0, 0.0, 0.0, 0.0, 1.0, 0.0, 0.0, 0.0, 0.0001)",0
2018/12/16/17:22:07.906056,103869,1545002527,905850887,imu_link,0,1,30.6277523041,-96.4820785522,47.5922241211,"(1.0, 0.0, 0.0, 0.0, 1.0, 0.0, 0.0, 0.0, 0.0001)",0
2018/12/16/17:22:07.917057,103870,1545002527,916383028,imu_link,0,1,30.6277523041,-96.4820785522,47.5934562683,"(1.0, 0.0, 0.0, 0.0, 1.0, 0.0, 0.0, 0.0, 0.0001)",0
2018/12/16/17:22:07.925971,103871,1545002527,925753116,imu_link,0,1,30.6277523041,-96.4820785522,47.5947151184,"(1.0, 0.0, 0.0, 0.0, 1.0, 0.0, 0.0, 0.0, 0.0001)",0
2018/12/16/17:22:07.936033,103872,1545002527,935859918,imu_link,0,1,30.6277523041,-96.4820785522,47.5959396362,"(1.0, 0.0, 0.0, 0.0, 1.0, 0.0, 0.0, 0.0, 0.0001)",0
2018/12/16/17:22:07.945912,103873,1545002527,945736885,imu_link,0,1,30.6277523041,-96.4820785522,47.5971412659,"(1.0, 0.0, 0.0, 0.0, 1.0, 0.0, 0.0, 0.0, 0.0001)",0
2018/12/16/17:22:07.955931,103874,1545002527,955734968,imu_link,0,1,30.6277523041,-96.4820785522,47.5983581543,"(1.0, 0.0, 0.0, 0.0, 1.0, 0.0, 0.0, 0.0, 0.0001)",0
2018/12/16/17:22:07.966176,103875,1545002527,965955972,imu_link,0,1,30.6277523041,-96.4820785522,47.598651886,"(1.0, 0.0, 0.0, 0.0, 1.0, 0.0, 0.0, 0.0, 0.0001)",0
2018/12/16/17:22:07.975965,103876,1545002527,975795984,imu_link,0,1,30.6277542114,-96.4820785522,47.5989303589,"(1.0, 0.0, 0.0, 0.0, 1.0, 0.0, 0.0, 0.0, 0.0001)",0
2018/12/16/17:22:07.986042,103877,1545002527,985872030,imu_link,0,1,30.6277542114,-96.4820785522,47.5996856689,"(1.0, 0.0, 0.0, 0.0, 1.0, 0.0, 0.0, 0.0, 0.0001)",0
2018/12/16/17:22:07.995912,103878,1545002527,995753049,imu_link,0,1,30.6277542114,-96.4820785522,47.6004753113,"(1.0, 0.0, 0.0, 0.0, 1.0, 0.0, 0.0, 0.0, 0.0001)",0
2018/12/16/17:22:08.006029,103879,1545002528,5844116,imu_link,0,1,30.6277542114,-96.4820785522,47.6003074646,"(1.0, 0.0, 0.0, 0.0, 1.0, 0.0, 0.0, 0.0, 0.0001)",0
2018/12/16/17:22:08.016154,103880,1545002528,15937089,imu_link,0,1,30.6277542114,-96.4820785522,47.6001091003,"(1.0, 0.0, 0.0, 0.0, 1.0, 0.0, 0.0, 0.0, 0.0001)",0
2018/12/16/17:22:08.025874,103881,1545002528,25682926,imu_link,0,1,30.6277542114,-96.4820785522,47.6008682251,"(1.0, 0.0, 0.0, 0.0, 1.0, 0.0, 0.0, 0.0, 0.0001)",0
2018/12/16/17:22:08.036109,103882,1545002528,35803079,imu_link,0,1,30.6277542114,-96.4820785522,47.601650238,"(1.0, 0.0, 0.0, 0.0, 1.0, 0.0, 0.0, 0.0, 0.0001)",0
2018/12/16/17:22:08.046215,103883,1545002528,46017885,imu_link,0,1,30.6277542114,-96.4820785522,47.6024169922,"(1.0, 0.0, 0.0, 0.0, 1.0, 0.0, 0.0, 0.0, 0.0001)",0
2018/12/16/17:22:08.056091,103884,1545002528,55886983,imu_link,0,1,30.6277542114,-96.4820785522,47.6031570435,"(1.0, 0.0, 0.0, 0.0, 1.0, 0.0, 0.0, 0.0, 0.0001)",0
2018/12/16/17:22:08.066348,103885,1545002528,66102027,imu_link,0,1,30.6277542114,-96.4820785522,47.6031532288,"(1.0, 0.0, 0.0, 0.0, 1.0, 0.0, 0.0, 0.0, 0.0001)",0
2018/12/16/17:22:08.076157,103886,1545002528,75937032,imu_link,0,1,30.6277561188,-96.4820785522,47.6031570435,"(1.0, 0.0, 0.0, 0.0, 1.0, 0.0, 0.0, 0.0, 0.0001)",0
2018/12/16/17:22:08.086128,103887,1545002528,85931062,imu_link,0,1,30.6277561188,-96.4820785522,47.60389328,"(1.0, 0.0, 0.0, 0.0, 1.0, 0.0, 0.0, 0.0, 0.0001)",0
2018/12/16/17:22:08.095960,103888,1545002528,95772027,imu_link,0,1,30.6277561188,-96.4820785522,47.6046333313,"(1.0, 0.0, 0.0, 0.0, 1.0, 0.0, 0.0, 0.0, 0.0001)",0
2018/12/16/17:22:08.107090,103889,1545002528,106806039,imu_link,0,1,30.6277561188,-96.4820785522,47.6053924561,"(1.0, 0.0, 0.0, 0.0, 1.0, 0.0, 0.0, 0.0, 0.0001)",0
2018/12/16/17:22:08.116201,103890,1545002528,115946054,imu_link,0,1,30.6277561188,-96.4820785522,47.6061630249,"(1.0, 0.0, 0.0, 0.0, 1.0, 0.0, 0.0, 0.0, 0.0001)",0
2018/12/16/17:22:08.126048,103891,1545002528,125857114,imu_link,0,1,30.6277561188,-96.4820785522,47.6074523926,"(1.0, 0.0, 0.0, 0.0, 1.0, 0.0, 0.0, 0.0, 0.0001)",0
2018/12/16/17:22:08.136074,103892,1545002528,135855913,imu_link,0,1,30.6277561188,-96.4820785522,47.6087646484,"(1.0, 0.0, 0.0, 0.0, 1.0, 0.0, 0.0, 0.0, 0.0001)",0
2018/12/16/17:22:08.145996,103893,1545002528,145788908,imu_link,0,1,30.6277561188,-96.4820785522,47.6011886597,"(1.0, 0.0, 0.0, 0.0, 1.0, 0.0, 0.0, 0.0, 0.0001)",0
2018/12/16/17:22:08.155959,103894,1545002528,155788898,imu_link,0,1,30.6277561188,-96.4820785522,47.5931434631,"(1.0, 0.0, 0.0, 0.0, 1.0, 0.0, 0.0, 0.0, 0.0001)",0
2018/12/16/17:22:08.166329,103895,1545002528,166124105,imu_link,0,1,30.6277580261,-96.4820785522,47.5929985046,"(1.0, 0.0, 0.0, 0.0, 1.0, 0.0, 0.0, 0.0, 0.0001)",0
2018/12/16/17:22:08.176344,103896,1545002528,175844907,imu_link,0,1,30.6277580261,-96.4820785522,47.5932579041,"(1.0, 0.0, 0.0, 0.0, 1.0, 0.0, 0.0, 0.0, 0.0001)",0
2018/12/16/17:22:08.185992,103897,1545002528,185847997,imu_link,0,1,30.6277580261,-96.4820785522,47.5933036804,"(1.0, 0.0, 0.0, 0.0, 1.0, 0.0, 0.0, 0.0, 0.0001)",0
2018/12/16/17:22:08.196036,103898,1545002528,195848941,imu_link,0,1,30.6277580261,-96.4820785522,47.593372345,"(1.0, 0.0, 0.0, 0.0, 1.0, 0.0, 0.0, 0.0, 0.0001)",0
2018/12/16/17:22:08.206070,103899,1545002528,205872058,imu_link,0,1,30.6277580261,-96.4820785522,47.5932006836,"(1.0, 0.0, 0.0, 0.0, 1.0, 0.0, 0.0, 0.0, 0.0001)",0
2018/12/16/17:22:08.216967,103900,1545002528,216727972,imu_link,0,1,30.6277580261,-96.4820785522,47.5930213928,"(1.0, 0.0, 0.0, 0.0, 1.0, 0.0, 0.0, 0.0, 0.0001)",0
2018/12/16/17:22:08.226052,103901,1545002528,225898981,imu_link,0,1,30.6277580261,-96.4820785522,47.5942649841,"(1.0, 0.0, 0.0, 0.0, 1.0, 0.0, 0.0, 0.0, 0.0001)",0
2018/12/16/17:22:08.236086,103902,1545002528,235897064,imu_link,0,1,30.6277580261,-96.4820785522,47.595500946,"(1.0, 0.0, 0.0, 0.0, 1.0, 0.0, 0.0, 0.0, 0.0001)",0
2018/12/16/17:22:08.246835,103903,1545002528,246573925,imu_link,0,1,30.6277580261,-96.4820785522,47.5957717896,"(1.0, 0.0, 0.0, 0.0, 1.0, 0.0, 0.0, 0.0, 0.0001)",0
2018/12/16/17:22:08.256103,103904,1545002528,255896091,imu_link,0,1,30.6277580261,-96.4820785522,47.5960273743,"(1.0, 0.0, 0.0, 0.0, 1.0, 0.0, 0.0, 0.0, 0.0001)",0
2018/12/16/17:22:08.266276,103905,1545002528,266026973,imu_link,0,1,30.6277599335,-96.4820785522,47.5962791443,"(1.0, 0.0, 0.0, 0.0, 1.0, 0.0, 0.0, 0.0, 0.0001)",0
2018/12/16/17:22:08.276037,103906,1545002528,275867938,imu_link,0,1,30.6277599335,-96.4820785522,47.5965118408,"(1.0, 0.0, 0.0, 0.0, 1.0, 0.0, 0.0, 0.0, 0.0001)",0
2018/12/16/17:22:08.286085,103907,1545002528,285887002,imu_link,0,1,30.6277599335,-96.4820785522,47.5962524414,"(1.0, 0.0, 0.0, 0.0, 1.0, 0.0, 0.0, 0.0, 0.0001)",0
2018/12/16/17:22:08.295959,103908,1545002528,295772075,imu_link,0,1,30.6277599335,-96.4820785522,47.5959854126,"(1.0, 0.0, 0.0, 0.0, 1.0, 0.0, 0.0, 0.0, 0.0001)",0
2018/12/16/17:22:08.306133,103909,1545002528,305954933,imu_link,0,1,30.6277599335,-96.4820785522,47.5964241028,"(1.0, 0.0, 0.0, 0.0, 1.0, 0.0, 0.0, 0.0, 0.0001)",0
2018/12/16/17:22:08.316241,103910,1545002528,315922021,imu_link,0,1,30.6277599335,-96.4820785522,47.5968589783,"(1.0, 0.0, 0.0, 0.0, 1.0, 0.0, 0.0, 0.0, 0.0001)",0
2018/12/16/17:22:08.326260,103911,1545002528,326071977,imu_link,0,1,30.6277599335,-96.4820785522,47.5980300903,"(1.0, 0.0, 0.0, 0.0, 1.0, 0.0, 0.0, 0.0, 0.0001)",0
2018/12/16/17:22:08.336033,103912,1545002528,335856914,imu_link,0,1,30.6277599335,-96.4820785522,47.599193573,"(1.0, 0.0, 0.0, 0.0, 1.0, 0.0, 0.0, 0.0, 0.0001)",0
2018/12/16/17:22:08.346070,103913,1545002528,345853090,imu_link,0,1,30.6277599335,-96.4820785522,47.5998725891,"(1.0, 0.0, 0.0, 0.0, 1.0, 0.0, 0.0, 0.0, 0.0001)",0
2018/12/16/17:22:08.356234,103914,1545002528,356023073,imu_link,0,1,30.6277618408,-96.4820785522,47.6005439758,"(1.0, 0.0, 0.0, 0.0, 1.0, 0.0, 0.0, 0.0, 0.0001)",0
2018/12/16/17:22:08.366253,103915,1545002528,366063117,imu_link,0,1,30.6277618408,-96.4820785522,47.600227356,"(1.0, 0.0, 0.0, 0.0, 1.0, 0.0, 0.0, 0.0, 0.0001)",0
2018/12/16/17:22:08.376186,103916,1545002528,375948905,imu_link,0,1,30.6277618408,-96.4820785522,47.5999107361,"(1.0, 0.0, 0.0, 0.0, 1.0, 0.0, 0.0, 0.0, 0.0001)",0
2018/12/16/17:22:08.386281,103917,1545002528,386089086,imu_link,0,1,30.6277618408,-96.4820785522,47.6000862122,"(1.0, 0.0, 0.0, 0.0, 1.0, 0.0, 0.0, 0.0, 0.0001)",0
2018/12/16/17:22:08.395958,103918,1545002528,395790100,imu_link,0,1,30.6277618408,-96.4820785522,47.5927810669,"(1.0, 0.0, 0.0, 0.0, 1.0, 0.0, 0.0, 0.0, 0.0001)",0
2018/12/16/17:22:08.406104,103919,1545002528,405921936,imu_link,0,1,30.6277618408,-96.4820785522,47.5849342346,"(1.0, 0.0, 0.0, 0.0, 1.0, 0.0, 0.0, 0.0, 0.0001)",0
2018/12/16/17:22:08.416169,103920,1545002528,415955066,imu_link,0,1,30.6277618408,-96.4820785522,47.5845336914,"(1.0, 0.0, 0.0, 0.0, 1.0, 0.0, 0.0, 0.0, 0.0001)",0
2018/12/16/17:22:08.426031,103921,1545002528,425851106,imu_link,0,1,30.6277618408,-96.4820785522,47.5845909119,"(1.0, 0.0, 0.0, 0.0, 1.0, 0.0, 0.0, 0.0, 0.0001)",0
2018/12/16/17:22:08.436035,103922,1545002528,435808897,imu_link,0,1,30.6277618408,-96.4820785522,47.584651947,"(1.0, 0.0, 0.0, 0.0, 1.0, 0.0, 0.0, 0.0, 0.0001)",0
2018/12/16/17:22:08.446530,103923,1545002528,446314096,imu_link,0,1,30.6277637482,-96.4820785522,47.5849723816,"(1.0, 0.0, 0.0, 0.0, 1.0, 0.0, 0.0, 0.0, 0.0001)",0
2018/12/16/17:22:08.456091,103924,1545002528,455888032,imu_link,0,1,30.6277637482,-96.4820785522,47.5853042603,"(1.0, 0.0, 0.0, 0.0, 1.0, 0.0, 0.0, 0.0, 0.0001)",0
2018/12/16/17:22:08.466172,103925,1545002528,465975999,imu_link,0,1,30.6277637482,-96.4820785522,47.5849342346,"(1.0, 0.0, 0.0, 0.0, 1.0, 0.0, 0.0, 0.0, 0.0001)",0
2018/12/16/17:22:08.475896,103926,1545002528,475739002,imu_link,0,1,30.6277637482,-96.4820785522,47.5845336914,"(1.0, 0.0, 0.0, 0.0, 1.0, 0.0, 0.0, 0.0, 0.0001)",0
2018/12/16/17:22:08.486063,103927,1545002528,485822916,imu_link,0,1,30.6277637482,-96.4820785522,47.5855522156,"(1.0, 0.0, 0.0, 0.0, 1.0, 0.0, 0.0, 0.0, 0.0001)",0
2018/12/16/17:22:08.495905,103928,1545002528,495764017,imu_link,0,1,30.6277637482,-96.4820785522,47.5865898132,"(1.0, 0.0, 0.0, 0.0, 1.0, 0.0, 0.0, 0.0, 0.0001)",0
2018/12/16/17:22:08.506167,103929,1545002528,505974054,imu_link,0,1,30.6277637482,-96.4820785522,47.5869064331,"(1.0, 0.0, 0.0, 0.0, 1.0, 0.0, 0.0, 0.0, 0.0001)",0
2018/12/16/17:22:08.516392,103930,1545002528,516083002,imu_link,0,1,30.6277637482,-96.4820785522,47.5872039795,"(1.0, 0.0, 0.0, 0.0, 1.0, 0.0, 0.0, 0.0, 0.0001)",0
2018/12/16/17:22:08.526200,103931,1545002528,525988101,imu_link,0,1,30.6277637482,-96.4820785522,47.586807251,"(1.0, 0.0, 0.0, 0.0, 1.0, 0.0, 0.0, 0.0, 0.0001)",0
2018/12/16/17:22:08.536184,103932,1545002528,535973072,imu_link,0,1,30.6277656555,-96.4820785522,47.5864448547,"(1.0, 0.0, 0.0, 0.0, 1.0, 0.0, 0.0, 0.0, 0.0001)",0
2018/12/16/17:22:08.546425,103933,1545002528,546222925,imu_link,0,1,30.6277656555,-96.4820785522,47.586555481,"(1.0, 0.0, 0.0, 0.0, 1.0, 0.0, 0.0, 0.0, 0.0001)",0
2018/12/16/17:22:08.556059,103934,1545002528,555880069,imu_link,0,1,30.6277656555,-96.4820785522,47.5866584778,"(1.0, 0.0, 0.0, 0.0, 1.0, 0.0, 0.0, 0.0, 0.0001)",0
2018/12/16/17:22:08.566632,103935,1545002528,566107988,imu_link,0,1,30.6277656555,-96.4820785522,47.5860786438,"(1.0, 0.0, 0.0, 0.0, 1.0, 0.0, 0.0, 0.0, 0.0001)",0
2018/12/16/17:22:08.576041,103936,1545002528,575859069,imu_link,0,1,30.6277656555,-96.4820785522,47.5855331421,"(1.0, 0.0, 0.0, 0.0, 1.0, 0.0, 0.0, 0.0, 0.0001)",0
2018/12/16/17:22:08.586416,103937,1545002528,586230993,imu_link,0,1,30.6277656555,-96.4820785522,47.5857200623,"(1.0, 0.0, 0.0, 0.0, 1.0, 0.0, 0.0, 0.0, 0.0001)",0
2018/12/16/17:22:08.595993,103938,1545002528,595767021,imu_link,0,1,30.6277656555,-96.4820785522,47.5859298706,"(1.0, 0.0, 0.0, 0.0, 1.0, 0.0, 0.0, 0.0, 0.0001)",0
2018/12/16/17:22:08.606071,103939,1545002528,605895042,imu_link,0,1,30.6277656555,-96.4820785522,47.5851745605,"(1.0, 0.0, 0.0, 0.0, 1.0, 0.0, 0.0, 0.0, 0.0001)",0
2018/12/16/17:22:08.616622,103940,1545002528,616280078,imu_link,0,1,30.6277656555,-96.4820785522,47.5843963623,"(1.0, 0.0, 0.0, 0.0, 1.0, 0.0, 0.0, 0.0, 0.0001)",0
2018/12/16/17:22:08.626217,103941,1545002528,625998973,imu_link,0,1,30.6277675629,-96.4820785522,47.5850906372,"(1.0, 0.0, 0.0, 0.0, 1.0, 0.0, 0.0, 0.0, 0.0001)",0
2018/12/16/17:22:08.636577,103942,1545002528,636348009,imu_link,0,1,30.6277675629,-96.4820785522,47.5858001709,"(1.0, 0.0, 0.0, 0.0, 1.0, 0.0, 0.0, 0.0, 0.0001)",0
2018/12/16/17:22:08.646262,103943,1545002528,646040916,imu_link,0,1,30.6277675629,-96.4820785522,47.5793418884,"(1.0, 0.0, 0.0, 0.0, 1.0, 0.0, 0.0, 0.0, 0.0001)",0
2018/12/16/17:22:08.656069,103944,1545002528,655895948,imu_link,0,1,30.6277675629,-96.4820785522,47.5728988647,"(1.0, 0.0, 0.0, 0.0, 1.0, 0.0, 0.0, 0.0, 0.0001)",0
2018/12/16/17:22:08.666284,103945,1545002528,666028022,imu_link,0,1,30.6277675629,-96.4820785522,47.573589325,"(1.0, 0.0, 0.0, 0.0, 1.0, 0.0, 0.0, 0.0, 0.0001)",0
2018/12/16/17:22:08.675954,103946,1545002528,675801038,imu_link,0,1,30.6277675629,-96.4820785522,47.5742034912,"(1.0, 0.0, 0.0, 0.0, 1.0, 0.0, 0.0, 0.0, 0.0001)",0
2018/12/16/17:22:08.686221,103947,1545002528,685971975,imu_link,0,1,30.6277675629,-96.4820785522,47.5743560791,"(1.0, 0.0, 0.0, 0.0, 1.0, 0.0, 0.0, 0.0, 0.0001)",0
2018/12/16/17:22:08.695985,103948,1545002528,695744991,imu_link,0,1,30.6277675629,-96.4820785522,47.574508667,"(1.0, 0.0, 0.0, 0.0, 1.0, 0.0, 0.0, 0.0, 0.0001)",0
2018/12/16/17:22:08.706227,103949,1545002528,705955028,imu_link,0,1,30.6277694702,-96.4820785522,47.5749053955,"(1.0, 0.0, 0.0, 0.0, 1.0, 0.0, 0.0, 0.0, 0.0001)",0
2018/12/16/17:22:08.716226,103950,1545002528,716005086,imu_link,0,1,30.6277694702,-96.4820785522,47.5753211975,"(1.0, 0.0, 0.0, 0.0, 1.0, 0.0, 0.0, 0.0, 0.0001)",0
2018/12/16/17:22:08.726119,103951,1545002528,725881099,imu_link,0,1,30.6277694702,-96.4820785522,47.5759658813,"(1.0, 0.0, 0.0, 0.0, 1.0, 0.0, 0.0, 0.0, 0.0001)",0
2018/12/16/17:22:08.736123,103952,1545002528,735934972,imu_link,0,1,30.6277694702,-96.4820785522,47.5765991211,"(1.0, 0.0, 0.0, 0.0, 1.0, 0.0, 0.0, 0.0, 0.0001)",0
2018/12/16/17:22:08.746076,103953,1545002528,745835065,imu_link,0,1,30.6277694702,-96.4820785522,47.5767440796,"(1.0, 0.0, 0.0, 0.0, 1.0, 0.0, 0.0, 0.0, 0.0001)",0
2018/12/16/17:22:08.756085,103954,1545002528,755867958,imu_link,0,1,30.6277694702,-96.4820785522,47.5768928528,"(1.0, 0.0, 0.0, 0.0, 1.0, 0.0, 0.0, 0.0, 0.0001)",0
2018/12/16/17:22:08.766215,103955,1545002528,765993118,imu_link,0,1,30.6277694702,-96.4820785522,47.5770378113,"(1.0, 0.0, 0.0, 0.0, 1.0, 0.0, 0.0, 0.0, 0.0001)",0
2018/12/16/17:22:08.776140,103956,1545002528,775886058,imu_link,0,1,30.6277694702,-96.4820785522,47.5771713257,"(1.0, 0.0, 0.0, 0.0, 1.0, 0.0, 0.0, 0.0, 0.0001)",0
2018/12/16/17:22:08.786121,103957,1545002528,785870075,imu_link,0,1,30.6277694702,-96.4820785522,47.5770606995,"(1.0, 0.0, 0.0, 0.0, 1.0, 0.0, 0.0, 0.0, 0.0001)",0
2018/12/16/17:22:08.795942,103958,1545002528,795788049,imu_link,0,1,30.6277713776,-96.4820785522,47.5769500732,"(1.0, 0.0, 0.0, 0.0, 1.0, 0.0, 0.0, 0.0, 0.0001)",0
2018/12/16/17:22:08.806002,103959,1545002528,805824041,imu_link,0,1,30.6277713776,-96.4820785522,47.5763626099,"(1.0, 0.0, 0.0, 0.0, 1.0, 0.0, 0.0, 0.0, 0.0001)",0
2018/12/16/17:22:08.816383,103960,1545002528,816204071,imu_link,0,1,30.6277713776,-96.4820785522,47.5757675171,"(1.0, 0.0, 0.0, 0.0, 1.0, 0.0, 0.0, 0.0, 0.0001)",0
2018/12/16/17:22:08.826217,103961,1545002528,825994014,imu_link,0,1,30.6277713776,-96.4820785522,47.5768737793,"(1.0, 0.0, 0.0, 0.0, 1.0, 0.0, 0.0, 0.0, 0.0001)",0
2018/12/16/17:22:08.836006,103962,1545002528,835794925,imu_link,0,1,30.6277713776,-96.4820785522,47.5779953003,"(1.0, 0.0, 0.0, 0.0, 1.0, 0.0, 0.0, 0.0, 0.0001)",0
2018/12/16/17:22:08.846143,103963,1545002528,845733880,imu_link,0,1,30.6277713776,-96.4820785522,47.5771636963,"(1.0, 0.0, 0.0, 0.0, 1.0, 0.0, 0.0, 0.0, 0.0001)",0
2018/12/16/17:22:08.856107,103964,1545002528,855933904,imu_link,0,1,30.6277713776,-96.4820785522,47.5763320923,"(1.0, 0.0, 0.0, 0.0, 1.0, 0.0, 0.0, 0.0, 0.0001)",0
2018/12/16/17:22:08.866360,103965,1545002528,865959882,imu_link,0,1,30.6277713776,-96.4820785522,47.5762367249,"(1.0, 0.0, 0.0, 0.0, 1.0, 0.0, 0.0, 0.0, 0.0001)",0
2018/12/16/17:22:08.876025,103966,1545002528,875824928,imu_link,0,1,30.6277713776,-96.4820785522,47.5761489868,"(1.0, 0.0, 0.0, 0.0, 1.0, 0.0, 0.0, 0.0, 0.0001)",0
2018/12/16/17:22:08.886039,103967,1545002528,885833978,imu_link,0,1,30.6277732849,-96.4820785522,47.5758132935,"(1.0, 0.0, 0.0, 0.0, 1.0, 0.0, 0.0, 0.0, 0.0001)",0
2018/12/16/17:22:08.896027,103968,1545002528,895849943,imu_link,0,1,30.6277732849,-96.4820785522,47.5705337524,"(1.0, 0.0, 0.0, 0.0, 1.0, 0.0, 0.0, 0.0, 0.0001)",0
2018/12/16/17:22:08.906074,103969,1545002528,905859947,imu_link,0,1,30.6277732849,-96.4820785522,47.5650291443,"(1.0, 0.0, 0.0, 0.0, 1.0, 0.0, 0.0, 0.0, 0.0001)",0
2018/12/16/17:22:08.916364,103970,1545002528,915879011,imu_link,0,1,30.6277732849,-96.4820785522,47.5644607544,"(1.0, 0.0, 0.0, 0.0, 1.0, 0.0, 0.0, 0.0, 0.0001)",0
2018/12/16/17:22:08.926120,103971,1545002528,925896883,imu_link,0,1,30.6277732849,-96.4820785522,47.5643615723,"(1.0, 0.0, 0.0, 0.0, 1.0, 0.0, 0.0, 0.0, 0.0001)",0
2018/12/16/17:22:08.936421,103972,1545002528,935889959,imu_link,0,1,30.6277732849,-96.4820785522,47.564250946,"(1.0, 0.0, 0.0, 0.0, 1.0, 0.0, 0.0, 0.0, 0.0001)",0
2018/12/16/17:22:08.946096,103973,1545002528,945899009,imu_link,0,1,30.6277732849,-96.4820785522,47.5641479492,"(1.0, 0.0, 0.0, 0.0, 1.0, 0.0, 0.0, 0.0, 0.0001)",0
2018/12/16/17:22:08.956049,103974,1545002528,955851078,imu_link,0,1,30.6277732849,-96.4820785522,47.5640602112,"(1.0, 0.0, 0.0, 0.0, 1.0, 0.0, 0.0, 0.0, 0.0001)",0
2018/12/16/17:22:08.966297,103975,1545002528,965986013,imu_link,0,1,30.6277751923,-96.4820785522,47.5646820068,"(1.0, 0.0, 0.0, 0.0, 1.0, 0.0, 0.0, 0.0, 0.0001)",0
2018/12/16/17:22:08.976077,103976,1545002528,975841045,imu_link,0,1,30.6277751923,-96.4820785522,47.5652923584,"(1.0, 0.0, 0.0, 0.0, 1.0, 0.0, 0.0, 0.0, 0.0001)",0
2018/12/16/17:22:08.986068,103977,1545002528,985888957,imu_link,0,1,30.6277751923,-96.4820785522,47.5654525757,"(1.0, 0.0, 0.0, 0.0, 1.0, 0.0, 0.0, 0.0, 0.0001)",0
2018/12/16/17:22:08.996003,103978,1545002528,995827913,imu_link,0,1,30.6277751923,-96.4820785522,47.5656318665,"(1.0, 0.0, 0.0, 0.0, 1.0, 0.0, 0.0, 0.0, 0.0001)",0
2018/12/16/17:22:09.006136,103979,1545002529,5940914,imu_link,0,1,30.6277751923,-96.4820785522,47.5665168762,"(1.0, 0.0, 0.0, 0.0, 1.0, 0.0, 0.0, 0.0, 0.0001)",0
2018/12/16/17:22:09.016360,103980,1545002529,16149044,imu_link,0,1,30.6277751923,-96.4820785522,47.567401886,"(1.0, 0.0, 0.0, 0.0, 1.0, 0.0, 0.0, 0.0, 0.0001)",0
2018/12/16/17:22:09.026036,103981,1545002529,25840044,imu_link,0,1,30.6277751923,-96.4820785522,47.567111969,"(1.0, 0.0, 0.0, 0.0, 1.0, 0.0, 0.0, 0.0, 0.0001)",0
2018/12/16/17:22:09.036184,103982,1545002529,35965919,imu_link,0,1,30.6277751923,-96.4820785522,47.5668258667,"(1.0, 0.0, 0.0, 0.0, 1.0, 0.0, 0.0, 0.0, 0.0001)",0
2018/12/16/17:22:09.046087,103983,1545002529,45870065,imu_link,0,1,30.6277751923,-96.4820785522,47.5660476685,"(1.0, 0.0, 0.0, 0.0, 1.0, 0.0, 0.0, 0.0, 0.0001)",0
2018/12/16/17:22:09.056029,103984,1545002529,55847883,imu_link,0,1,30.6277770996,-96.4820785522,47.5652542114,"(1.0, 0.0, 0.0, 0.0, 1.0, 0.0, 0.0, 0.0, 0.0001)",0
2018/12/16/17:22:09.066313,103985,1545002529,66104888,imu_link,0,1,30.6277770996,-96.4820785522,47.5644760132,"(1.0, 0.0, 0.0, 0.0, 1.0, 0.0, 0.0, 0.0, 0.0001)",0
2018/12/16/17:22:09.076061,103986,1545002529,75829029,imu_link,0,1,30.6277770996,-96.4820785522,47.5637054443,"(1.0, 0.0, 0.0, 0.0, 1.0, 0.0, 0.0, 0.0, 0.0001)",0
2018/12/16/17:22:09.086062,103987,1545002529,85887908,imu_link,0,1,30.6277770996,-96.4820785522,47.5629196167,"(1.0, 0.0, 0.0, 0.0, 1.0, 0.0, 0.0, 0.0, 0.0001)",0
2018/12/16/17:22:09.096232,103988,1545002529,96028089,imu_link,0,1,30.6277770996,-96.4820785522,47.5621109009,"(1.0, 0.0, 0.0, 0.0, 1.0, 0.0, 0.0, 0.0, 0.0001)",0
2018/12/16/17:22:09.106149,103989,1545002529,105940103,imu_link,0,1,30.6277770996,-96.4820785522,47.5620384216,"(1.0, 0.0, 0.0, 0.0, 1.0, 0.0, 0.0, 0.0, 0.0001)",0
2018/12/16/17:22:09.116166,103990,1545002529,115962982,imu_link,0,1,30.6277770996,-96.4820785522,47.5619888306,"(1.0, 0.0, 0.0, 0.0, 1.0, 0.0, 0.0, 0.0, 0.0001)",0
2018/12/16/17:22:09.125969,103991,1545002529,125788927,imu_link,0,1,30.6277770996,-96.4820785522,47.5629272461,"(1.0, 0.0, 0.0, 0.0, 1.0, 0.0, 0.0, 0.0, 0.0001)",0
2018/12/16/17:22:09.136120,103992,1545002529,135926008,imu_link,0,1,30.6277770996,-96.4820785522,47.5638618469,"(1.0, 0.0, 0.0, 0.0, 1.0, 0.0, 0.0, 0.0, 0.0001)",0
2018/12/16/17:22:09.146094,103993,1545002529,145894050,imu_link,0,1,30.627779007,-96.4820785522,47.5604400635,"(1.0, 0.0, 0.0, 0.0, 1.0, 0.0, 0.0, 0.0, 0.0001)",0
2018/12/16/17:22:09.156158,103994,1545002529,155951023,imu_link,0,1,30.627779007,-96.4820785522,47.5571403503,"(1.0, 0.0, 0.0, 0.0, 1.0, 0.0, 0.0, 0.0, 0.0001)",0
2018/12/16/17:22:09.166371,103995,1545002529,166197061,imu_link,0,1,30.627779007,-96.4820785522,47.5574684143,"(1.0, 0.0, 0.0, 0.0, 1.0, 0.0, 0.0, 0.0, 0.0001)",0
2018/12/16/17:22:09.176226,103996,1545002529,176019906,imu_link,0,1,30.627779007,-96.4820785522,47.5576896667,"(1.0, 0.0, 0.0, 0.0, 1.0, 0.0, 0.0, 0.0, 0.0001)",0
2018/12/16/17:22:09.186336,103997,1545002529,186126947,imu_link,0,1,30.627779007,-96.4820785522,47.5576858521,"(1.0, 0.0, 0.0, 0.0, 1.0, 0.0, 0.0, 0.0, 0.0001)",0
2018/12/16/17:22:09.196227,103998,1545002529,196012973,imu_link,0,1,30.627779007,-96.4820785522,47.5576934814,"(1.0, 0.0, 0.0, 0.0, 1.0, 0.0, 0.0, 0.0, 0.0001)",0
2018/12/16/17:22:09.206330,103999,1545002529,206146955,imu_link,0,1,30.627779007,-96.4820785522,47.5574798584,"(1.0, 0.0, 0.0, 0.0, 1.0, 0.0, 0.0, 0.0, 0.0001)",0
2018/12/16/17:22:09.216400,104000,1545002529,216157913,imu_link,0,1,30.6277809143,-96.4820785522,47.5572509766,"(1.0, 0.0, 0.0, 0.0, 1.0, 0.0, 0.0, 0.0, 0.0001)",0
2018/12/16/17:22:09.226195,104001,1545002529,225991010,imu_link,0,1,30.6277809143,-96.4820785522,47.5579566956,"(1.0, 0.0, 0.0, 0.0, 1.0, 0.0, 0.0, 0.0, 0.0001)",0
2018/12/16/17:22:09.236279,104002,1545002529,236054897,imu_link,0,1,30.6277809143,-96.4820785522,47.5586700439,"(1.0, 0.0, 0.0, 0.0, 1.0, 0.0, 0.0, 0.0, 0.0001)",0
2018/12/16/17:22:09.246105,104003,1545002529,245933055,imu_link,0,1,30.6277809143,-96.4820785522,47.5596237183,"(1.0, 0.0, 0.0, 0.0, 1.0, 0.0, 0.0, 0.0, 0.0001)",0
2018/12/16/17:22:09.256201,104004,1545002529,256019115,imu_link,0,1,30.6277809143,-96.4820785522,47.560585022,"(1.0, 0.0, 0.0, 0.0, 1.0, 0.0, 0.0, 0.0, 0.0001)",0
2018/12/16/17:22:09.266262,104005,1545002529,266021966,imu_link,0,1,30.6277809143,-96.4820785522,47.5617828369,"(1.0, 0.0, 0.0, 0.0, 1.0, 0.0, 0.0, 0.0, 0.0001)",0
2018/12/16/17:22:09.276098,104006,1545002529,275911092,imu_link,0,1,30.6277809143,-96.4820785522,47.5629806519,"(1.0, 0.0, 0.0, 0.0, 1.0, 0.0, 0.0, 0.0, 0.0001)",0
2018/12/16/17:22:09.286210,104007,1545002529,286019086,imu_link,0,1,30.6277809143,-96.4820785522,47.5639419556,"(1.0, 0.0, 0.0, 0.0, 1.0, 0.0, 0.0, 0.0, 0.0001)",0
2018/12/16/17:22:09.296201,104008,1545002529,295943975,imu_link,0,1,30.6277809143,-96.4820785522,47.5649261475,"(1.0, 0.0, 0.0, 0.0, 1.0, 0.0, 0.0, 0.0, 0.0001)",0
2018/12/16/17:22:09.306105,104009,1545002529,305917978,imu_link,0,1,30.6277828217,-96.4820785522,47.5656814575,"(1.0, 0.0, 0.0, 0.0, 1.0, 0.0, 0.0, 0.0, 0.0001)",0
2018/12/16/17:22:09.316119,104010,1545002529,315912961,imu_link,0,1,30.6277828217,-96.4820785522,47.5664024353,"(1.0, 0.0, 0.0, 0.0, 1.0, 0.0, 0.0, 0.0, 0.0001)",0
2018/12/16/17:22:09.326107,104011,1545002529,325884103,imu_link,0,1,30.6277828217,-96.4820785522,47.5671348572,"(1.0, 0.0, 0.0, 0.0, 1.0, 0.0, 0.0, 0.0, 0.0001)",0
2018/12/16/17:22:09.336134,104012,1545002529,335935115,imu_link,0,1,30.6277828217,-96.4820785522,47.5678939819,"(1.0, 0.0, 0.0, 0.0, 1.0, 0.0, 0.0, 0.0, 0.0001)",0
2018/12/16/17:22:09.346097,104013,1545002529,345860004,imu_link,0,1,30.6277828217,-96.4820785522,47.5677337646,"(1.0, 0.0, 0.0, 0.0, 1.0, 0.0, 0.0, 0.0, 0.0001)",0
2018/12/16/17:22:09.356087,104014,1545002529,355915069,imu_link,0,1,30.6277828217,-96.4820785522,47.5675888062,"(1.0, 0.0, 0.0, 0.0, 1.0, 0.0, 0.0, 0.0, 0.0001)",0
2018/12/16/17:22:09.366139,104015,1545002529,365959882,imu_link,0,1,30.6277828217,-96.4820785522,47.5684051514,"(1.0, 0.0, 0.0, 0.0, 1.0, 0.0, 0.0, 0.0, 0.0001)",0
2018/12/16/17:22:09.376100,104016,1545002529,375858068,imu_link,0,1,30.6277828217,-96.4820785522,47.5692214966,"(1.0, 0.0, 0.0, 0.0, 1.0, 0.0, 0.0, 0.0, 0.0001)",0
2018/12/16/17:22:09.386194,104017,1545002529,385966062,imu_link,0,1,30.627784729,-96.4820785522,47.5700683594,"(1.0, 0.0, 0.0, 0.0, 1.0, 0.0, 0.0, 0.0, 0.0001)",0
2018/12/16/17:22:09.396158,104018,1545002529,395971059,imu_link,0,1,30.627784729,-96.4820785522,47.563205719,"(1.0, 0.0, 0.0, 0.0, 1.0, 0.0, 0.0, 0.0, 0.0001)",0
2018/12/16/17:22:09.406107,104019,1545002529,405910015,imu_link,0,1,30.627784729,-96.4820785522,47.5554695129,"(1.0, 0.0, 0.0, 0.0, 1.0, 0.0, 0.0, 0.0, 0.0001)",0
2018/12/16/17:22:09.416419,104020,1545002529,416187047,imu_link,0,1,30.627784729,-96.4820785522,47.5554199219,"(1.0, 0.0, 0.0, 0.0, 1.0, 0.0, 0.0, 0.0, 0.0001)",0
2018/12/16/17:22:09.426100,104021,1545002529,425895929,imu_link,0,1,30.627784729,-96.4820785522,47.5560951233,"(1.0, 0.0, 0.0, 0.0, 1.0, 0.0, 0.0, 0.0, 0.0001)",0
2018/12/16/17:22:09.436208,104022,1545002529,436027050,imu_link,0,1,30.627784729,-96.4820785522,47.5567550659,"(1.0, 0.0, 0.0, 0.0, 1.0, 0.0, 0.0, 0.0, 0.0001)",0
2018/12/16/17:22:09.446134,104023,1545002529,445950031,imu_link,0,1,30.627784729,-96.4820785522,47.5576286316,"(1.0, 0.0, 0.0, 0.0, 1.0, 0.0, 0.0, 0.0, 0.0001)",0
2018/12/16/17:22:09.456125,104024,1545002529,455935001,imu_link,0,1,30.6277866364,-96.4820785522,47.5585098267,"(1.0, 0.0, 0.0, 0.0, 1.0, 0.0, 0.0, 0.0, 0.0001)",0
2018/12/16/17:22:09.466261,104025,1545002529,466048955,imu_link,0,1,30.6277866364,-96.4820785522,47.5594024658,"(1.0, 0.0, 0.0, 0.0, 1.0, 0.0, 0.0, 0.0, 0.0001)",0
2018/12/16/17:22:09.476329,104026,1545002529,476078033,imu_link,0,1,30.6277866364,-96.4820785522,47.5603141785,"(1.0, 0.0, 0.0, 0.0, 1.0, 0.0, 0.0, 0.0, 0.0001)",0
2018/12/16/17:22:09.486182,104027,1545002529,485977888,imu_link,0,1,30.6277866364,-96.4820785522,47.560760498,"(1.0, 0.0, 0.0, 0.0, 1.0, 0.0, 0.0, 0.0, 0.0001)",0
2018/12/16/17:22:09.496377,104028,1545002529,496217012,imu_link,0,1,30.6277866364,-96.4820785522,47.5612258911,"(1.0, 0.0, 0.0, 0.0, 1.0, 0.0, 0.0, 0.0, 0.0001)",0
2018/12/16/17:22:09.506142,104029,1545002529,505927085,imu_link,0,1,30.6277866364,-96.4820785522,47.5614700317,"(1.0, 0.0, 0.0, 0.0, 1.0, 0.0, 0.0, 0.0, 0.0001)",0
2018/12/16/17:22:09.516411,104030,1545002529,515887022,imu_link,0,1,30.6277866364,-96.4820785522,47.5617408752,"(1.0, 0.0, 0.0, 0.0, 1.0, 0.0, 0.0, 0.0, 0.0001)",0
2018/12/16/17:22:09.526144,104031,1545002529,525970935,imu_link,0,1,30.6277866364,-96.4820785522,47.5615730286,"(1.0, 0.0, 0.0, 0.0, 1.0, 0.0, 0.0, 0.0, 0.0001)",0
2018/12/16/17:22:09.536162,104032,1545002529,535974025,imu_link,0,1,30.6277885437,-96.4820785522,47.561416626,"(1.0, 0.0, 0.0, 0.0, 1.0, 0.0, 0.0, 0.0, 0.0001)",0
2018/12/16/17:22:09.546280,104033,1545002529,546078920,imu_link,0,1,30.6277885437,-96.4820785522,47.5622291565,"(1.0, 0.0, 0.0, 0.0, 1.0, 0.0, 0.0, 0.0, 0.0001)",0
2018/12/16/17:22:09.556361,104034,1545002529,556132078,imu_link,0,1,30.6277885437,-96.4820785522,47.5630760193,"(1.0, 0.0, 0.0, 0.0, 1.0, 0.0, 0.0, 0.0, 0.0001)",0
2018/12/16/17:22:09.566355,104035,1545002529,566138029,imu_link,0,1,30.6277885437,-96.4820785522,47.5629768372,"(1.0, 0.0, 0.0, 0.0, 1.0, 0.0, 0.0, 0.0, 0.0001)",0
2018/12/16/17:22:09.576275,104036,1545002529,576057910,imu_link,0,1,30.6277885437,-96.4820785522,47.562877655,"(1.0, 0.0, 0.0, 0.0, 1.0, 0.0, 0.0, 0.0, 0.0001)",0
2018/12/16/17:22:09.586183,104037,1545002529,585942029,imu_link,0,1,30.6277885437,-96.4820785522,47.5632476807,"(1.0, 0.0, 0.0, 0.0, 1.0, 0.0, 0.0, 0.0, 0.0001)",0
2018/12/16/17:22:09.596285,104038,1545002529,596088886,imu_link,0,1,30.6277885437,-96.4820785522,47.5636024475,"(1.0, 0.0, 0.0, 0.0, 1.0, 0.0, 0.0, 0.0, 0.0001)",0
2018/12/16/17:22:09.606117,104039,1545002529,605927944,imu_link,0,1,30.6277885437,-96.4820785522,47.5644645691,"(1.0, 0.0, 0.0, 0.0, 1.0, 0.0, 0.0, 0.0, 0.0001)",0
2018/12/16/17:22:09.616493,104040,1545002529,616019010,imu_link,0,1,30.627790451,-96.4820785522,47.5653457642,"(1.0, 0.0, 0.0, 0.0, 1.0, 0.0, 0.0, 0.0, 0.0001)",0
2018/12/16/17:22:09.626104,104041,1545002529,625912904,imu_link,0,1,30.627790451,-96.4820785522,47.5662231445,"(1.0, 0.0, 0.0, 0.0, 1.0, 0.0, 0.0, 0.0, 0.0001)",0
2018/12/16/17:22:09.636260,104042,1545002529,636073112,imu_link,0,1,30.627790451,-96.4820785522,47.5671005249,"(1.0, 0.0, 0.0, 0.0, 1.0, 0.0, 0.0, 0.0, 0.0001)",0
2018/12/16/17:22:09.646132,104043,1545002529,645970106,imu_link,0,1,30.627790451,-96.4820785522,47.5595207214,"(1.0, 0.0, 0.0, 0.0, 1.0, 0.0, 0.0, 0.0, 0.0001)",0
2018/12/16/17:22:09.656494,104044,1545002529,656096935,imu_link,0,1,30.627790451,-96.4820785522,47.5523986816,"(1.0, 0.0, 0.0, 0.0, 1.0, 0.0, 0.0, 0.0, 0.0001)",0
2018/12/16/17:22:09.666396,104045,1545002529,666124105,imu_link,0,1,30.627790451,-96.4820785522,47.5539131165,"(1.0, 0.0, 0.0, 0.0, 1.0, 0.0, 0.0, 0.0, 0.0001)",0
2018/12/16/17:22:09.676090,104046,1545002529,675826072,imu_link,0,1,30.627790451,-96.4820785522,47.5548706055,"(1.0, 0.0, 0.0, 0.0, 1.0, 0.0, 0.0, 0.0, 0.0001)",0
2018/12/16/17:22:09.686191,104047,1545002529,686000108,imu_link,0,1,30.627790451,-96.4820785522,47.5553588867,"(1.0, 0.0, 0.0, 0.0, 1.0, 0.0, 0.0, 0.0, 0.0001)",0
2018/12/16/17:22:09.696064,104048,1545002529,695880889,imu_link,0,1,30.6277923584,-96.4820785522,47.5558319092,"(1.0, 0.0, 0.0, 0.0, 1.0, 0.0, 0.0, 0.0, 0.0001)",0
2018/12/16/17:22:09.706196,104049,1545002529,705944061,imu_link,0,1,30.6277923584,-96.4820785522,47.5555992126,"(1.0, 0.0, 0.0, 0.0, 1.0, 0.0, 0.0, 0.0, 0.0001)",0
2018/12/16/17:22:09.716414,104050,1545002529,716201066,imu_link,0,1,30.6277923584,-96.4820785522,47.5553665161,"(1.0, 0.0, 0.0, 0.0, 1.0, 0.0, 0.0, 0.0, 0.0001)",0
2018/12/16/17:22:09.726101,104051,1545002529,725928068,imu_link,0,1,30.6277923584,-96.4820785522,47.5556030273,"(1.0, 0.0, 0.0, 0.0, 1.0, 0.0, 0.0, 0.0, 0.0001)",0
2018/12/16/17:22:09.736088,104052,1545002529,735913038,imu_link,0,1,30.6277923584,-96.4820785522,47.5558242798,"(1.0, 0.0, 0.0, 0.0, 1.0, 0.0, 0.0, 0.0, 0.0001)",0
2018/12/16/17:22:09.746189,104053,1545002529,745989084,imu_link,0,1,30.6277923584,-96.4820785522,47.5565185547,"(1.0, 0.0, 0.0, 0.0, 1.0, 0.0, 0.0, 0.0, 0.0001)",0
2018/12/16/17:22:09.756089,104054,1545002529,755917072,imu_link,0,1,30.6277923584,-96.4820785522,47.5572242737,"(1.0, 0.0, 0.0, 0.0, 1.0, 0.0, 0.0, 0.0, 0.0001)",0
2018/12/16/17:22:09.766313,104055,1545002529,766129970,imu_link,0,1,30.6277923584,-96.4820785522,47.5574607849,"(1.0, 0.0, 0.0, 0.0, 1.0, 0.0, 0.0, 0.0, 0.0001)",0
2018/12/16/17:22:09.776066,104056,1545002529,775919914,imu_link,0,1,30.6277942657,-96.4820785522,47.5576553345,"(1.0, 0.0, 0.0, 0.0, 1.0, 0.0, 0.0, 0.0, 0.0001)",0
2018/12/16/17:22:09.786148,104057,1545002529,785923957,imu_link,0,1,30.6277942657,-96.4820785522,47.5590133667,"(1.0, 0.0, 0.0, 0.0, 1.0, 0.0, 0.0, 0.0, 0.0001)",0
2018/12/16/17:22:09.796061,104058,1545002529,795908927,imu_link,0,1,30.6277942657,-96.4820785522,47.5603981018,"(1.0, 0.0, 0.0, 0.0, 1.0, 0.0, 0.0, 0.0, 0.0001)",0
2018/12/16/17:22:09.806222,104059,1545002529,806010961,imu_link,0,1,30.6277942657,-96.4820785522,47.560131073,"(1.0, 0.0, 0.0, 0.0, 1.0, 0.0, 0.0, 0.0, 0.0001)",0
2018/12/16/17:22:09.816304,104060,1545002529,816061973,imu_link,0,1,30.6277942657,-96.4820785522,47.5598678589,"(1.0, 0.0, 0.0, 0.0, 1.0, 0.0, 0.0, 0.0, 0.0001)",0
2018/12/16/17:22:09.826109,104061,1545002529,825920104,imu_link,0,1,30.6277942657,-96.4820785522,47.5602989197,"(1.0, 0.0, 0.0, 0.0, 1.0, 0.0, 0.0, 0.0, 0.0001)",0
2018/12/16/17:22:09.836005,104062,1545002529,835833072,imu_link,0,1,30.6277942657,-96.4820785522,47.5607376099,"(1.0, 0.0, 0.0, 0.0, 1.0, 0.0, 0.0, 0.0, 0.0001)",0
2018/12/16/17:22:09.846175,104063,1545002529,845977067,imu_link,0,1,30.6277961731,-96.4820785522,47.5624084473,"(1.0, 0.0, 0.0, 0.0, 1.0, 0.0, 0.0, 0.0, 0.0001)",0
2018/12/16/17:22:09.856308,104064,1545002529,856096982,imu_link,0,1,30.6277961731,-96.4820785522,47.5640830994,"(1.0, 0.0, 0.0, 0.0, 1.0, 0.0, 0.0, 0.0, 0.0001)",0
2018/12/16/17:22:09.866397,104065,1545002529,866204023,imu_link,0,1,30.6277961731,-96.4820785522,47.5647926331,"(1.0, 0.0, 0.0, 0.0, 1.0, 0.0, 0.0, 0.0, 0.0001)",0
2018/12/16/17:22:09.876115,104066,1545002529,875919103,imu_link,0,1,30.6277961731,-96.4820785522,47.5655403137,"(1.0, 0.0, 0.0, 0.0, 1.0, 0.0, 0.0, 0.0, 0.0001)",0
2018/12/16/17:22:09.886235,104067,1545002529,886063098,imu_link,0,1,30.6277961731,-96.4820785522,47.5660667419,"(1.0, 0.0, 0.0, 0.0, 1.0, 0.0, 0.0, 0.0, 0.0001)",0
2018/12/16/17:22:09.896401,104068,1545002529,895963907,imu_link,0,1,30.6277961731,-96.4820785522,47.5592079163,"(1.0, 0.0, 0.0, 0.0, 1.0, 0.0, 0.0, 0.0, 0.0001)",0
2018/12/16/17:22:09.906184,104069,1545002529,905989885,imu_link,0,1,30.6277961731,-96.4820785522,47.5524559021,"(1.0, 0.0, 0.0, 0.0, 1.0, 0.0, 0.0, 0.0, 0.0001)",0
2018/12/16/17:22:09.916160,104070,1545002529,915914058,imu_link,0,1,30.6277961731,-96.4820785522,47.553062439,"(1.0, 0.0, 0.0, 0.0, 1.0, 0.0, 0.0, 0.0, 0.0001)",0
2018/12/16/17:22:09.926157,104071,1545002529,925956010,imu_link,0,1,30.6277980804,-96.4820785522,47.5527877808,"(1.0, 0.0, 0.0, 0.0, 1.0, 0.0, 0.0, 0.0, 0.0001)",0
2018/12/16/17:22:09.936145,104072,1545002529,935926914,imu_link,0,1,30.6277980804,-96.4820785522,47.5525016785,"(1.0, 0.0, 0.0, 0.0, 1.0, 0.0, 0.0, 0.0, 0.0001)",0
2018/12/16/17:22:09.946142,104073,1545002529,945954084,imu_link,0,1,30.6277980804,-96.4820785522,47.5528678894,"(1.0, 0.0, 0.0, 0.0, 1.0, 0.0, 0.0, 0.0, 0.0001)",0
2018/12/16/17:22:09.956123,104074,1545002529,955960988,imu_link,0,1,30.6277980804,-96.4820785522,47.5532493591,"(1.0, 0.0, 0.0, 0.0, 1.0, 0.0, 0.0, 0.0, 0.0001)",0
2018/12/16/17:22:09.966281,104075,1545002529,966095924,imu_link,0,1,30.6277980804,-96.4820785522,47.5534248352,"(1.0, 0.0, 0.0, 0.0, 1.0, 0.0, 0.0, 0.0, 0.0001)",0
2018/12/16/17:22:09.976072,104076,1545002529,975873947,imu_link,0,1,30.6277980804,-96.4820785522,47.5535736084,"(1.0, 0.0, 0.0, 0.0, 1.0, 0.0, 0.0, 0.0, 0.0001)",0
2018/12/16/17:22:09.986114,104077,1545002529,985908031,imu_link,0,1,30.6277980804,-96.4820785522,47.5541610718,"(1.0, 0.0, 0.0, 0.0, 1.0, 0.0, 0.0, 0.0, 0.0001)",0
2018/12/16/17:22:09.996103,104078,1545002529,995914936,imu_link,0,1,30.6277999878,-96.4820785522,47.5547904968,"(1.0, 0.0, 0.0, 0.0, 1.0, 0.0, 0.0, 0.0, 0.0001)",0
2018/12/16/17:22:10.006161,104079,1545002530,5970954,imu_link,0,1,30.6277999878,-96.4820785522,47.554977417,"(1.0, 0.0, 0.0, 0.0, 1.0, 0.0, 0.0, 0.0, 0.0001)",0
2018/12/16/17:22:10.017272,104080,1545002530,16907930,imu_link,0,1,30.6277999878,-96.4820785522,47.5551681519,"(1.0, 0.0, 0.0, 0.0, 1.0, 0.0, 0.0, 0.0, 0.0001)",0
2018/12/16/17:22:10.026203,104081,1545002530,25970935,imu_link,0,1,30.6277999878,-96.4820785522,47.5558395386,"(1.0, 0.0, 0.0, 0.0, 1.0, 0.0, 0.0, 0.0, 0.0001)",0
2018/12/16/17:22:10.036204,104082,1545002530,36048889,imu_link,0,1,30.6277999878,-96.4820785522,47.5565299988,"(1.0, 0.0, 0.0, 0.0, 1.0, 0.0, 0.0, 0.0, 0.0001)",0
2018/12/16/17:22:10.046219,104083,1545002530,46005010,imu_link,0,1,30.6277999878,-96.4820785522,47.5577163696,"(1.0, 0.0, 0.0, 0.0, 1.0, 0.0, 0.0, 0.0, 0.0001)",0
2018/12/16/17:22:10.056204,104084,1545002530,56029081,imu_link,0,1,30.6277999878,-96.4820785522,47.5589027405,"(1.0, 0.0, 0.0, 0.0, 1.0, 0.0, 0.0, 0.0, 0.0001)",0
2018/12/16/17:22:10.066411,104085,1545002530,66234111,imu_link,0,1,30.6277999878,-96.4820785522,47.5596122742,"(1.0, 0.0, 0.0, 0.0, 1.0, 0.0, 0.0, 0.0, 0.0001)",0
2018/12/16/17:22:10.076007,104086,1545002530,75814962,imu_link,0,1,30.6278018951,-96.4820785522,47.5602989197,"(1.0, 0.0, 0.0, 0.0, 1.0, 0.0, 0.0, 0.0, 0.0001)",0
2018/12/16/17:22:10.086199,104087,1545002530,86014032,imu_link,0,1,30.6278018951,-96.4820785522,47.561466217,"(1.0, 0.0, 0.0, 0.0, 1.0, 0.0, 0.0, 0.0, 0.0001)",0
2018/12/16/17:22:10.096411,104088,1545002530,96180915,imu_link,0,1,30.6278018951,-96.4820785522,47.5626220703,"(1.0, 0.0, 0.0, 0.0, 1.0, 0.0, 0.0, 0.0, 0.0001)",0
2018/12/16/17:22:10.106160,104089,1545002530,105974912,imu_link,0,1,30.6278018951,-96.4820785522,47.5632743835,"(1.0, 0.0, 0.0, 0.0, 1.0, 0.0, 0.0, 0.0, 0.0001)",0
