time,.header.seq,.header.stamp.secs,.header.stamp.nsecs,.header.frame_id,.latitude,.longitude,.hEll
2018/12/16/17:23:11.408467,15901,0,0,5,22.7830000043,4.57900000005,0.0
2018/12/16/17:23:11.428900,15902,0,0,5,22.7830000043,4.57900000005,0.0
2018/12/16/17:23:11.449782,15903,0,0,5,22.7830000043,4.57900000005,0.0
2018/12/16/17:23:11.467948,15904,0,0,5,22.7830000043,4.57900000005,0.0
2018/12/16/17:23:11.488451,15905,0,0,5,22.7830000043,4.57900000005,0.0
2018/12/16/17:23:11.509216,15906,0,0,5,22.7830000043,4.57900000005,0.0
2018/12/16/17:23:11.528894,15907,0,0,5,22.7830000043,4.57900000005,0.0
2018/12/16/17:23:11.548804,15908,0,0,5,22.7830000043,4.57900000005,0.0
2018/12/16/17:23:11.568568,15909,0,0,5,22.783000003,4.57900000001,0.0
2018/12/16/17:23:11.589631,15910,0,0,5,22.783000003,4.57900000001,0.0
2018/12/16/17:23:11.608945,15911,0,0,5,22.783000003,4.57900000001,0.0
2018/12/16/17:23:11.629199,15912,0,0,5,22.783000003,4.57900000001,0.0
2018/12/16/17:23:11.649347,15913,0,0,5,22.783000003,4.57900000001,0.0
2018/12/16/17:23:11.668091,15914,0,0,5,22.783000003,4.57900000001,0.0
2018/12/16/17:23:11.688631,15915,0,0,5,22.7830000034,4.57899999997,0.0
2018/12/16/17:23:11.708499,15916,0,0,5,22.7830000034,4.57899999997,0.0
2018/12/16/17:23:11.729553,15917,0,0,5,22.7830000034,4.57899999997,0.0
2018/12/16/17:23:11.748830,15918,0,0,5,22.7830000034,4.57899999997,0.0
2018/12/16/17:23:11.769225,15919,0,0,5,22.7830000034,4.57899999997,0.0
2018/12/16/17:23:11.788462,15920,0,0,5,22.7830000034,4.57899999997,0.0
2018/12/16/17:23:11.808914,15921,0,0,5,22.7830000034,4.57899999997,0.0
2018/12/16/17:23:11.828867,15922,0,0,5,22.7830000034,4.57899999997,0.0
2018/12/16/17:23:11.849741,15923,0,0,5,22.7830001047,4.57899999783,0.0
2018/12/16/17:23:11.868786,15924,0,0,5,22.7830001047,4.57899999783,0.0
2018/12/16/17:23:11.889075,15925,0,0,5,22.7830001047,4.57899999783,0.0
2018/12/16/17:23:11.908752,15926,0,0,5,22.7830001047,4.57899999783,0.0
2018/12/16/17:23:11.929050,15927,0,0,5,22.7830001047,4.57899999783,0.0
2018/12/16/17:23:11.948957,15928,0,0,5,22.7830001047,4.57899999783,0.0
2018/12/16/17:23:11.968626,15929,0,0,5,22.783170396,4.57899645939,0.0
2018/12/16/17:23:11.988799,15930,0,0,5,22.783170396,4.57899645939,0.0
2018/12/16/17:23:12.009310,15931,0,0,5,22.783170396,4.57899645939,0.0
2018/12/16/17:23:12.029374,15932,0,0,5,22.783170396,4.57899645939,0.0
2018/12/16/17:23:12.048608,15933,0,0,5,22.783170396,4.57899645939,0.0
2018/12/16/17:23:12.069288,15934,0,0,5,22.783170396,4.57899645939,0.0
2018/12/16/17:23:12.088292,15935,0,0,5,22.783170396,4.57899645939,0.0
2018/12/16/17:23:12.108464,15936,0,0,5,22.783170396,4.57899645939,0.0
2018/12/16/17:23:12.128388,15937,0,0,5,24.0408176101,4.55279059482,0.0
2018/12/16/17:23:12.149212,15938,0,0,5,24.0408176101,4.55279059482,0.0
2018/12/16/17:23:12.168666,15939,0,0,5,24.0408176101,4.55279059482,0.0
2018/12/16/17:23:12.189333,15940,0,0,5,24.0408176101,4.55279059482,0.0
2018/12/16/17:23:12.208902,15941,0,0,5,24.0408176101,4.55279059482,0.0
2018/12/16/17:23:12.228517,15942,0,0,5,24.0408176101,4.55279059482,0.0
2018/12/16/17:23:12.249521,15943,0,0,5,27.125749767,4.48848599531,0.0
2018/12/16/17:23:12.269322,15944,0,0,5,27.125749767,4.48848599531,0.0
2018/12/16/17:23:12.289200,15945,0,0,5,27.125749767,4.48848599531,0.0
2018/12/16/17:23:12.309204,15946,0,0,5,27.125749767,4.48848599531,0.0
2018/12/16/17:23:12.328167,15947,0,0,5,27.125749767,4.48848599531,0.0
2018/12/16/17:23:12.349779,15948,0,0,5,27.125749767,4.48848599531,0.0
2018/12/16/17:23:12.369332,15949,0,0,5,27.125749767,4.48848599531,0.0
2018/12/16/17:23:12.388653,15950,0,0,5,27.1970206273,4.48699970618,0.0
2018/12/16/17:23:12.408896,15951,0,0,5,27.1970206273,4.48699970618,0.0
2018/12/16/17:23:12.428686,15952,0,0,5,27.1970206273,4.48699970618,0.0
2018/12/16/17:23:12.449178,15953,0,0,5,27.1970206273,4.48699970618,0.0
2018/12/16/17:23:12.468886,15954,0,0,5,27.1970206273,4.48699970618,0.0
2018/12/16/17:23:12.488626,15955,0,0,5,27.1970206273,4.48699970618,0.0
2018/12/16/17:23:12.508640,15956,0,0,5,27.1970206273,4.48699970618,0.0
2018/12/16/17:23:12.529188,15957,0,0,5,27.1970206273,4.48699970618,0.0
2018/12/16/17:23:12.549501,15958,0,0,5,27.1970206273,4.48699970618,0.0
2018/12/16/17:23:12.568560,15959,0,0,5,27.1970001855,4.486999997,0.0
2018/12/16/17:23:12.588667,15960,0,0,5,27.1970001855,4.486999997,0.0
2018/12/16/17:23:12.608780,15961,0,0,5,27.1970001855,4.486999997,0.0
2018/12/16/17:23:12.628511,15962,0,0,5,27.1970001855,4.486999997,0.0
2018/12/16/17:23:12.648730,15963,0,0,5,27.1970001855,4.486999997,0.0
2018/12/16/17:23:12.668078,15964,0,0,5,27.1970001855,4.486999997,0.0
2018/12/16/17:23:12.689191,15965,0,0,5,27.1970001855,4.486999997,0.0
2018/12/16/17:23:12.709595,15966,0,0,5,27.197001109,4.48699998202,0.0
2018/12/16/17:23:12.728480,15967,0,0,5,27.197001109,4.48699998202,0.0
2018/12/16/17:23:12.749267,15968,0,0,5,27.197001109,4.48699998202,0.0
2018/12/16/17:23:12.768459,15969,0,0,5,27.197001109,4.48699998202,0.0
2018/12/16/17:23:12.788385,15970,0,0,5,27.197001109,4.48699998202,0.0
2018/12/16/17:23:12.809145,15971,0,0,5,27.197001109,4.48699998202,0.0
2018/12/16/17:23:12.828952,15972,0,0,5,27.197001109,4.48699998202,0.0
2018/12/16/17:23:12.849202,15973,0,0,5,27.1970503129,4.48699918412,0.0
2018/12/16/17:23:12.869243,15974,0,0,5,27.1970503129,4.48699918412,0.0
2018/12/16/17:23:12.888920,15975,0,0,5,27.1970503129,4.48699918412,0.0
2018/12/16/17:23:12.908504,15976,0,0,5,27.1970503129,4.48699918412,0.0
2018/12/16/17:23:12.929248,15977,0,0,5,27.1970503129,4.48699918412,0.0
2018/12/16/17:23:12.948532,15978,0,0,5,27.1970503129,4.48699918412,0.0
2018/12/16/17:23:12.968104,15979,0,0,5,27.1970503129,4.48699918412,0.0
2018/12/16/17:23:12.989833,15980,0,0,5,29.9734084367,4.44197716664,0.0
2018/12/16/17:23:13.009075,15981,0,0,5,29.9734084367,4.44197716664,0.0
2018/12/16/17:23:13.028295,15982,0,0,5,29.9734084367,4.44197716664,0.0
2018/12/16/17:23:13.048580,15983,0,0,5,29.9734084367,4.44197716664,0.0
2018/12/16/17:23:13.068885,15984,0,0,5,29.9734084367,4.44197716664,0.0
2018/12/16/17:23:13.088412,15985,0,0,5,29.9734084367,4.44197716664,0.0
2018/12/16/17:23:13.108864,15986,0,0,5,29.9734084367,4.44197716664,0.0
2018/12/16/17:23:13.128931,15987,0,0,5,30.8944331293,4.4270416287,0.0
2018/12/16/17:23:13.148511,15988,0,0,5,30.8944331293,4.4270416287,0.0
2018/12/16/17:23:13.168401,15989,0,0,5,30.8944331293,4.4270416287,0.0
2018/12/16/17:23:13.189191,15990,0,0,5,30.8944331293,4.4270416287,0.0
2018/12/16/17:23:13.208536,15991,0,0,5,30.8944331293,4.4270416287,0.0
2018/12/16/17:23:13.228393,15992,0,0,5,30.8944331293,4.4270416287,0.0
2018/12/16/17:23:13.249909,15993,0,0,5,30.8944331293,4.4270416287,0.0
2018/12/16/17:23:13.268619,15994,0,0,5,30.8969990784,4.42700001642,0.0
2018/12/16/17:23:13.289243,15995,0,0,5,30.8969990784,4.42700001642,0.0
2018/12/16/17:23:13.309388,15996,0,0,5,30.8969990784,4.42700001642,0.0
2018/12/16/17:23:13.329211,15997,0,0,5,30.8969990784,4.42700001642,0.0
2018/12/16/17:23:13.348434,15998,0,0,5,30.8969990784,4.42700001642,0.0
2018/12/16/17:23:13.369183,15999,0,0,5,30.8969990784,4.42700001642,0.0
2018/12/16/17:23:13.388459,16000,0,0,5,30.8969990784,4.42700001642,0.0
2018/12/16/17:23:13.408947,16001,0,0,5,30.8969990784,4.42700001642,0.0
2018/12/16/17:23:13.429163,16002,0,0,5,30.9578183722,4.42661488469,0.0
2018/12/16/17:23:13.449164,16003,0,0,5,30.9578183722,4.42661488469,0.0
2018/12/16/17:23:13.469061,16004,0,0,5,30.9578183722,4.42661488469,0.0
2018/12/16/17:23:13.488832,16005,0,0,5,30.9578183722,4.42661488469,0.0
2018/12/16/17:23:13.509476,16006,0,0,5,30.9578183722,4.42661488469,0.0
2018/12/16/17:23:13.529481,16007,0,0,5,30.9578183722,4.42661488469,0.0
2018/12/16/17:23:13.548422,16008,0,0,5,30.9786543685,4.4264827505,0.0
2018/12/16/17:23:13.569210,16009,0,0,5,30.9786543685,4.4264827505,0.0
2018/12/16/17:23:13.589519,16010,0,0,5,30.9786543685,4.4264827505,0.0
2018/12/16/17:23:13.609420,16011,0,0,5,30.9786543685,4.4264827505,0.0
2018/12/16/17:23:13.628437,16012,0,0,5,30.9786543685,4.4264827505,0.0
2018/12/16/17:23:13.648888,16013,0,0,5,30.9786543685,4.4264827505,0.0
2018/12/16/17:23:13.669578,16014,0,0,5,30.9786543685,4.4264827505,0.0
2018/12/16/17:23:13.688792,16015,0,0,5,31.0132641977,4.42626636353,0.0
2018/12/16/17:23:13.709547,16016,0,0,5,31.0132641977,4.42626636353,0.0
2018/12/16/17:23:13.730060,16017,0,0,5,31.0132641977,4.42626636353,0.0
2018/12/16/17:23:13.748296,16018,0,0,5,31.0132641977,4.42626636353,0.0
2018/12/16/17:23:13.768302,16019,0,0,5,31.0132641977,4.42626636353,0.0
2018/12/16/17:23:13.788430,16020,0,0,5,31.0132641977,4.42626636353,0.0
2018/12/16/17:23:13.808397,16021,0,0,5,31.0132641977,4.42626636353,0.0
2018/12/16/17:23:13.828802,16022,0,0,5,31.0132641977,4.42626636353,0.0
2018/12/16/17:23:13.849215,16023,0,0,5,31.0006453165,4.42635014966,0.0
2018/12/16/17:23:13.868546,16024,0,0,5,31.0006453165,4.42635014966,0.0
2018/12/16/17:23:13.889569,16025,0,0,5,31.0006453165,4.42635014966,0.0
2018/12/16/17:23:13.909258,16026,0,0,5,31.0006453165,4.42635014966,0.0
2018/12/16/17:23:13.928469,16027,0,0,5,31.0006453165,4.42635014966,0.0
2018/12/16/17:23:13.948590,16028,0,0,5,31.0006453165,4.42635014966,0.0
2018/12/16/17:23:13.969137,16029,0,0,5,31.3269682785,4.42430922413,0.0
2018/12/16/17:23:13.988860,16030,0,0,5,31.3269682785,4.42430922413,0.0
2018/12/16/17:23:14.009147,16031,0,0,5,31.3269682785,4.42430922413,0.0
2018/12/16/17:23:14.029254,16032,0,0,5,31.3269682785,4.42430922413,0.0
2018/12/16/17:23:14.049500,16033,0,0,5,31.3269682785,4.42430922413,0.0
2018/12/16/17:23:14.069108,16034,0,0,5,31.3269682785,4.42430922413,0.0
2018/12/16/17:23:14.088310,16035,0,0,5,31.3269682785,4.42430922413,0.0
2018/12/16/17:23:14.109115,16036,0,0,5,31.3269682785,4.42430922413,0.0
2018/12/16/17:23:14.129142,16037,0,0,5,32.4273778192,4.41791350811,0.0
2018/12/16/17:23:14.148810,16038,0,0,5,32.4273778192,4.41791350811,0.0
2018/12/16/17:23:14.169153,16039,0,0,5,32.4273778192,4.41791350811,0.0
2018/12/16/17:23:14.188369,16040,0,0,5,32.4273778192,4.41791350811,0.0
2018/12/16/17:23:14.208516,16041,0,0,5,32.4273778192,4.41791350811,0.0
2018/12/16/17:23:14.229244,16042,0,0,5,32.4273778192,4.41791350811,0.0
2018/12/16/17:23:14.248229,16043,0,0,5,32.4273778192,4.41791350811,0.0
2018/12/16/17:23:14.268880,16044,0,0,5,35.2131902318,4.40517193203,0.0
2018/12/16/17:23:14.289568,16045,0,0,5,35.2131902318,4.40517193203,0.0
2018/12/16/17:23:14.308886,16046,0,0,5,35.2131902318,4.40517193203,0.0
2018/12/16/17:23:14.328910,16047,0,0,5,35.2131902318,4.40517193203,0.0
2018/12/16/17:23:14.349238,16048,0,0,5,35.2131902318,4.40517193203,0.0
2018/12/16/17:23:14.369127,16049,0,0,5,35.2131902318,4.40517193203,0.0
2018/12/16/17:23:14.388408,16050,0,0,5,36.0466486849,4.40544278578,0.0
2018/12/16/17:23:14.408122,16051,0,0,5,36.0466486849,4.40544278578,0.0
2018/12/16/17:23:14.428815,16052,0,0,5,36.0466486849,4.40544278578,0.0
2018/12/16/17:23:14.449058,16053,0,0,5,36.0466486849,4.40544278578,0.0
2018/12/16/17:23:14.468492,16054,0,0,5,36.0466486849,4.40544278578,0.0
2018/12/16/17:23:14.489155,16055,0,0,5,36.0466486849,4.40544278578,0.0
2018/12/16/17:23:14.509113,16056,0,0,5,36.0466486849,4.40544278578,0.0
2018/12/16/17:23:14.529518,16057,0,0,5,36.0466486849,4.40544278578,0.0
2018/12/16/17:23:14.548891,16058,0,0,5,36.0466486849,4.40544278578,0.0
2018/12/16/17:23:14.568527,16059,0,0,5,37.9318850532,5.36291469187,0.0
2018/12/16/17:23:14.589133,16060,0,0,5,37.9318850532,5.36291469187,0.0
2018/12/16/17:23:14.608176,16061,0,0,5,37.9318850532,5.36291469187,0.0
2018/12/16/17:23:14.629560,16062,0,0,5,37.9318850532,5.36291469187,0.0
2018/12/16/17:23:14.648275,16063,0,0,5,37.9318850532,5.36291469187,0.0
2018/12/16/17:23:14.668397,16064,0,0,5,37.9318850532,5.36291469187,0.0
2018/12/16/17:23:14.689052,16065,0,0,5,40.0279866356,6.3728293218,0.0
2018/12/16/17:23:14.709156,16066,0,0,5,40.0279866356,6.3728293218,0.0
2018/12/16/17:23:14.728845,16067,0,0,5,40.0279866356,6.3728293218,0.0
2018/12/16/17:23:14.749565,16068,0,0,5,40.0279866356,6.3728293218,0.0
2018/12/16/17:23:14.769797,16069,0,0,5,40.0279866356,6.3728293218,0.0
2018/12/16/17:23:14.789100,16070,0,0,5,40.0279866356,6.3728293218,0.0
2018/12/16/17:23:14.809262,16071,0,0,5,40.0279866356,6.3728293218,0.0
2018/12/16/17:23:14.829014,16072,0,0,5,40.0279866356,6.3728293218,0.0
2018/12/16/17:23:14.848829,16073,0,0,5,43.6650418582,8.22332109625,0.0
2018/12/16/17:23:14.869327,16074,0,0,5,43.6650418582,8.22332109625,0.0
2018/12/16/17:23:14.888349,16075,0,0,5,43.6650418582,8.22332109625,0.0
2018/12/16/17:23:14.908839,16076,0,0,5,43.6650418582,8.22332109625,0.0
2018/12/16/17:23:14.928358,16077,0,0,5,43.6650418582,8.22332109625,0.0
2018/12/16/17:23:14.948421,16078,0,0,5,43.6650418582,8.22332109625,0.0
2018/12/16/17:23:14.968974,16079,0,0,5,43.9058571103,8.29974951261,0.0
2018/12/16/17:23:14.988078,16080,0,0,5,43.9058571103,8.29974951261,0.0
2018/12/16/17:23:15.008835,16081,0,0,5,43.9058571103,8.29974951261,0.0
2018/12/16/17:23:15.029166,16082,0,0,5,43.9058571103,8.29974951261,0.0
2018/12/16/17:23:15.048588,16083,0,0,5,43.9058571103,8.29974951261,0.0
2018/12/16/17:23:15.069040,16084,0,0,5,43.9058571103,8.29974951261,0.0
2018/12/16/17:23:15.087984,16085,0,0,5,43.9058571103,8.29974951261,0.0
2018/12/16/17:23:15.109094,16086,0,0,5,43.9058571103,8.29974951261,0.0
2018/12/16/17:23:15.128768,16087,0,0,5,45.1332706883,8.30652982961,0.0
2018/12/16/17:23:15.148497,16088,0,0,5,45.1332706883,8.30652982961,0.0
2018/12/16/17:23:15.169196,16089,0,0,5,45.1332706883,8.30652982961,0.0
2018/12/16/17:23:15.189577,16090,0,0,5,45.1332706883,8.30652982961,0.0
2018/12/16/17:23:15.208870,16091,0,0,5,45.1332706883,8.30652982961,0.0
2018/12/16/17:23:15.228258,16092,0,0,5,45.1332706883,8.30652982961,0.0
2018/12/16/17:23:15.249989,16093,0,0,5,45.1332706883,8.30652982961,0.0
2018/12/16/17:23:15.268281,16094,0,0,5,45.0638145181,8.30705932557,0.0
2018/12/16/17:23:15.288309,16095,0,0,5,45.0638145181,8.30705932557,0.0
2018/12/16/17:23:15.309196,16096,0,0,5,45.0638145181,8.30705932557,0.0
2018/12/16/17:23:15.328439,16097,0,0,5,45.0638145181,8.30705932557,0.0
2018/12/16/17:23:15.348069,16098,0,0,5,45.0638145181,8.30705932557,0.0
2018/12/16/17:23:15.369234,16099,0,0,5,45.0638145181,8.30705932557,0.0
2018/12/16/17:23:15.389554,16100,0,0,5,45.0638145181,8.30705932557,0.0
2018/12/16/17:23:15.408510,16101,0,0,5,45.0638145181,8.30705932557,0.0
2018/12/16/17:23:15.428102,16102,0,0,5,45.4037864594,8.30500017966,0.0
2018/12/16/17:23:15.449173,16103,0,0,5,45.4037864594,8.30500017966,0.0
2018/12/16/17:23:15.468017,16104,0,0,5,45.4037864594,8.30500017966,0.0
2018/12/16/17:23:15.489130,16105,0,0,5,45.4037864594,8.30500017966,0.0
2018/12/16/17:23:15.509374,16106,0,0,5,45.4037864594,8.30500017966,0.0
2018/12/16/17:23:15.528532,16107,0,0,5,45.4037864594,8.30500017966,0.0
2018/12/16/17:23:15.549143,16108,0,0,5,46.496899108,8.2988887722,0.0
2018/12/16/17:23:15.568853,16109,0,0,5,46.496899108,8.2988887722,0.0
2018/12/16/17:23:15.589092,16110,0,0,5,46.496899108,8.2988887722,0.0
2018/12/16/17:23:15.608444,16111,0,0,5,46.496899108,8.2988887722,0.0
2018/12/16/17:23:15.629267,16112,0,0,5,46.496899108,8.2988887722,0.0
2018/12/16/17:23:15.649189,16113,0,0,5,46.496899108,8.2988887722,0.0
2018/12/16/17:23:15.668372,16114,0,0,5,46.496899108,8.2988887722,0.0
2018/12/16/17:23:15.688289,16115,0,0,5,46.9639332518,8.29625424813,0.0
2018/12/16/17:23:15.709134,16116,0,0,5,46.9639332518,8.29625424813,0.0
2018/12/16/17:23:15.729064,16117,0,0,5,46.9639332518,8.29625424813,0.0
2018/12/16/17:23:15.749500,16118,0,0,5,46.9639332518,8.29625424813,0.0
2018/12/16/17:23:15.768296,16119,0,0,5,46.9639332518,8.29625424813,0.0
2018/12/16/17:23:15.788491,16120,0,0,5,46.9639332518,8.29625424813,0.0
2018/12/16/17:23:15.808751,16121,0,0,5,46.9639332518,8.29625424813,0.0
2018/12/16/17:23:15.828881,16122,0,0,5,47.7433135392,8.2917843055,0.0
2018/12/16/17:23:15.848853,16123,0,0,5,47.7433135392,8.2917843055,0.0
2018/12/16/17:23:15.868306,16124,0,0,5,47.7433135392,8.2917843055,0.0
2018/12/16/17:23:15.888757,16125,0,0,5,47.7433135392,8.2917843055,0.0
2018/12/16/17:23:15.908855,16126,0,0,5,47.7433135392,8.2917843055,0.0
2018/12/16/17:23:15.928444,16127,0,0,5,47.7433135392,8.2917843055,0.0
2018/12/16/17:23:15.949171,16128,0,0,5,47.7433135392,8.2917843055,0.0
2018/12/16/17:23:15.969309,16129,0,0,5,47.7433135392,8.2917843055,0.0
2018/12/16/17:23:15.989248,16130,0,0,5,47.8594753409,8.29111775865,0.0
2018/12/16/17:23:16.009490,16131,0,0,5,47.8594753409,8.29111775865,0.0
2018/12/16/17:23:16.028840,16132,0,0,5,47.8594753409,8.29111775865,0.0
2018/12/16/17:23:16.048878,16133,0,0,5,47.8594753409,8.29111775865,0.0
2018/12/16/17:23:16.069293,16134,0,0,5,47.8594753409,8.29111775865,0.0
2018/12/16/17:23:16.089066,16135,0,0,5,47.8594753409,8.29111775865,0.0
2018/12/16/17:23:16.109453,16136,0,0,5,47.8594753409,8.29111775865,0.0
2018/12/16/17:23:16.128361,16137,0,0,5,47.8710407016,8.29105143858,0.0
2018/12/16/17:23:16.148826,16138,0,0,5,47.8710407016,8.29105143858,0.0
2018/12/16/17:23:16.168775,16139,0,0,5,47.8710407016,8.29105143858,0.0
2018/12/16/17:23:16.188365,16140,0,0,5,47.8710407016,8.29105143858,0.0
2018/12/16/17:23:16.208814,16141,0,0,5,47.8710407016,8.29105143858,0.0
2018/12/16/17:23:16.228839,16142,0,0,5,47.8710407016,8.29105143858,0.0
2018/12/16/17:23:16.249811,16143,0,0,5,47.8710407016,8.29105143858,0.0
2018/12/16/17:23:16.268695,16144,0,0,5,47.8763588849,8.29102155737,0.0
2018/12/16/17:23:16.288747,16145,0,0,5,47.8763588849,8.29102155737,0.0
2018/12/16/17:23:16.309094,16146,0,0,5,47.8763588849,8.29102155737,0.0
2018/12/16/17:23:16.329082,16147,0,0,5,47.8763588849,8.29102155737,0.0
2018/12/16/17:23:16.349214,16148,0,0,5,47.8763588849,8.29102155737,0.0
2018/12/16/17:23:16.369188,16149,0,0,5,47.8763588849,8.29102155737,0.0
2018/12/16/17:23:16.388772,16150,0,0,5,47.8763588849,8.29102155737,0.0
2018/12/16/17:23:16.408845,16151,0,0,5,48.1129737157,8.28995320778,0.0
2018/12/16/17:23:16.428385,16152,0,0,5,48.1129737157,8.28995320778,0.0
2018/12/16/17:23:16.448334,16153,0,0,5,48.1129737157,8.28995320778,0.0
2018/12/16/17:23:16.469011,16154,0,0,5,48.1129737157,8.28995320778,0.0
2018/12/16/17:23:16.488442,16155,0,0,5,48.1129737157,8.28995320778,0.0
2018/12/16/17:23:16.509118,16156,0,0,5,48.1129737157,8.28995320778,0.0
2018/12/16/17:23:16.529487,16157,0,0,5,48.1129737157,8.28995320778,0.0
2018/12/16/17:23:16.548944,16158,0,0,5,48.1129737157,8.28995320778,0.0
2018/12/16/17:23:16.569216,16159,0,0,5,48.6970785237,8.28728564165,0.0
2018/12/16/17:23:16.589459,16160,0,0,5,48.6970785237,8.28728564165,0.0
2018/12/16/17:23:16.608334,16161,0,0,5,48.6970785237,8.28728564165,0.0
2018/12/16/17:23:16.629411,16162,0,0,5,48.6970785237,8.28728564165,0.0
2018/12/16/17:23:16.648855,16163,0,0,5,48.6970785237,8.28728564165,0.0
2018/12/16/17:23:16.848941,16164,0,0,5,50.9662833624,8.27717473391,0.0
2018/12/16/17:23:16.868526,16165,0,0,5,50.9662833624,8.27717473391,0.0
2018/12/16/17:23:16.888739,16166,0,0,5,50.9662833624,8.27717473391,0.0
2018/12/16/17:23:16.909172,16167,0,0,5,50.9662833624,8.27717473391,0.0
2018/12/16/17:23:16.928384,16168,0,0,5,50.9662833624,8.27717473391,0.0
2018/12/16/17:23:16.948909,16169,0,0,5,50.9662833624,8.27717473391,0.0
2018/12/16/17:23:16.968029,16170,0,0,5,50.9662833624,8.27717473391,0.0
2018/12/16/17:23:16.988417,16171,0,0,5,50.891468436,8.27748427205,0.0
2018/12/16/17:23:17.008834,16172,0,0,5,50.891468436,8.27748427205,0.0
2018/12/16/17:23:17.028387,16173,0,0,5,50.891468436,8.27748427205,0.0
2018/12/16/17:23:17.049119,16174,0,0,5,50.891468436,8.27748427205,0.0
2018/12/16/17:23:17.068445,16175,0,0,5,50.891468436,8.27748427205,0.0
2018/12/16/17:23:17.089203,16176,0,0,5,50.891468436,8.27748427205,0.0
2018/12/16/17:23:17.108308,16177,0,0,5,50.891468436,8.27748427205,0.0
2018/12/16/17:23:17.128347,16178,0,0,5,51.1915255341,8.27630384569,0.0
2018/12/16/17:23:17.149177,16179,0,0,5,51.1915255341,8.27630384569,0.0
2018/12/16/17:23:17.169425,16180,0,0,5,51.1915255341,8.27630384569,0.0
2018/12/16/17:23:17.188400,16181,0,0,5,51.1915255341,8.27630384569,0.0
2018/12/16/17:23:17.209120,16182,0,0,5,51.1915255341,8.27630384569,0.0
2018/12/16/17:23:17.228841,16183,0,0,5,51.1915255341,8.27630384569,0.0
2018/12/16/17:23:17.249576,16184,0,0,5,51.1915255341,8.27630384569,0.0
2018/12/16/17:23:17.269251,16185,0,0,5,52.3471652331,8.27174031041,0.0
2018/12/16/17:23:17.289493,16186,0,0,5,52.3471652331,8.27174031041,0.0
2018/12/16/17:23:17.309138,16187,0,0,5,52.3471652331,8.27174031041,0.0
2018/12/16/17:23:17.329228,16188,0,0,5,52.3471652331,8.27174031041,0.0
2018/12/16/17:23:17.348709,16189,0,0,5,52.3471652331,8.27174031041,0.0
2018/12/16/17:23:17.368286,16190,0,0,5,52.3471652331,8.27174031041,0.0
2018/12/16/17:23:17.389054,16191,0,0,5,52.3471652331,8.27174031041,0.0
2018/12/16/17:23:17.408432,16192,0,0,5,51.0262470621,8.27695649976,0.0
2018/12/16/17:23:17.429169,16193,0,0,5,51.0262470621,8.27695649976,0.0
2018/12/16/17:23:17.448826,16194,0,0,5,51.0262470621,8.27695649976,0.0
2018/12/16/17:23:17.468372,16195,0,0,5,51.0262470621,8.27695649976,0.0
2018/12/16/17:23:17.489870,16196,0,0,5,51.0262470621,8.27695649976,0.0
2018/12/16/17:23:17.509460,16197,0,0,5,51.0262470621,8.27695649976,0.0
2018/12/16/17:23:17.529424,16198,0,0,5,51.0262470621,8.27695649976,0.0
2018/12/16/17:23:17.548792,16199,0,0,5,52.9144999107,8.26949999959,0.0
2018/12/16/17:23:17.568757,16200,0,0,5,52.9144999107,8.26949999959,0.0
2018/12/16/17:23:17.588358,16201,0,0,5,52.9144999107,8.26949999959,0.0
2018/12/16/17:23:17.609084,16202,0,0,5,52.9144999107,8.26949999959,0.0
2018/12/16/17:23:17.629736,16203,0,0,5,52.9144999107,8.26949999959,0.0
2018/12/16/17:23:17.648820,16204,0,0,5,52.9144999107,8.26949999959,0.0
2018/12/16/17:23:17.669129,16205,0,0,5,52.9144999107,8.26949999959,0.0
2018/12/16/17:23:17.688410,16206,0,0,5,52.9144999107,8.26949999959,0.0
2018/12/16/17:23:17.708764,16207,0,0,5,55.0669974594,8.26100001003,0.0
2018/12/16/17:23:17.728404,16208,0,0,5,55.0669974594,8.26100001003,0.0
2018/12/16/17:23:17.749216,16209,0,0,5,55.0669974594,8.26100001003,0.0
2018/12/16/17:23:17.768631,16210,0,0,5,55.0669974594,8.26100001003,0.0
2018/12/16/17:23:17.788363,16211,0,0,5,55.0669974594,8.26100001003,0.0
2018/12/16/17:23:17.807956,16212,0,0,5,55.0669974594,8.26100001003,0.0
2018/12/16/17:23:17.828723,16213,0,0,5,55.0669974594,8.26100001003,0.0
2018/12/16/17:23:17.848741,16214,0,0,5,55.0669999125,8.26100000035,0.0
2018/12/16/17:23:17.868476,16215,0,0,5,55.0669999125,8.26100000035,0.0
2018/12/16/17:23:17.889057,16216,0,0,5,55.0669999125,8.26100000035,0.0
2018/12/16/17:23:17.909746,16217,0,0,5,55.0669999125,8.26100000035,0.0
2018/12/16/17:23:17.928731,16218,0,0,5,55.0669999125,8.26100000035,0.0
2018/12/16/17:23:17.949339,16219,0,0,5,55.0669999125,8.26100000035,0.0
2018/12/16/17:23:17.968786,16220,0,0,5,55.0669999125,8.26100000035,0.0
2018/12/16/17:23:17.988279,16221,0,0,5,55.0669999995,8.261,0.0
2018/12/16/17:23:18.009509,16222,0,0,5,55.0669999995,8.261,0.0
2018/12/16/17:23:18.028453,16223,0,0,5,55.0669999995,8.261,0.0
2018/12/16/17:23:18.048833,16224,0,0,5,55.0669999995,8.261,0.0
2018/12/16/17:23:18.069274,16225,0,0,5,55.0669999995,8.261,0.0
2018/12/16/17:23:18.089138,16226,0,0,5,55.0669999995,8.261,0.0
2018/12/16/17:23:18.108852,16227,0,0,5,55.0669999995,8.261,0.0
2018/12/16/17:23:18.129700,16228,0,0,5,55.0669988047,8.26100000513,0.0
2018/12/16/17:23:18.147959,16229,0,0,5,55.0669988047,8.26100000513,0.0
2018/12/16/17:23:18.168957,16230,0,0,5,55.0669988047,8.26100000513,0.0
2018/12/16/17:23:18.188732,16231,0,0,5,55.0669988047,8.26100000513,0.0
2018/12/16/17:23:18.208425,16232,0,0,5,55.0669988047,8.26100000513,0.0
2018/12/16/17:23:18.228691,16233,0,0,5,55.0669988047,8.26100000513,0.0
2018/12/16/17:23:18.249088,16234,0,0,5,55.0669988047,8.26100000513,0.0
2018/12/16/17:23:18.268495,16235,0,0,5,55.0669997921,8.26100010939,0.0
2018/12/16/17:23:18.288363,16236,0,0,5,55.0669997921,8.26100010939,0.0
2018/12/16/17:23:18.309179,16237,0,0,5,55.0669997921,8.26100010939,0.0
2018/12/16/17:23:18.329504,16238,0,0,5,55.0669997921,8.26100010939,0.0
2018/12/16/17:23:18.348109,16239,0,0,5,55.0669997921,8.26100010939,0.0
2018/12/16/17:23:18.368329,16240,0,0,5,55.0669997921,8.26100010939,0.0
2018/12/16/17:23:18.388382,16241,0,0,5,55.0669997921,8.26100010939,0.0
2018/12/16/17:23:18.408778,16242,0,0,5,60.0486121129,8.26208416855,0.0
2018/12/16/17:23:18.429036,16243,0,0,5,60.0486121129,8.26208416855,0.0
2018/12/16/17:23:18.449111,16244,0,0,5,60.0486121129,8.26208416855,0.0
2018/12/16/17:23:18.468807,16245,0,0,5,60.0486121129,8.26208416855,0.0
2018/12/16/17:23:18.488864,16246,0,0,5,60.0486121129,8.26208416855,0.0
2018/12/16/17:23:18.508375,16247,0,0,5,60.0486121129,8.26208416855,0.0
2018/12/16/17:23:18.529895,16248,0,0,5,60.0486121129,8.26208416855,0.0
2018/12/16/17:23:18.548747,16249,0,0,5,60.0920435377,8.26200362814,0.0
2018/12/16/17:23:18.568428,16250,0,0,5,60.0920435377,8.26200362814,0.0
2018/12/16/17:23:18.589022,16251,0,0,5,60.0920435377,8.26200362814,0.0
2018/12/16/17:23:18.609162,16252,0,0,5,60.0920435377,8.26200362814,0.0
2018/12/16/17:23:18.628407,16253,0,0,5,60.0920435377,8.26200362814,0.0
2018/12/16/17:23:18.648513,16254,0,0,5,60.0920435377,8.26200362814,0.0
2018/12/16/17:23:18.669095,16255,0,0,5,60.0920435377,8.26200362814,0.0
2018/12/16/17:23:18.689379,16256,0,0,5,60.0920435377,8.26200362814,0.0
2018/12/16/17:23:18.708422,16257,0,0,5,60.0939999999,8.262,0.0
2018/12/16/17:23:18.728828,16258,0,0,5,60.0939999999,8.262,0.0
2018/12/16/17:23:18.750069,16259,0,0,5,60.0939999999,8.262,0.0
2018/12/16/17:23:18.769008,16260,0,0,5,60.0939999999,8.262,0.0
2018/12/16/17:23:18.788986,16261,0,0,5,60.0939999999,8.262,0.0
2018/12/16/17:23:18.808383,16262,0,0,5,60.1733264026,8.26200095025,0.0
2018/12/16/17:23:18.828677,16263,0,0,5,60.1733264026,8.26200095025,0.0
2018/12/16/17:23:18.848727,16264,0,0,5,60.1733264026,8.26200095025,0.0
2018/12/16/17:23:18.869147,16265,0,0,5,60.1733264026,8.26200095025,0.0
2018/12/16/17:23:18.888706,16266,0,0,5,60.1733264026,8.26200095025,0.0
2018/12/16/17:23:18.908057,16267,0,0,5,60.1733264026,8.26200095025,0.0
2018/12/16/17:23:18.928865,16268,0,0,5,60.1733264026,8.26200095025,0.0
2018/12/16/17:23:18.949752,16269,0,0,5,60.1733264026,8.26200095025,0.0
2018/12/16/17:23:18.969012,16270,0,0,5,62.9819999156,8.262,0.0
2018/12/16/17:23:18.988329,16271,0,0,5,62.9819999156,8.262,0.0
2018/12/16/17:23:19.008780,16272,0,0,5,62.9819999156,8.262,0.0
2018/12/16/17:23:19.028267,16273,0,0,5,62.9819999156,8.262,0.0
2018/12/16/17:23:19.049104,16274,0,0,5,62.9819999156,8.262,0.0
2018/12/16/17:23:19.068838,16275,0,0,5,62.9819999156,8.262,0.0
2018/12/16/17:23:19.089098,16276,0,0,5,62.9819999156,8.262,0.0
2018/12/16/17:23:19.108701,16277,0,0,5,62.9819999156,8.262,0.0
2018/12/16/17:23:19.129153,16278,0,0,5,62.9819702324,8.26200000774,0.0
2018/12/16/17:23:19.149510,16279,0,0,5,62.9819702324,8.26200000774,0.0
2018/12/16/17:23:19.169067,16280,0,0,5,62.9819702324,8.26200000774,0.0
2018/12/16/17:23:19.188105,16281,0,0,5,62.9819702324,8.26200000774,0.0
2018/12/16/17:23:19.209021,16282,0,0,5,62.9819702324,8.26200000774,0.0
2018/12/16/17:23:19.229830,16283,0,0,5,62.9819702324,8.26200000774,0.0
2018/12/16/17:23:19.248467,16284,0,0,5,62.9819702324,8.26200000774,0.0
2018/12/16/17:23:19.268250,16285,0,0,5,68.9669603555,8.27077381086,0.0
2018/12/16/17:23:19.288353,16286,0,0,5,68.9669603555,8.27077381086,0.0
2018/12/16/17:23:19.309120,16287,0,0,5,68.9669603555,8.27077381086,0.0
2018/12/16/17:23:19.328365,16288,0,0,5,68.9669603555,8.27077381086,0.0
2018/12/16/17:23:19.349427,16289,0,0,5,68.9669603555,8.27077381086,0.0
2018/12/16/17:23:19.368851,16290,0,0,5,68.9669603555,8.27077381086,0.0
2018/12/16/17:23:19.389126,16291,0,0,5,68.9669603555,8.27077381086,0.0
2018/12/16/17:23:19.408304,16292,0,0,5,70.3309783578,8.27199998055,0.0
2018/12/16/17:23:19.429370,16293,0,0,5,70.3309783578,8.27199998055,0.0
2018/12/16/17:23:19.447975,16294,0,0,5,70.3309783578,8.27199998055,0.0
2018/12/16/17:23:19.468890,16295,0,0,5,70.3309783578,8.27199998055,0.0
2018/12/16/17:23:19.488231,16296,0,0,5,70.3309783578,8.27199998055,0.0
2018/12/16/17:23:19.509127,16297,0,0,5,70.3309783578,8.27199998055,0.0
2018/12/16/17:23:19.529098,16298,0,0,5,70.3309783578,8.27199998055,0.0
2018/12/16/17:23:19.549025,16299,0,0,5,70.2773151856,8.27195174251,0.0
2018/12/16/17:23:19.569385,16300,0,0,5,70.2773151856,8.27195174251,0.0
2018/12/16/17:23:19.589117,16301,0,0,5,70.2773151856,8.27195174251,0.0
2018/12/16/17:23:19.609118,16302,0,0,5,70.2773151856,8.27195174251,0.0
2018/12/16/17:23:19.628433,16303,0,0,5,70.2773151856,8.27195174251,0.0
2018/12/16/17:23:19.649620,16304,0,0,5,70.2773151856,8.27195174251,0.0
2018/12/16/17:23:19.670159,16305,0,0,5,70.2773151856,8.27195174251,0.0
2018/12/16/17:23:19.688327,16306,0,0,5,74.0804302994,8.27101447029,0.0
2018/12/16/17:23:19.708199,16307,0,0,5,74.0804302994,8.27101447029,0.0
2018/12/16/17:23:19.748273,16308,0,0,5,74.0804302994,8.27101447029,0.0
2018/12/16/17:23:19.768953,16309,0,0,5,74.0804302994,8.27101447029,0.0
2018/12/16/17:23:19.788663,16310,0,0,5,74.0804302994,8.27101447029,0.0
2018/12/16/17:23:19.808989,16311,0,0,5,74.0804302994,8.27101447029,0.0
2018/12/16/17:23:19.828771,16312,0,0,5,74.3667278662,8.2717712135,0.0
2018/12/16/17:23:19.848006,16313,0,0,5,74.3667278662,8.2717712135,0.0
2018/12/16/17:23:19.868762,16314,0,0,5,74.3667278662,8.2717712135,0.0
2018/12/16/17:23:19.889037,16315,0,0,5,74.3667278662,8.2717712135,0.0
2018/12/16/17:23:19.909168,16316,0,0,5,74.3667278662,8.2717712135,0.0
2018/12/16/17:23:19.930030,16317,0,0,5,74.3667278662,8.2717712135,0.0
2018/12/16/17:23:19.948659,16318,0,0,5,74.3667278662,8.2717712135,0.0
2018/12/16/17:23:19.969110,16319,0,0,5,74.5059658375,8.27225110851,0.0
2018/12/16/17:23:19.989045,16320,0,0,5,74.5059658375,8.27225110851,0.0
2018/12/16/17:23:20.008259,16321,0,0,5,74.5059658375,8.27225110851,0.0
2018/12/16/17:23:20.028748,16322,0,0,5,74.5059658375,8.27225110851,0.0
2018/12/16/17:23:20.049054,16323,0,0,5,74.5059658375,8.27225110851,0.0
2018/12/16/17:23:20.068379,16324,0,0,5,74.5059658375,8.27225110851,0.0
2018/12/16/17:23:20.089087,16325,0,0,5,74.5059658375,8.27225110851,0.0
2018/12/16/17:23:20.109111,16326,0,0,5,74.8180760608,8.27265964971,0.0
2018/12/16/17:23:20.129134,16327,0,0,5,74.8180760608,8.27265964971,0.0
2018/12/16/17:23:20.149607,16328,0,0,5,74.8180760608,8.27265964971,0.0
2018/12/16/17:23:20.169648,16329,0,0,5,74.8180760608,8.27265964971,0.0
2018/12/16/17:23:20.188660,16330,0,0,5,74.8180760608,8.27265964971,0.0
2018/12/16/17:23:20.208574,16331,0,0,5,74.8180760608,8.27265964971,0.0
2018/12/16/17:23:20.228192,16332,0,0,5,74.8180760608,8.27265964971,0.0
2018/12/16/17:23:20.248330,16333,0,0,5,74.8180760608,8.27265964971,0.0
2018/12/16/17:23:20.268422,16334,0,0,5,75.3974445992,8.27432485109,0.0
2018/12/16/17:23:20.289111,16335,0,0,5,75.3974445992,8.27432485109,0.0
2018/12/16/17:23:20.308993,16336,0,0,5,75.3974445992,8.27432485109,0.0
2018/12/16/17:23:20.329039,16337,0,0,5,75.3974445992,8.27432485109,0.0
2018/12/16/17:23:20.349109,16338,0,0,5,75.3974445992,8.27432485109,0.0
2018/12/16/17:23:20.368387,16339,0,0,5,75.3974445992,8.27432485109,0.0
2018/12/16/17:23:20.389471,16340,0,0,5,75.3974445992,8.27432485109,0.0
2018/12/16/17:23:20.409749,16341,0,0,5,63.0967207863,4.81073802188,0.0
2018/12/16/17:23:20.428210,16342,0,0,5,63.0967207863,4.81073802188,0.0
2018/12/16/17:23:20.448798,16343,0,0,5,63.0967207863,4.81073802188,0.0
2018/12/16/17:23:20.468268,16344,0,0,5,63.0967207863,4.81073802188,0.0
2018/12/16/17:23:20.488391,16345,0,0,5,63.0967207863,4.81073802188,0.0
2018/12/16/17:23:20.508961,16346,0,0,5,63.0967207863,4.81073802188,0.0
2018/12/16/17:23:20.529028,16347,0,0,5,63.0923240572,4.8104362183,0.0
2018/12/16/17:23:20.548374,16348,0,0,5,63.0923240572,4.8104362183,0.0
2018/12/16/17:23:20.569072,16349,0,0,5,63.0923240572,4.8104362183,0.0
2018/12/16/17:23:20.589638,16350,0,0,5,63.0923240572,4.8104362183,0.0
2018/12/16/17:23:20.609417,16351,0,0,5,63.0923240572,4.8104362183,0.0
2018/12/16/17:23:20.628940,16352,0,0,5,63.0923240572,4.8104362183,0.0
2018/12/16/17:23:20.648178,16353,0,0,5,63.0923240572,4.8104362183,0.0
2018/12/16/17:23:20.669624,16354,0,0,5,63.0834927397,4.81011130344,0.0
2018/12/16/17:23:20.689131,16355,0,0,5,63.0834927397,4.81011130344,0.0
2018/12/16/17:23:20.708221,16356,0,0,5,63.0834927397,4.81011130344,0.0
2018/12/16/17:23:20.729214,16357,0,0,5,63.0834927397,4.81011130344,0.0
2018/12/16/17:23:20.748742,16358,0,0,5,63.0834927397,4.81011130344,0.0
2018/12/16/17:23:20.768397,16359,0,0,5,63.0834927397,4.81011130344,0.0
2018/12/16/17:23:20.789105,16360,0,0,5,63.0834927397,4.81011130344,0.0
2018/12/16/17:23:20.808453,16361,0,0,5,63.0834927397,4.81011130344,0.0
2018/12/16/17:23:20.828772,16362,0,0,5,63.0817605874,4.81010994739,0.0
2018/12/16/17:23:20.849367,16363,0,0,5,63.0817605874,4.81010994739,0.0
2018/12/16/17:23:20.868963,16364,0,0,5,63.0817605874,4.81010994739,0.0
2018/12/16/17:23:20.888695,16365,0,0,5,63.0817605874,4.81010994739,0.0
2018/12/16/17:23:20.908457,16366,0,0,5,63.0817605874,4.81010994739,0.0
2018/12/16/17:23:20.928264,16367,0,0,5,63.0817605874,4.81010994739,0.0
2018/12/16/17:23:20.949202,16368,0,0,5,63.0817605874,4.81010994739,0.0
2018/12/16/17:23:20.968325,16369,0,0,5,63.0817605874,4.81010994739,0.0
2018/12/16/17:23:20.989147,16370,0,0,5,63.0807015101,4.81002563396,0.0
2018/12/16/17:23:21.008318,16371,0,0,5,63.0807015101,4.81002563396,0.0
2018/12/16/17:23:21.028967,16372,0,0,5,63.0807015101,4.81002563396,0.0
2018/12/16/17:23:21.048370,16373,0,0,5,63.0807015101,4.81002563396,0.0
2018/12/16/17:23:21.068292,16374,0,0,5,63.0807015101,4.81002563396,0.0
2018/12/16/17:23:21.088667,16375,0,0,5,63.0807015101,4.81002563396,0.0
2018/12/16/17:23:21.108300,16376,0,0,5,63.0800516754,4.81000029955,0.0
2018/12/16/17:23:21.128973,16377,0,0,5,63.0800516754,4.81000029955,0.0
2018/12/16/17:23:21.149000,16378,0,0,5,63.0800516754,4.81000029955,0.0
2018/12/16/17:23:21.168826,16379,0,0,5,63.0800516754,4.81000029955,0.0
2018/12/16/17:23:21.188736,16380,0,0,5,63.0800516754,4.81000029955,0.0
2018/12/16/17:23:21.209543,16381,0,0,5,63.0800516754,4.81000029955,0.0
2018/12/16/17:23:21.228725,16382,0,0,5,63.0800516754,4.81000029955,0.0
2018/12/16/17:23:21.248330,16383,0,0,5,63.0800516754,4.81000029955,0.0
2018/12/16/17:23:21.269040,16384,0,0,5,63.0800527862,4.81000015797,0.0
2018/12/16/17:23:21.288969,16385,0,0,5,63.0800527862,4.81000015797,0.0
2018/12/16/17:23:21.308674,16386,0,0,5,63.0800527862,4.81000015797,0.0
2018/12/16/17:23:21.329026,16387,0,0,5,63.0800527862,4.81000015797,0.0
2018/12/16/17:23:21.349776,16388,0,0,5,63.0800527862,4.81000015797,0.0
2018/12/16/17:23:21.369318,16389,0,0,5,63.0800527862,4.81000015797,0.0
2018/12/16/17:23:21.389074,16390,0,0,5,63.0803033105,4.81000021791,0.0
2018/12/16/17:23:21.408001,16391,0,0,5,63.0803033105,4.81000021791,0.0
2018/12/16/17:23:21.428166,16392,0,0,5,63.0803033105,4.81000021791,0.0
2018/12/16/17:23:21.449180,16393,0,0,5,63.0803033105,4.81000021791,0.0
2018/12/16/17:23:21.469180,16394,0,0,5,63.0803033105,4.81000021791,0.0
2018/12/16/17:23:21.488755,16395,0,0,5,63.0803033105,4.81000021791,0.0
2018/12/16/17:23:21.509124,16396,0,0,5,63.0803033105,4.81000021791,0.0
2018/12/16/17:23:21.528777,16397,0,0,5,72.6743667316,4.79437825019,0.0
2018/12/16/17:23:21.548733,16398,0,0,5,72.6743667316,4.79437825019,0.0
2018/12/16/17:23:21.569357,16399,0,0,5,72.6743667316,4.79437825019,0.0
2018/12/16/17:23:21.588245,16400,0,0,5,72.6743667316,4.79437825019,0.0
2018/12/16/17:23:21.610731,16401,0,0,5,72.6743667316,4.79437825019,0.0
2018/12/16/17:23:21.629030,16402,0,0,5,72.6743667316,4.79437825019,0.0
2018/12/16/17:23:21.648984,16403,0,0,5,72.6743667316,4.79437825019,0.0
2018/12/16/17:23:21.668680,16404,0,0,5,74.1088932729,4.79000995946,0.0
2018/12/16/17:23:21.688298,16405,0,0,5,74.1088932729,4.79000995946,0.0
2018/12/16/17:23:21.707846,16406,0,0,5,74.1088932729,4.79000995946,0.0
2018/12/16/17:23:21.729150,16407,0,0,5,74.1088932729,4.79000995946,0.0
2018/12/16/17:23:21.748701,16408,0,0,5,74.1088932729,4.79000995946,0.0
2018/12/16/17:23:21.768454,16409,0,0,5,74.1088932729,4.79000995946,0.0
2018/12/16/17:23:21.789611,16410,0,0,5,74.1088932729,4.79000995946,0.0
2018/12/16/17:23:21.809001,16411,0,0,5,74.1088932729,4.79000995946,0.0
2018/12/16/17:23:21.829229,16412,0,0,5,74.1120136516,4.78999991334,0.0
2018/12/16/17:23:21.848656,16413,0,0,5,74.1120136516,4.78999991334,0.0
2018/12/16/17:23:21.868329,16414,0,0,5,74.1120136516,4.78999991334,0.0
2018/12/16/17:23:21.887835,16415,0,0,5,74.1120136516,4.78999991334,0.0
2018/12/16/17:23:21.908767,16416,0,0,5,74.1120136516,4.78999991334,0.0
2018/12/16/17:23:21.929060,16417,0,0,5,74.1120136516,4.78999991334,0.0
2018/12/16/17:23:21.948255,16418,0,0,5,74.1120136516,4.78999991334,0.0
2018/12/16/17:23:21.969032,16419,0,0,5,74.2057805512,4.78940506518,0.0
2018/12/16/17:23:21.988189,16420,0,0,5,74.2057805512,4.78940506518,0.0
2018/12/16/17:23:22.008565,16421,0,0,5,74.2057805512,4.78940506518,0.0
2018/12/16/17:23:22.027901,16422,0,0,5,74.2057805512,4.78940506518,0.0
2018/12/16/17:23:22.049054,16423,0,0,5,74.2057805512,4.78940506518,0.0
2018/12/16/17:23:22.068420,16424,0,0,5,74.2057805512,4.78940506518,0.0
2018/12/16/17:23:22.088417,16425,0,0,5,74.2057805512,4.78940506518,0.0
2018/12/16/17:23:22.108665,16426,0,0,5,78.0425256165,4.76506391192,0.0
2018/12/16/17:23:22.128224,16427,0,0,5,78.0425256165,4.76506391192,0.0
2018/12/16/17:23:22.148751,16428,0,0,5,78.0425256165,4.76506391192,0.0
2018/12/16/17:23:22.168685,16429,0,0,5,78.0425256165,4.76506391192,0.0
2018/12/16/17:23:22.188954,16430,0,0,5,78.0425256165,4.76506391192,0.0
2018/12/16/17:23:22.208678,16431,0,0,5,78.0425256165,4.76506391192,0.0
2018/12/16/17:23:22.229087,16432,0,0,5,78.0425256165,4.76506391192,0.0
2018/12/16/17:23:22.248362,16433,0,0,5,78.0425256165,4.76506391192,0.0
2018/12/16/17:23:22.268727,16434,0,0,5,78.3651728685,4.76221756311,0.0
2018/12/16/17:23:22.287869,16435,0,0,5,78.3651728685,4.76221756311,0.0
2018/12/16/17:23:22.309269,16436,0,0,5,78.3651728685,4.76221756311,0.0
2018/12/16/17:23:22.328495,16437,0,0,5,78.3651728685,4.76221756311,0.0
2018/12/16/17:23:22.348286,16438,0,0,5,78.3651728685,4.76221756311,0.0
2018/12/16/17:23:22.368254,16439,0,0,5,78.3651728685,4.76221756311,0.0
2018/12/16/17:23:22.389024,16440,0,0,5,78.3651728685,4.76221756311,0.0
2018/12/16/17:23:22.408938,16441,0,0,5,82.7621739318,4.72299903476,0.0
2018/12/16/17:23:22.429327,16442,0,0,5,82.7621739318,4.72299903476,0.0
2018/12/16/17:23:22.448338,16443,0,0,5,82.7621739318,4.72299903476,0.0
2018/12/16/17:23:22.468265,16444,0,0,5,82.7621739318,4.72299903476,0.0
2018/12/16/17:23:22.488799,16445,0,0,5,82.7621739318,4.72299903476,0.0
2018/12/16/17:23:22.508391,16446,0,0,5,82.7621739318,4.72299903476,0.0
2018/12/16/17:23:22.529274,16447,0,0,5,82.7621739318,4.72299903476,0.0
2018/12/16/17:23:22.550101,16448,0,0,5,82.7621739318,4.72299903476,0.0
2018/12/16/17:23:22.568567,16449,0,0,5,82.7625247812,4.72299719231,0.0
2018/12/16/17:23:22.588889,16450,0,0,5,82.7625247812,4.72299719231,0.0
2018/12/16/17:23:22.608588,16451,0,0,5,82.7625247812,4.72299719231,0.0
2018/12/16/17:23:22.629385,16452,0,0,5,82.7625247812,4.72299719231,0.0
2018/12/16/17:23:22.648265,16453,0,0,5,82.7625247812,4.72299719231,0.0
2018/12/16/17:23:22.668682,16454,0,0,5,82.7625247812,4.72299719231,0.0
2018/12/16/17:23:22.689065,16455,0,0,5,82.7622851999,4.72299835215,0.0
2018/12/16/17:23:22.708739,16456,0,0,5,82.7622851999,4.72299835215,0.0
2018/12/16/17:23:22.728276,16457,0,0,5,82.7622851999,4.72299835215,0.0
2018/12/16/17:23:22.748731,16458,0,0,5,82.7622851999,4.72299835215,0.0
2018/12/16/17:23:22.768712,16459,0,0,5,82.7622851999,4.72299835215,0.0
2018/12/16/17:23:22.788349,16460,0,0,5,82.7622851999,4.72299835215,0.0
2018/12/16/17:23:22.808401,16461,0,0,5,82.7622851999,4.72299835215,0.0
2018/12/16/17:23:22.829641,16462,0,0,5,82.7622851999,4.72299835215,0.0
2018/12/16/17:23:22.848186,16463,0,0,5,82.7622851999,4.72299835215,0.0
2018/12/16/17:23:22.868357,16464,0,0,5,82.7622851999,4.72299835215,0.0
2018/12/16/17:23:22.888984,16465,0,0,5,82.7622851999,4.72299835215,0.0
2018/12/16/17:23:22.908916,16466,0,0,5,82.7622851999,4.72299835215,0.0
2018/12/16/17:23:22.929205,16467,0,0,5,82.7622851999,4.72299835215,0.0
2018/12/16/17:23:22.948999,16468,0,0,5,82.7622851999,4.72299835215,0.0
2018/12/16/17:23:22.968678,16469,0,0,5,82.7622851999,4.72299835215,0.0
2018/12/16/17:23:22.988402,16470,0,0,5,86.0106073317,4.70422996048,0.0
2018/12/16/17:23:23.008220,16471,0,0,5,86.0106073317,4.70422996048,0.0
2018/12/16/17:23:23.028284,16472,0,0,5,86.0106073317,4.70422996048,0.0
2018/12/16/17:23:23.048218,16473,0,0,5,86.0106073317,4.70422996048,0.0
2018/12/16/17:23:23.069601,16474,0,0,5,86.0106073317,4.70422996048,0.0
2018/12/16/17:23:23.088633,16475,0,0,5,86.0106073317,4.70422996048,0.0
2018/12/16/17:23:23.107879,16476,0,0,5,86.0106073317,4.70422996048,0.0
2018/12/16/17:23:23.129025,16477,0,0,5,87.3798516415,4.69631864021,0.0
2018/12/16/17:23:23.148575,16478,0,0,5,87.3798516415,4.69631864021,0.0
2018/12/16/17:23:23.168713,16479,0,0,5,87.3798516415,4.69631864021,0.0
2018/12/16/17:23:23.189095,16480,0,0,5,87.3798516415,4.69631864021,0.0
2018/12/16/17:23:23.208401,16481,0,0,5,87.3798516415,4.69631864021,0.0
2018/12/16/17:23:23.228978,16482,0,0,5,87.3798516415,4.69631864021,0.0
2018/12/16/17:23:23.249200,16483,0,0,5,87.3798516415,4.69631864021,0.0
2018/12/16/17:23:23.267967,16484,0,0,5,87.4349977717,4.69600001287,0.0
2018/12/16/17:23:23.288267,16485,0,0,5,87.4349977717,4.69600001287,0.0
2018/12/16/17:23:23.308393,16486,0,0,5,87.4349977717,4.69600001287,0.0
2018/12/16/17:23:23.328753,16487,0,0,5,87.4349977717,4.69600001287,0.0
2018/12/16/17:23:23.348405,16488,0,0,5,87.4349977717,4.69600001287,0.0
2018/12/16/17:23:23.368651,16489,0,0,5,87.4349977717,4.69600001287,0.0
2018/12/16/17:23:23.389427,16490,0,0,5,87.4349977717,4.69600001287,0.0
2018/12/16/17:23:23.408869,16491,0,0,5,87.4349977717,4.69600001287,0.0
2018/12/16/17:23:23.427805,16492,0,0,5,87.4349977717,4.69600001287,0.0
2018/12/16/17:23:23.448270,16493,0,0,5,87.4349977717,4.69600001287,0.0
2018/12/16/17:23:23.468789,16494,0,0,5,87.4349977717,4.69600001287,0.0
2018/12/16/17:23:23.489019,16495,0,0,5,87.4349977717,4.69600001287,0.0
2018/12/16/17:23:23.509320,16496,0,0,5,87.4349977717,4.69600001287,0.0
2018/12/16/17:23:23.528697,16497,0,0,5,87.4349977717,4.69600001287,0.0
2018/12/16/17:23:23.548263,16498,0,0,5,87.4330136284,4.69601147701,0.0
2018/12/16/17:23:23.569388,16499,0,0,5,87.4330136284,4.69601147701,0.0
2018/12/16/17:23:23.589508,16500,0,0,5,87.4330136284,4.69601147701,0.0
2018/12/16/17:23:23.608160,16501,0,0,5,87.4330136284,4.69601147701,0.0
2018/12/16/17:23:23.628479,16502,0,0,5,87.4330136284,4.69601147701,0.0
2018/12/16/17:23:23.649122,16503,0,0,5,87.4330136284,4.69601147701,0.0
2018/12/16/17:23:23.668780,16504,0,0,5,87.4330136284,4.69601147701,0.0
2018/12/16/17:23:23.688674,16505,0,0,5,87.4297485505,4.69603034251,0.0
2018/12/16/17:23:23.709237,16506,0,0,5,87.4297485505,4.69603034251,0.0
2018/12/16/17:23:23.728965,16507,0,0,5,87.4297485505,4.69603034251,0.0
2018/12/16/17:23:23.749459,16508,0,0,5,87.4297485505,4.69603034251,0.0
2018/12/16/17:23:23.769061,16509,0,0,5,87.4297485505,4.69603034251,0.0
2018/12/16/17:23:23.788907,16510,0,0,5,87.4297485505,4.69603034251,0.0
2018/12/16/17:23:23.808957,16511,0,0,5,87.4297485505,4.69603034251,0.0
2018/12/16/17:23:23.828608,16512,0,0,5,87.4333949038,4.69600927407,0.0
2018/12/16/17:23:23.848312,16513,0,0,5,87.4333949038,4.69600927407,0.0
2018/12/16/17:23:23.868978,16514,0,0,5,87.4333949038,4.69600927407,0.0
2018/12/16/17:23:23.889032,16515,0,0,5,87.4333949038,4.69600927407,0.0
2018/12/16/17:23:23.909105,16516,0,0,5,87.4333949038,4.69600927407,0.0
2018/12/16/17:23:23.929077,16517,0,0,5,87.4333949038,4.69600927407,0.0
2018/12/16/17:23:23.949039,16518,0,0,5,87.4333949038,4.69600927407,0.0
2018/12/16/17:23:23.969018,16519,0,0,5,87.4333949038,4.69600927407,0.0
2018/12/16/17:23:23.988331,16520,0,0,5,87.4322188351,4.69601606927,0.0
2018/12/16/17:23:24.008987,16521,0,0,5,87.4322188351,4.69601606927,0.0
2018/12/16/17:23:24.029238,16522,0,0,5,87.4322188351,4.69601606927,0.0
2018/12/16/17:23:24.049262,16523,0,0,5,87.4322188351,4.69601606927,0.0
2018/12/16/17:23:24.069327,16524,0,0,5,87.4322188351,4.69601606927,0.0
2018/12/16/17:23:24.089073,16525,0,0,5,87.4322188351,4.69601606927,0.0
2018/12/16/17:23:24.109143,16526,0,0,5,87.4322188351,4.69601606927,0.0
2018/12/16/17:23:24.128601,16527,0,0,5,87.429785884,4.69603012682,0.0
2018/12/16/17:23:24.148239,16528,0,0,5,87.429785884,4.69603012682,0.0
2018/12/16/17:23:24.169126,16529,0,0,5,87.429785884,4.69603012682,0.0
2018/12/16/17:23:24.188323,16530,0,0,5,87.429785884,4.69603012682,0.0
2018/12/16/17:23:24.208372,16531,0,0,5,87.429785884,4.69603012682,0.0
2018/12/16/17:23:24.228951,16532,0,0,5,87.429785884,4.69603012682,0.0
2018/12/16/17:23:24.248988,16533,0,0,5,93.110025362,4.66473548104,0.0
2018/12/16/17:23:24.268691,16534,0,0,5,93.110025362,4.66473548104,0.0
2018/12/16/17:23:24.288595,16535,0,0,5,93.110025362,4.66473548104,0.0
2018/12/16/17:23:24.308207,16536,0,0,5,93.110025362,4.66473548104,0.0
2018/12/16/17:23:24.328993,16537,0,0,5,93.110025362,4.66473548104,0.0
2018/12/16/17:23:24.349103,16538,0,0,5,93.110025362,4.66473548104,0.0
2018/12/16/17:23:24.368631,16539,0,0,5,93.110025362,4.66473548104,0.0
2018/12/16/17:23:24.389344,16540,0,0,5,93.110025362,4.66473548104,0.0
2018/12/16/17:23:24.409026,16541,0,0,5,93.9316443391,4.66407615142,0.0
2018/12/16/17:23:24.428324,16542,0,0,5,93.9316443391,4.66407615142,0.0
2018/12/16/17:23:24.449432,16543,0,0,5,93.9316443391,4.66407615142,0.0
2018/12/16/17:23:24.469407,16544,0,0,5,93.9316443391,4.66407615142,0.0
2018/12/16/17:23:24.488110,16545,0,0,5,93.9316443391,4.66407615142,0.0
2018/12/16/17:23:24.507721,16546,0,0,5,93.9316443391,4.66407615142,0.0
2018/12/16/17:23:24.528954,16547,0,0,5,93.9316443391,4.66407615142,0.0
2018/12/16/17:23:24.548944,16548,0,0,5,92.8147445153,4.66500328639,0.0
2018/12/16/17:23:24.569010,16549,0,0,5,92.8147445153,4.66500328639,0.0
2018/12/16/17:23:24.588990,16550,0,0,5,92.8147445153,4.66500328639,0.0
2018/12/16/17:23:24.608971,16551,0,0,5,92.8147445153,4.66500328639,0.0
2018/12/16/17:23:24.628407,16552,0,0,5,92.8147445153,4.66500328639,0.0
2018/12/16/17:23:24.649054,16553,0,0,5,92.8147445153,4.66500328639,0.0
2018/12/16/17:23:24.668506,16554,0,0,5,92.8147445153,4.66500328639,0.0
2018/12/16/17:23:24.688866,16555,0,0,5,95.0859789289,4.66300002675,0.0
2018/12/16/17:23:24.709442,16556,0,0,5,95.0859789289,4.66300002675,0.0
2018/12/16/17:23:24.728212,16557,0,0,5,95.0859789289,4.66300002675,0.0
2018/12/16/17:23:24.749135,16558,0,0,5,95.0859789289,4.66300002675,0.0
2018/12/16/17:23:24.768314,16559,0,0,5,95.0859789289,4.66300002675,0.0
2018/12/16/17:23:24.789054,16560,0,0,5,95.0859789289,4.66300002675,0.0
2018/12/16/17:23:24.808842,16561,0,0,5,95.0859789289,4.66300002675,0.0
2018/12/16/17:23:24.828285,16562,0,0,5,95.0854715577,4.66308042848,0.0
2018/12/16/17:23:24.848284,16563,0,0,5,95.0854715577,4.66308042848,0.0
2018/12/16/17:23:24.868515,16564,0,0,5,95.0854715577,4.66308042848,0.0
2018/12/16/17:23:24.889307,16565,0,0,5,95.0854715577,4.66308042848,0.0
2018/12/16/17:23:24.908949,16566,0,0,5,95.0854715577,4.66308042848,0.0
2018/12/16/17:23:24.929312,16567,0,0,5,95.0854715577,4.66308042848,0.0
2018/12/16/17:23:24.948982,16568,0,0,5,95.0859999944,4.66300000001,0.0
2018/12/16/17:23:24.967878,16569,0,0,5,95.0859999944,4.66300000001,0.0
2018/12/16/17:23:24.989332,16570,0,0,5,95.0859999944,4.66300000001,0.0
2018/12/16/17:23:25.008263,16571,0,0,5,95.0859999944,4.66300000001,0.0
2018/12/16/17:23:25.029059,16572,0,0,5,95.0859999944,4.66300000001,0.0
2018/12/16/17:23:25.049249,16573,0,0,5,95.0859999944,4.66300000001,0.0
2018/12/16/17:23:25.068999,16574,0,0,5,95.0859999944,4.66300000001,0.0
2018/12/16/17:23:25.088693,16575,0,0,5,95.0859999944,4.66300000001,0.0
2018/12/16/17:23:25.109338,16576,0,0,5,95.0859999944,4.66300000001,0.0
2018/12/16/17:23:25.128586,16577,0,0,5,95.0859893972,4.66300001654,0.0
2018/12/16/17:23:25.150301,16578,0,0,5,95.0859893972,4.66300001654,0.0
2018/12/16/17:23:25.168031,16579,0,0,5,95.0859893972,4.66300001654,0.0
2018/12/16/17:23:25.188642,16580,0,0,5,95.0859893972,4.66300001654,0.0
2018/12/16/17:23:25.208117,16581,0,0,5,95.0859893972,4.66300001654,0.0
2018/12/16/17:23:25.228317,16582,0,0,5,95.0859893972,4.66300001654,0.0
2018/12/16/17:23:25.248637,16583,0,0,5,95.0856851314,4.66300033001,0.0
2018/12/16/17:23:25.269034,16584,0,0,5,95.0856851314,4.66300033001,0.0
2018/12/16/17:23:25.288752,16585,0,0,5,95.0856851314,4.66300033001,0.0
2018/12/16/17:23:25.308308,16586,0,0,5,95.0856851314,4.66300033001,0.0
2018/12/16/17:23:25.328928,16587,0,0,5,95.0856851314,4.66300033001,0.0
2018/12/16/17:23:25.348951,16588,0,0,5,95.0856851314,4.66300033001,0.0
2018/12/16/17:23:25.368616,16589,0,0,5,95.0856851314,4.66300033001,0.0
2018/12/16/17:23:25.389595,16590,0,0,5,95.0856851314,4.66300033001,0.0
2018/12/16/17:23:25.408179,16591,0,0,5,95.0854526249,4.66300087671,0.0
2018/12/16/17:23:25.429342,16592,0,0,5,95.0854526249,4.66300087671,0.0
2018/12/16/17:23:25.447827,16593,0,0,5,95.0854526249,4.66300087671,0.0
2018/12/16/17:23:25.468725,16594,0,0,5,95.0854526249,4.66300087671,0.0
2018/12/16/17:23:25.488214,16595,0,0,5,95.0854526249,4.66300087671,0.0
2018/12/16/17:23:25.508568,16596,0,0,5,95.0854526249,4.66300087671,0.0
2018/12/16/17:23:25.528209,16597,0,0,5,95.0854526249,4.66300087671,0.0
2018/12/16/17:23:25.829295,16598,0,0,5,95.0828248999,4.66331275048,0.0
2018/12/16/17:23:25.848155,16599,0,0,5,95.0828248999,4.66331275048,0.0
2018/12/16/17:23:25.867795,16600,0,0,5,95.0828248999,4.66331275048,0.0
2018/12/16/17:23:25.888337,16601,0,0,5,95.0828248999,4.66331275048,0.0
2018/12/16/17:23:25.908499,16602,0,0,5,95.0828248999,4.66331275048,0.0
2018/12/16/17:23:25.929015,16603,0,0,5,95.0828248999,4.66331275048,0.0
2018/12/16/17:23:25.948675,16604,0,0,5,95.0828248999,4.66331275048,0.0
2018/12/16/17:23:26.108364,16605,0,0,5,95.0515100279,4.66379665997,0.0
2018/12/16/17:23:26.128486,16606,0,0,5,95.0515100279,4.66379665997,0.0
2018/12/16/17:23:26.148353,16607,0,0,5,95.0515100279,4.66379665997,0.0
2018/12/16/17:23:26.168996,16608,0,0,5,95.0515100279,4.66379665997,0.0
2018/12/16/17:23:26.188187,16609,0,0,5,95.0515100279,4.66379665997,0.0
2018/12/16/17:23:26.209658,16610,0,0,5,95.0515100279,4.66379665997,0.0
2018/12/16/17:23:26.229262,16611,0,0,5,95.0515100279,4.66379665997,0.0
2018/12/16/17:23:26.248193,16612,0,0,5,95.0515100279,4.66379665997,0.0
2018/12/16/17:23:27.388569,16613,0,0,5,67.6376413243,15.8066887187,0.0
2018/12/16/17:23:27.408322,16614,0,0,5,67.6376413243,15.8066887187,0.0
2018/12/16/17:23:27.428725,16615,0,0,5,67.6376413243,15.8066887187,0.0
2018/12/16/17:23:27.448951,16616,0,0,5,67.6376413243,15.8066887187,0.0
2018/12/16/17:23:27.468278,16617,0,0,5,67.6376413243,15.8066887187,0.0
2018/12/16/17:23:27.488069,16618,0,0,5,67.6376413243,15.8066887187,0.0
2018/12/16/17:23:27.508389,16619,0,0,5,67.6376413243,15.8066887187,0.0
2018/12/16/17:23:31.948591,16620,0,0,5,104.740849296,8.04534552964,0.0
2018/12/16/17:23:31.968078,16621,0,0,5,104.740849296,8.04534552964,0.0
2018/12/16/17:23:31.988811,16622,0,0,5,104.740849296,8.04534552964,0.0
2018/12/16/17:23:32.008775,16623,0,0,5,104.740849296,8.04534552964,0.0
2018/12/16/17:23:32.029039,16624,0,0,5,104.740849296,8.04534552964,0.0
2018/12/16/17:23:32.049296,16625,0,0,5,104.740849296,8.04534552964,0.0
2018/12/16/17:23:32.068966,16626,0,0,5,104.740849296,8.04534552964,0.0
2018/12/16/17:23:32.088419,16627,0,0,5,104.723358304,8.03991969749,0.0
2018/12/16/17:23:32.108090,16628,0,0,5,104.723358304,8.03991969749,0.0
2018/12/16/17:23:32.128673,16629,0,0,5,104.723358304,8.03991969749,0.0
2018/12/16/17:23:32.149087,16630,0,0,5,104.723358304,8.03991969749,0.0
2018/12/16/17:23:32.168209,16631,0,0,5,104.723358304,8.03991969749,0.0
2018/12/16/17:23:32.188730,16632,0,0,5,104.723358304,8.03991969749,0.0
2018/12/16/17:23:32.208862,16633,0,0,5,104.723358304,8.03991969749,0.0
2018/12/16/17:23:32.228873,16634,0,0,5,104.723358304,8.03991969749,0.0
2018/12/16/17:23:32.248497,16635,0,0,5,104.736171602,8.04279707363,0.0
2018/12/16/17:23:32.269324,16636,0,0,5,104.736171602,8.04279707363,0.0
2018/12/16/17:23:32.288009,16637,0,0,5,104.736171602,8.04279707363,0.0
2018/12/16/17:23:32.308906,16638,0,0,5,104.736171602,8.04279707363,0.0
2018/12/16/17:23:32.328524,16639,0,0,5,104.736171602,8.04279707363,0.0
2018/12/16/17:23:32.348614,16640,0,0,5,104.736171602,8.04279707363,0.0
2018/12/16/17:23:32.368136,16641,0,0,5,104.736171602,8.04279707363,0.0
2018/12/16/17:23:32.388397,16642,0,0,5,104.736171602,8.04279707363,0.0
2018/12/16/17:23:32.409204,16643,0,0,5,104.779228926,8.05319029526,0.0
2018/12/16/17:23:32.428422,16644,0,0,5,104.779228926,8.05319029526,0.0
2018/12/16/17:23:32.448344,16645,0,0,5,104.779228926,8.05319029526,0.0
2018/12/16/17:23:32.468048,16646,0,0,5,104.779228926,8.05319029526,0.0
2018/12/16/17:23:32.488179,16647,0,0,5,104.779228926,8.05319029526,0.0
2018/12/16/17:23:32.508892,16648,0,0,5,104.779228926,8.05319029526,0.0
2018/12/16/17:23:32.528818,16649,0,0,5,104.749635507,8.04826182388,0.0
2018/12/16/17:23:32.548061,16650,0,0,5,104.749635507,8.04826182388,0.0
2018/12/16/17:23:32.568606,16651,0,0,5,104.749635507,8.04826182388,0.0
2018/12/16/17:23:32.589276,16652,0,0,5,104.749635507,8.04826182388,0.0
2018/12/16/17:23:32.608787,16653,0,0,5,104.749635507,8.04826182388,0.0
2018/12/16/17:23:32.628365,16654,0,0,5,104.749635507,8.04826182388,0.0
2018/12/16/17:23:32.648138,16655,0,0,5,104.749635507,8.04826182388,0.0
2018/12/16/17:23:32.668071,16656,0,0,5,104.749635507,8.04826182388,0.0
2018/12/16/17:23:32.688880,16657,0,0,5,130.39420086,12.3722177721,0.0
2018/12/16/17:23:32.709179,16658,0,0,5,130.39420086,12.3722177721,0.0
2018/12/16/17:23:32.728495,16659,0,0,5,130.39420086,12.3722177721,0.0
2018/12/16/17:23:32.748054,16660,0,0,5,130.39420086,12.3722177721,0.0
2018/12/16/17:23:32.768177,16661,0,0,5,130.39420086,12.3722177721,0.0
2018/12/16/17:23:32.789171,16662,0,0,5,130.39420086,12.3722177721,0.0
2018/12/16/17:23:32.808213,16663,0,0,5,130.429876413,12.372000752,0.0
