time,.header.seq,.header.stamp.secs,.header.stamp.nsecs,.header.frame_id,.roll,.pitch,.yaw
2018/12/16/17:23:03.762486,109425,2407,516300000,mti/data,-6.13701820374,0.593649029732,87.5874328613
2018/12/16/17:23:03.762517,109426,2407,526300000,mti/data,-6.13702774048,0.596557974815,87.5975494385
2018/12/16/17:23:03.762533,109427,2407,536300000,mti/data,-6.13496446609,0.599155545235,87.6094207764
2018/12/16/17:23:03.762641,109428,2407,546300000,mti/data,-6.13337945938,0.60421448946,87.6198806763
2018/12/16/17:23:03.762660,109429,2407,556300000,mti/data,-6.13495874405,0.604157030582,87.6303710938
2018/12/16/17:23:03.762674,109430,2407,566300000,mti/data,-6.13983392715,0.605244159698,87.6406555176
2018/12/16/17:23:03.762685,109431,2407,576300000,mti/data,-6.14084291458,0.606204271317,87.6511459351
2018/12/16/17:23:03.762729,109432,2407,586300000,mti/data,-6.14541006088,0.609215915203,87.6609649658
2018/12/16/17:23:03.762741,109433,2407,596300000,mti/data,-6.14492988586,0.61228966713,87.6707077026
2018/12/16/17:23:03.762783,109434,2407,606300000,mti/data,-6.14770030975,0.615303635597,87.6815948486
2018/12/16/17:23:03.762812,109435,2407,616300000,mti/data,-6.14981937408,0.618840694427,87.6927719116
2018/12/16/17:23:03.764878,109436,2407,626300000,mti/data,-6.15051221848,0.61973965168,87.7022399902
2018/12/16/17:23:03.774753,109437,2407,636300000,mti/data,-6.14830207825,0.621664822102,87.7136764526
2018/12/16/17:23:03.784633,109438,2407,646300000,mti/data,-6.14546871185,0.626654088497,87.7235183716
2018/12/16/17:23:03.794575,109439,2407,656300000,mti/data,-6.14592218399,0.632532417774,87.733757019
2018/12/16/17:23:03.804482,109440,2407,666300000,mti/data,-6.14710664749,0.631025791168,87.7455825806
2018/12/16/17:23:03.814710,109441,2407,676300000,mti/data,-6.15176010132,0.632869243622,87.753074646
2018/12/16/17:23:03.824609,109442,2407,686300000,mti/data,-6.14997434616,0.634312331676,87.7642440796
2018/12/16/17:23:03.834880,109443,2407,696300000,mti/data,-6.14914512634,0.643601179123,87.7757644653
2018/12/16/17:23:03.844569,109444,2407,706300000,mti/data,-6.15045833588,0.645012915134,87.7859725952
2018/12/16/17:23:03.854647,109445,2407,716300000,mti/data,-6.14940690994,0.642912507057,87.7975234985
2018/12/16/17:23:03.864705,109446,2407,726300000,mti/data,-6.14593887329,0.648451328278,87.8104553223
2018/12/16/17:23:03.874572,109447,2407,736300000,mti/data,-6.14694356918,0.654456079006,87.8205566406
2018/12/16/17:23:03.885363,109448,2407,746300000,mti/data,-6.14995384216,0.653053820133,87.8292541504
2018/12/16/17:23:03.894576,109449,2407,756300000,mti/data,-6.1481757164,0.654273569584,87.8465423584
2018/12/16/17:23:03.904494,109450,2407,766300000,mti/data,-6.1514210701,0.655961811543,87.854019165
2018/12/16/17:23:03.914594,109451,2407,776300000,mti/data,-6.15168237686,0.657407343388,87.8651885986
2018/12/16/17:23:03.924553,109452,2407,786300000,mti/data,-6.15283107758,0.661843955517,87.8742675781
2018/12/16/17:23:03.934530,109453,2407,796300000,mti/data,-6.15563678741,0.662716507912,87.8825531006
2018/12/16/17:23:03.944530,109454,2407,806300000,mti/data,-6.15858840942,0.66610121727,87.8904953003
2018/12/16/17:23:03.954921,109455,2407,816300000,mti/data,-6.16019582748,0.670483529568,87.8983612061
2018/12/16/17:23:03.964561,109456,2407,826300000,mti/data,-6.16078805923,0.674476921558,87.9045639038
2018/12/16/17:23:03.974998,109457,2407,836300000,mti/data,-6.16659593582,0.672949433327,87.9113922119
2018/12/16/17:23:03.984689,109458,2407,846300000,mti/data,-6.16798305511,0.671820938587,87.9178924561
2018/12/16/17:23:03.994610,109459,2407,856300000,mti/data,-6.17148637772,0.671180307865,87.9235687256
2018/12/16/17:23:04.004715,109460,2407,866300000,mti/data,-6.17792224884,0.673831880093,87.9279785156
2018/12/16/17:23:04.014588,109461,2407,876300000,mti/data,-6.18223714828,0.671461820602,87.9325485229
2018/12/16/17:23:04.024561,109462,2407,886300000,mti/data,-6.1867389679,0.669047951698,87.9356231689
2018/12/16/17:23:04.034563,109463,2407,896300000,mti/data,-6.19110107422,0.671731591225,87.9382324219
2018/12/16/17:23:04.044524,109464,2407,906300000,mti/data,-6.19444847107,0.671858668327,87.9401855469
2018/12/16/17:23:04.054663,109465,2407,916300000,mti/data,-6.19693040848,0.669614136219,87.9417114258
2018/12/16/17:23:04.064824,109466,2407,926300000,mti/data,-6.20057916641,0.666282117367,87.9451446533
2018/12/16/17:23:04.074714,109467,2407,936300000,mti/data,-6.20156908035,0.666366279125,87.947052002
2018/12/16/17:23:04.084521,109468,2407,946300000,mti/data,-6.20123004913,0.662814855576,87.9498672485
2018/12/16/17:23:04.094529,109469,2407,956300000,mti/data,-6.19974756241,0.659221470356,87.9525299072
2018/12/16/17:23:04.104522,109470,2407,966300000,mti/data,-6.19586658478,0.656344056129,87.9540328979
2018/12/16/17:23:04.114834,109471,2407,976300000,mti/data,-6.18866586685,0.652654528618,87.9582061768
2018/12/16/17:23:04.124542,109472,2407,986300000,mti/data,-6.1853017807,0.654643714428,87.9588928223
2018/12/16/17:23:04.134784,109473,2407,996300000,mti/data,-6.17691230774,0.649371087551,87.9603042603
2018/12/16/17:23:04.144607,109474,2408,6300000,mti/data,-6.16969633102,0.651239991188,87.9648513794
2018/12/16/17:23:04.154822,109475,2408,16300000,mti/data,-6.16845703125,0.653436303139,87.9680938721
2018/12/16/17:23:04.164557,109476,2408,26300000,mti/data,-6.17358160019,0.654377758503,87.9686508179
2018/12/16/17:23:04.175485,109477,2408,36300000,mti/data,-6.17685985565,0.652151763439,87.9692611694
2018/12/16/17:23:04.184902,109478,2408,46300000,mti/data,-6.17578887939,0.648368060589,87.9689102173
2018/12/16/17:23:04.194620,109479,2408,56300000,mti/data,-6.17724895477,0.645211279392,87.9678039551
2018/12/16/17:23:04.204913,109480,2408,66300000,mti/data,-6.18376111984,0.639449179173,87.9681015015
2018/12/16/17:23:04.214555,109481,2408,76300000,mti/data,-6.18577671051,0.623603463173,87.9711990356
2018/12/16/17:23:04.224638,109482,2408,86300000,mti/data,-6.18923997879,0.620323061943,87.9745330811
2018/12/16/17:23:04.234626,109483,2408,96300000,mti/data,-6.1901473999,0.622435688972,87.9740905762
2018/12/16/17:23:04.244606,109484,2408,106300000,mti/data,-6.1810503006,0.61854159832,87.9765090942
2018/12/16/17:23:04.254637,109485,2408,116300000,mti/data,-6.17755794525,0.613374173641,87.9801864624
2018/12/16/17:23:04.264515,109486,2408,126300000,mti/data,-6.17872238159,0.609688043594,87.9808502197
2018/12/16/17:23:04.274744,109487,2408,136300000,mti/data,-6.17613792419,0.605319738388,87.9849624634
2018/12/16/17:23:04.284565,109488,2408,146300000,mti/data,-6.1755232811,0.600407242775,87.9872665405
2018/12/16/17:23:04.294705,109489,2408,156300000,mti/data,-6.17829465866,0.590910255909,87.9898529053
2018/12/16/17:23:04.304583,109490,2408,166300000,mti/data,-6.17877340317,0.582729160786,87.9935150146
2018/12/16/17:23:04.314639,109491,2408,176300000,mti/data,-6.18095684052,0.582623660564,88.0010528564
2018/12/16/17:23:04.324617,109492,2408,186300000,mti/data,-6.18168115616,0.577679038048,88.0046463013
2018/12/16/17:23:04.334671,109493,2408,196300000,mti/data,-6.18419265747,0.568909227848,88.0109481812
2018/12/16/17:23:04.344802,109494,2408,206300000,mti/data,-6.18476724625,0.571070551872,88.0174407959
2018/12/16/17:23:04.354669,109495,2408,216300000,mti/data,-6.1839799881,0.565188348293,88.0239105225
2018/12/16/17:23:04.364616,109496,2408,226300000,mti/data,-6.18074989319,0.559486925602,88.0297927856
2018/12/16/17:23:04.376722,109497,2408,236300000,mti/data,-6.17939710617,0.559048771858,88.0375061035
2018/12/16/17:23:04.384615,109498,2408,246300000,mti/data,-6.17781162262,0.558664977551,88.0436630249
2018/12/16/17:23:04.394624,109499,2408,256300000,mti/data,-6.17012119293,0.541895031929,88.0542755127
2018/12/16/17:23:04.404648,109500,2408,266300000,mti/data,-6.16714000702,0.535612046719,88.0599594116
2018/12/16/17:23:04.414665,109501,2408,276300000,mti/data,-6.16434431076,0.532741546631,88.0648727417
2018/12/16/17:23:04.424620,109502,2408,286300000,mti/data,-6.15926742554,0.526832640171,88.0700378418
2018/12/16/17:23:04.434973,109503,2408,296300000,mti/data,-6.15534543991,0.524016797543,88.075012207
2018/12/16/17:23:04.444690,109504,2408,306300000,mti/data,-6.15137624741,0.520407378674,88.0798187256
2018/12/16/17:23:04.454599,109505,2408,316300000,mti/data,-6.14628410339,0.515825867653,88.0836334229
2018/12/16/17:23:04.464585,109506,2408,326300000,mti/data,-6.14355373383,0.516439735889,88.0869979858
2018/12/16/17:23:04.474865,109507,2408,336300000,mti/data,-6.14324855804,0.510726988316,88.0920410156
2018/12/16/17:23:04.484623,109508,2408,346300000,mti/data,-6.14246606827,0.502564966679,88.0946960449
2018/12/16/17:23:04.494742,109509,2408,356300000,mti/data,-6.14377498627,0.49459528923,88.0973434448
2018/12/16/17:23:04.504785,109510,2408,366300000,mti/data,-6.14770698547,0.490200489759,88.1001281738
2018/12/16/17:23:04.514701,109511,2408,376300000,mti/data,-6.15421247482,0.483180820942,88.1019744873
2018/12/16/17:23:04.524705,109512,2408,386300000,mti/data,-6.16056632996,0.477016359568,88.1059417725
2018/12/16/17:23:04.534668,109513,2408,396300000,mti/data,-6.16056537628,0.473330020905,88.1079788208
2018/12/16/17:23:04.544733,109514,2408,406300000,mti/data,-6.16370344162,0.470030725002,88.1097488403
2018/12/16/17:23:04.554827,109515,2408,416300000,mti/data,-6.16665410995,0.465533971786,88.1098861694
2018/12/16/17:23:04.564708,109516,2408,426300000,mti/data,-6.16865348816,0.462104469538,88.1119232178
2018/12/16/17:23:04.574579,109517,2408,436300000,mti/data,-6.17113161087,0.458758473396,88.1121749878
2018/12/16/17:23:04.584648,109518,2408,446300000,mti/data,-6.17372179031,0.458358407021,88.1118469238
2018/12/16/17:23:04.594692,109519,2408,456300000,mti/data,-6.17568540573,0.45636716485,88.1128158569
2018/12/16/17:23:04.604860,109520,2408,466300000,mti/data,-6.17937660217,0.45602414012,88.1121749878
2018/12/16/17:23:04.614771,109521,2408,476300000,mti/data,-6.1829328537,0.454202085733,88.1088867188
2018/12/16/17:23:04.624635,109522,2408,486300000,mti/data,-6.18551015854,0.451593130827,88.1087265015
2018/12/16/17:23:04.634670,109523,2408,496300000,mti/data,-6.18947792053,0.452710747719,88.1080093384
2018/12/16/17:23:04.646317,109524,2408,506300000,mti/data,-6.18505191803,0.448057115078,88.1139602661
2018/12/16/17:23:04.655017,109525,2408,516300000,mti/data,-6.1898150444,0.441791266203,88.113609314
2018/12/16/17:23:04.664648,109526,2408,526300000,mti/data,-6.19150781631,0.442556679249,88.1110687256
2018/12/16/17:23:04.674876,109527,2408,536300000,mti/data,-6.19543647766,0.43901258707,88.1079559326
2018/12/16/17:23:04.684648,109528,2408,546300000,mti/data,-6.19955682755,0.43601423502,88.1063842773
2018/12/16/17:23:04.697230,109529,2408,556300000,mti/data,-6.20284938812,0.432252883911,88.1057815552
2018/12/16/17:23:04.704687,109530,2408,566300000,mti/data,-6.20526981354,0.432613760233,88.1013793945
2018/12/16/17:23:04.714818,109531,2408,576300000,mti/data,-6.20951461792,0.427268594503,88.0977401733
2018/12/16/17:23:04.724680,109532,2408,586300000,mti/data,-6.21120834351,0.424855351448,88.0951461792
2018/12/16/17:23:04.734904,109533,2408,596300000,mti/data,-6.21269845963,0.418585449457,88.0926361084
2018/12/16/17:23:04.744713,109534,2408,606300000,mti/data,-6.21663093567,0.417236089706,88.0893859863
2018/12/16/17:23:04.754638,109535,2408,616300000,mti/data,-6.21767902374,0.41078582406,88.0858383179
2018/12/16/17:23:04.764664,109536,2408,626300000,mti/data,-6.21818733215,0.401859879494,88.0848999023
2018/12/16/17:23:04.774626,109537,2408,636300000,mti/data,-6.21600723267,0.39769333601,88.0785522461
2018/12/16/17:23:04.784590,109538,2408,646300000,mti/data,-6.2136721611,0.396512746811,88.0755386353
2018/12/16/17:23:04.794683,109539,2408,656300000,mti/data,-6.21230316162,0.393579483032,88.0721054077
2018/12/16/17:23:04.804843,109540,2408,666300000,mti/data,-6.21068334579,0.383917957544,88.0674514771
2018/12/16/17:23:04.814630,109541,2408,676300000,mti/data,-6.20853757858,0.384751915932,88.0641860962
2018/12/16/17:23:04.824583,109542,2408,686300000,mti/data,-6.20811796188,0.38587424159,88.0593948364
2018/12/16/17:23:04.834607,109543,2408,696300000,mti/data,-6.20697689056,0.382212758064,88.0549468994
2018/12/16/17:23:04.844714,109544,2408,706300000,mti/data,-6.20859336853,0.378774136305,88.0511169434
2018/12/16/17:23:04.854723,109545,2408,716300000,mti/data,-6.20624351501,0.384587556124,88.0475769043
2018/12/16/17:23:04.864643,109546,2408,726300000,mti/data,-6.19925928116,0.385816395283,88.0420303345
2018/12/16/17:23:04.875275,109547,2408,736300000,mti/data,-6.1965637207,0.393293917179,88.0377349854
2018/12/16/17:23:04.884572,109548,2408,746300000,mti/data,-6.19291496277,0.401652336121,88.0316467285
2018/12/16/17:23:04.894630,109549,2408,756300000,mti/data,-6.19407272339,0.391142368317,88.0313262939
2018/12/16/17:23:04.904719,109550,2408,766300000,mti/data,-6.20059871674,0.390605509281,88.027053833
2018/12/16/17:23:04.914585,109551,2408,776300000,mti/data,-6.20547008514,0.399366348982,88.0249938965
2018/12/16/17:23:04.925063,109552,2408,786300000,mti/data,-6.21006011963,0.397172689438,88.0224151611
2018/12/16/17:23:04.934823,109553,2408,796300000,mti/data,-6.21268606186,0.401732176542,88.0178604126
2018/12/16/17:23:04.944921,109554,2408,806300000,mti/data,-6.21583175659,0.412883371115,88.0125045776
2018/12/16/17:23:04.954818,109555,2408,816300000,mti/data,-6.22060203552,0.414048999548,88.0092010498
2018/12/16/17:23:04.964760,109556,2408,826300000,mti/data,-6.22600984573,0.410919904709,88.0053253174
2018/12/16/17:23:04.974696,109557,2408,836300000,mti/data,-6.22725725174,0.418600857258,88.0018005371
2018/12/16/17:23:04.984781,109558,2408,846300000,mti/data,-6.2238907814,0.41812440753,87.9998474121
2018/12/16/17:23:04.994550,109559,2408,856300000,mti/data,-6.22091436386,0.420557320118,87.9946975708
2018/12/16/17:23:05.004747,109560,2408,866300000,mti/data,-6.21922302246,0.423005789518,87.9921417236
2018/12/16/17:23:05.014638,109561,2408,876300000,mti/data,-6.21893024445,0.422158002853,87.9895248413
2018/12/16/17:23:05.024739,109562,2408,886300000,mti/data,-6.21884489059,0.421620994806,87.9874572754
2018/12/16/17:23:05.034692,109563,2408,896300000,mti/data,-6.21582460403,0.428069889545,87.9857025146
2018/12/16/17:23:05.044975,109564,2408,906300000,mti/data,-6.21366500854,0.428986608982,87.9839477539
2018/12/16/17:23:05.054776,109565,2408,916300000,mti/data,-6.21571826935,0.426752895117,87.9813461304
2018/12/16/17:23:05.064683,109566,2408,926300000,mti/data,-6.21715641022,0.424025833607,87.9803771973
2018/12/16/17:23:05.074624,109567,2408,936300000,mti/data,-6.21536922455,0.430005460978,87.9800491333
2018/12/16/17:23:05.084815,109568,2408,946300000,mti/data,-6.21616697311,0.432933747768,87.976524353
2018/12/16/17:23:05.094639,109569,2408,956300000,mti/data,-6.21679353714,0.4343303442,87.9734649658
2018/12/16/17:23:05.104783,109570,2408,966300000,mti/data,-6.21828317642,0.43955001235,87.9714889526
2018/12/16/17:23:05.114681,109571,2408,976300000,mti/data,-6.22006702423,0.440724432468,87.9698638916
2018/12/16/17:23:05.124827,109572,2408,986300000,mti/data,-6.22396373749,0.442401319742,87.9664993286
2018/12/16/17:23:05.134674,109573,2408,996300000,mti/data,-6.22769880295,0.446264773607,87.963722229
2018/12/16/17:23:05.144924,109574,2409,6300000,mti/data,-6.22919130325,0.442403644323,87.9657897949
2018/12/16/17:23:05.154620,109575,2409,16300000,mti/data,-6.2366528511,0.443950712681,87.9621582031
2018/12/16/17:23:05.164795,109576,2409,26300000,mti/data,-6.24202346802,0.448101550341,87.959312439
2018/12/16/17:23:05.174583,109577,2409,36300000,mti/data,-6.24783992767,0.447637736797,87.9560928345
2018/12/16/17:23:05.184699,109578,2409,46300000,mti/data,-6.25213098526,0.450196444988,87.951751709
2018/12/16/17:23:05.194705,109579,2409,56300000,mti/data,-6.25394248962,0.456100940704,87.9496917725
2018/12/16/17:23:05.205402,109580,2409,66300000,mti/data,-6.25572299957,0.45949202776,87.9461746216
2018/12/16/17:23:05.214739,109581,2409,76300000,mti/data,-6.25868701935,0.458315253258,87.9410476685
2018/12/16/17:23:05.224738,109582,2409,86300000,mti/data,-6.2586607933,0.459461480379,87.9377593994
2018/12/16/17:23:05.234683,109583,2409,96300000,mti/data,-6.25912094116,0.461997956038,87.934387207
2018/12/16/17:23:05.244910,109584,2409,106300000,mti/data,-6.26213169098,0.46286970377,87.9283981323
2018/12/16/17:23:05.254604,109585,2409,116300000,mti/data,-6.26317071915,0.467298328876,87.9229125977
2018/12/16/17:23:05.264773,109586,2409,126300000,mti/data,-6.26509952545,0.468345284462,87.9183044434
2018/12/16/17:23:05.274722,109587,2409,136300000,mti/data,-6.26648139954,0.46974620223,87.9132843018
2018/12/16/17:23:05.284765,109588,2409,146300000,mti/data,-6.2676949501,0.471458464861,87.9092941284
2018/12/16/17:23:05.294712,109589,2409,156300000,mti/data,-6.26486492157,0.473555654287,87.904914856
2018/12/16/17:23:05.304981,109590,2409,166300000,mti/data,-6.26433992386,0.473659217358,87.9006195068
2018/12/16/17:23:05.314631,109591,2409,176300000,mti/data,-6.26458692551,0.479999989271,87.8967514038
2018/12/16/17:23:05.324769,109592,2409,186300000,mti/data,-6.26253700256,0.480547398329,87.8923721313
2018/12/16/17:23:05.334686,109593,2409,196300000,mti/data,-6.26244449615,0.480275809765,87.8864593506
2018/12/16/17:23:05.344710,109594,2409,206300000,mti/data,-6.25975227356,0.484210044146,87.8828277588
2018/12/16/17:23:05.354984,109595,2409,216300000,mti/data,-6.2600646019,0.489357501268,87.878326416
2018/12/16/17:23:05.364817,109596,2409,226300000,mti/data,-6.26124477386,0.487363129854,87.8729400635
2018/12/16/17:23:05.374737,109597,2409,236300000,mti/data,-6.26109695435,0.487410724163,87.8677902222
2018/12/16/17:23:05.384683,109598,2409,246300000,mti/data,-6.25996637344,0.490562319756,87.8625259399
2018/12/16/17:23:05.394871,109599,2409,256300000,mti/data,-6.25420856476,0.490648418665,87.863899231
2018/12/16/17:23:05.405052,109600,2409,266300000,mti/data,-6.25200653076,0.48923382163,87.8598937988
2018/12/16/17:23:05.414643,109601,2409,276300000,mti/data,-6.2527885437,0.495362609625,87.8545227051
2018/12/16/17:23:05.424753,109602,2409,286300000,mti/data,-6.25092506409,0.492180973291,87.8503341675
2018/12/16/17:23:05.434783,109603,2409,296300000,mti/data,-6.24719381332,0.498802006245,87.8453216553
2018/12/16/17:23:05.444985,109604,2409,306300000,mti/data,-6.24004507065,0.496248036623,87.8416519165
2018/12/16/17:23:05.454746,109605,2409,316300000,mti/data,-6.23988676071,0.498540520668,87.8377532959
2018/12/16/17:23:05.464617,109606,2409,326300000,mti/data,-6.24319696426,0.493736892939,87.8351135254
2018/12/16/17:23:05.474669,109607,2409,336300000,mti/data,-6.24580144882,0.494582742453,87.8350372314
2018/12/16/17:23:05.484678,109608,2409,346300000,mti/data,-6.2456946373,0.485137939453,87.8327178955
2018/12/16/17:23:05.494678,109609,2409,356300000,mti/data,-6.23533248901,0.485397428274,87.8318862915
2018/12/16/17:23:05.505270,109610,2409,366300000,mti/data,-6.22456741333,0.492742180824,87.831237793
2018/12/16/17:23:05.514649,109611,2409,376300000,mti/data,-6.22272348404,0.502256333828,87.8291244507
2018/12/16/17:23:05.524652,109612,2409,386300000,mti/data,-6.22276973724,0.497114449739,87.8326034546
2018/12/16/17:23:05.534664,109613,2409,396300000,mti/data,-6.22474908829,0.493882119656,87.8347549438
2018/12/16/17:23:05.544919,109614,2409,406300000,mti/data,-6.22123861313,0.491819828749,87.8353500366
2018/12/16/17:23:05.554681,109615,2409,416300000,mti/data,-6.21357774734,0.504335522652,87.8378372192
2018/12/16/17:23:05.564849,109616,2409,426300000,mti/data,-6.21303987503,0.512827932835,87.8399124146
2018/12/16/17:23:05.574606,109617,2409,436300000,mti/data,-6.21751022339,0.506111621857,87.8422164917
2018/12/16/17:23:05.584739,109618,2409,446300000,mti/data,-6.21766281128,0.499100238085,87.8465881348
2018/12/16/17:23:05.594705,109619,2409,456300000,mti/data,-6.21710348129,0.511975169182,87.8495407104
2018/12/16/17:23:05.604798,109620,2409,466300000,mti/data,-6.21581268311,0.521665036678,87.8509902954
2018/12/16/17:23:05.614928,109621,2409,476300000,mti/data,-6.21338319778,0.518566608429,87.8547668457
2018/12/16/17:23:05.624760,109622,2409,486300000,mti/data,-6.21236896515,0.525966286659,87.8564682007
2018/12/16/17:23:05.634649,109623,2409,496300000,mti/data,-6.20962238312,0.532595455647,87.8608779907
2018/12/16/17:23:05.644772,109624,2409,506300000,mti/data,-6.20217609406,0.532119691372,87.8666000366
2018/12/16/17:23:05.654723,109625,2409,516300000,mti/data,-6.20011711121,0.539088129997,87.8689956665
2018/12/16/17:23:05.664882,109626,2409,526300000,mti/data,-6.20191812515,0.542900979519,87.8707351685
2018/12/16/17:23:05.674800,109627,2409,536300000,mti/data,-6.20000553131,0.541077315807,87.8731460571
2018/12/16/17:23:05.684869,109628,2409,546300000,mti/data,-6.19890880585,0.544980287552,87.8749313354
2018/12/16/17:23:05.694719,109629,2409,556300000,mti/data,-6.20016717911,0.548574388027,87.8746185303
2018/12/16/17:23:05.704799,109630,2409,566300000,mti/data,-6.20159816742,0.548395454884,87.8746795654
2018/12/16/17:23:05.714701,109631,2409,576300000,mti/data,-6.20234775543,0.545545518398,87.8736801147
2018/12/16/17:23:05.724746,109632,2409,586300000,mti/data,-6.20317554474,0.547818243504,87.8732223511
2018/12/16/17:23:05.734879,109633,2409,596300000,mti/data,-6.20580673218,0.546750664711,87.8724441528
2018/12/16/17:23:05.744855,109634,2409,606300000,mti/data,-6.20862722397,0.54581874609,87.8701248169
2018/12/16/17:23:05.754744,109635,2409,616300000,mti/data,-6.2155213356,0.544185161591,87.8675384521
2018/12/16/17:23:05.764682,109636,2409,626300000,mti/data,-6.22196578979,0.541569530964,87.864982605
2018/12/16/17:23:05.774700,109637,2409,636300000,mti/data,-6.2259054184,0.535986423492,87.8659210205
2018/12/16/17:23:05.784722,109638,2409,646300000,mti/data,-6.23098802567,0.537816166878,87.8634414673
2018/12/16/17:23:05.795392,109639,2409,656300000,mti/data,-6.2333073616,0.530209839344,87.8629684448
2018/12/16/17:23:05.804830,109640,2409,666300000,mti/data,-6.23945045471,0.525256156921,87.8597335815
2018/12/16/17:23:05.814880,109641,2409,676300000,mti/data,-6.24764633179,0.522136867046,87.8561325073
2018/12/16/17:23:05.824863,109642,2409,686300000,mti/data,-6.25186681747,0.512216806412,87.8533935547
2018/12/16/17:23:05.834843,109643,2409,696300000,mti/data,-6.25771188736,0.509175360203,87.8502502441
2018/12/16/17:23:05.844920,109644,2409,706300000,mti/data,-6.25619316101,0.503987312317,87.8478164673
2018/12/16/17:23:05.854637,109645,2409,716300000,mti/data,-6.25788402557,0.495818167925,87.8439331055
2018/12/16/17:23:05.864857,109646,2409,726300000,mti/data,-6.26325321198,0.491606116295,87.8396453857
2018/12/16/17:23:05.875429,109647,2409,736300000,mti/data,-6.26871490479,0.487002253532,87.8360366821
2018/12/16/17:23:05.884970,109648,2409,746300000,mti/data,-6.26888275146,0.481488734484,87.8338165283
2018/12/16/17:23:05.895008,109649,2409,756300000,mti/data,-6.26476621628,0.475814580917,87.837638855
2018/12/16/17:23:05.904831,109650,2409,766300000,mti/data,-6.26720046997,0.473799824715,87.8353729248
2018/12/16/17:23:05.914642,109651,2409,776300000,mti/data,-6.26580572128,0.473070651293,87.8313217163
2018/12/16/17:23:05.924953,109652,2409,786300000,mti/data,-6.26577186584,0.471479386091,87.8266067505
2018/12/16/17:23:05.934721,109653,2409,796300000,mti/data,-6.26570081711,0.471209466457,87.8222351074
2018/12/16/17:23:05.944806,109654,2409,806300000,mti/data,-6.26534461975,0.467830568552,87.8160705566
2018/12/16/17:23:05.954792,109655,2409,816300000,mti/data,-6.26806020737,0.466813385487,87.8108596802
2018/12/16/17:23:05.964725,109656,2409,826300000,mti/data,-6.27233886719,0.466995239258,87.804473877
2018/12/16/17:23:05.974820,109657,2409,836300000,mti/data,-6.27597665787,0.460859239101,87.7984771729
2018/12/16/17:23:05.984815,109658,2409,846300000,mti/data,-6.27731227875,0.458631455898,87.7930603027
2018/12/16/17:23:05.994645,109659,2409,856300000,mti/data,-6.27644443512,0.466661632061,87.7838058472
2018/12/16/17:23:06.004877,109660,2409,866300000,mti/data,-6.27489042282,0.465208023787,87.7775421143
2018/12/16/17:23:06.014683,109661,2409,876300000,mti/data,-6.27576303482,0.458419203758,87.7695999146
2018/12/16/17:23:06.024703,109662,2409,886300000,mti/data,-6.27650976181,0.461071759462,87.7591400146
2018/12/16/17:23:06.034798,109663,2409,896300000,mti/data,-6.27941799164,0.462604761124,87.7505874634
2018/12/16/17:23:06.044731,109664,2409,906300000,mti/data,-6.27827644348,0.463066488504,87.7411651611
2018/12/16/17:23:06.054923,109665,2409,916300000,mti/data,-6.27588129044,0.458629488945,87.7347793579
2018/12/16/17:23:06.065238,109666,2409,926300000,mti/data,-6.27173709869,0.460300445557,87.7261657715
2018/12/16/17:23:06.074857,109667,2409,936300000,mti/data,-6.26454305649,0.459543883801,87.7172851562
2018/12/16/17:23:06.084886,109668,2409,946300000,mti/data,-6.26092672348,0.46026456356,87.7081756592
2018/12/16/17:23:06.094749,109669,2409,956300000,mti/data,-6.25259685516,0.460238277912,87.700958252
2018/12/16/17:23:06.104800,109670,2409,966300000,mti/data,-6.2471818924,0.454699248075,87.6926422119
2018/12/16/17:23:06.114732,109671,2409,976300000,mti/data,-6.24289035797,0.458000808954,87.6855316162
2018/12/16/17:23:06.124897,109672,2409,986300000,mti/data,-6.23551750183,0.461851805449,87.6776046753
2018/12/16/17:23:06.134864,109673,2409,996300000,mti/data,-6.22772502899,0.462702512741,87.6724395752
2018/12/16/17:23:06.144695,109674,2410,6300000,mti/data,-6.21701908112,0.466812759638,87.6652908325
2018/12/16/17:23:06.154703,109675,2410,16300000,mti/data,-6.20130491257,0.456948369741,87.6653442383
2018/12/16/17:23:06.164768,109676,2410,26300000,mti/data,-6.19049978256,0.453914791346,87.6608734131
2018/12/16/17:23:06.174734,109677,2410,36300000,mti/data,-6.18438339233,0.455025613308,87.6571426392
2018/12/16/17:23:06.184740,109678,2410,46300000,mti/data,-6.17533636093,0.452335000038,87.6558074951
2018/12/16/17:23:06.195062,109679,2410,56300000,mti/data,-6.16392183304,0.451302349567,87.654548645
2018/12/16/17:23:06.204724,109680,2410,66300000,mti/data,-6.15437555313,0.448853313923,87.6525726318
2018/12/16/17:23:06.214704,109681,2410,76300000,mti/data,-6.1385436058,0.44872879982,87.650352478
2018/12/16/17:23:06.224760,109682,2410,86300000,mti/data,-6.12507724762,0.444536954165,87.6533813477
2018/12/16/17:23:06.234779,109683,2410,96300000,mti/data,-6.11437177658,0.45414185524,87.6513290405
2018/12/16/17:23:06.244951,109684,2410,106300000,mti/data,-6.10683965683,0.446862846613,87.6537322998
2018/12/16/17:23:06.254952,109685,2410,116300000,mti/data,-6.10050153732,0.440014719963,87.6545944214
2018/12/16/17:23:06.264794,109686,2410,126300000,mti/data,-6.09429740906,0.43923458457,87.6561660767
2018/12/16/17:23:06.274827,109687,2410,136300000,mti/data,-6.08853912354,0.444864928722,87.6566238403
2018/12/16/17:23:06.284824,109688,2410,146300000,mti/data,-6.0853266716,0.438599765301,87.6564941406
2018/12/16/17:23:06.294703,109689,2410,156300000,mti/data,-6.08249759674,0.435437500477,87.6585540771
2018/12/16/17:23:06.304719,109690,2410,166300000,mti/data,-6.07745552063,0.434783279896,87.6596069336
2018/12/16/17:23:06.314659,109691,2410,176300000,mti/data,-6.07458400726,0.436641782522,87.6614303589
2018/12/16/17:23:06.324827,109692,2410,186300000,mti/data,-6.07096195221,0.437174975872,87.6628723145
2018/12/16/17:23:06.334741,109693,2410,196300000,mti/data,-6.06384992599,0.439420253038,87.666015625
2018/12/16/17:23:06.344774,109694,2410,206300000,mti/data,-6.05942440033,0.440009772778,87.6690750122
2018/12/16/17:23:06.354896,109695,2410,216300000,mti/data,-6.0536699295,0.441961228848,87.6714248657
2018/12/16/17:23:06.364698,109696,2410,226300000,mti/data,-6.05376768112,0.441870480776,87.6743392944
2018/12/16/17:23:06.374743,109697,2410,236300000,mti/data,-6.05698394775,0.44137185812,87.6753845215
2018/12/16/17:23:06.384992,109698,2410,246300000,mti/data,-6.05958843231,0.442587018013,87.6744232178
2018/12/16/17:23:06.395416,109699,2410,256300000,mti/data,-6.05415487289,0.442470699549,87.6862869263
2018/12/16/17:23:06.404765,109700,2410,266300000,mti/data,-6.05676984787,0.443681389093,87.686340332
2018/12/16/17:23:06.414751,109701,2410,276300000,mti/data,-6.06225681305,0.446684360504,87.6915664673
2018/12/16/17:23:06.424864,109702,2410,286300000,mti/data,-6.07069349289,0.447288900614,87.6959152222
2018/12/16/17:23:06.434790,109703,2410,296300000,mti/data,-6.08093452454,0.44767716527,87.6982879639
2018/12/16/17:23:06.444811,109704,2410,306300000,mti/data,-6.08255052567,0.446544826031,87.7012863159
2018/12/16/17:23:06.454720,109705,2410,316300000,mti/data,-6.08301115036,0.454408228397,87.704750061
2018/12/16/17:23:06.464843,109706,2410,326300000,mti/data,-6.08900928497,0.453445583582,87.7071914673
2018/12/16/17:23:06.474790,109707,2410,336300000,mti/data,-6.09858226776,0.443348795176,87.7105636597
2018/12/16/17:23:06.484756,109708,2410,346300000,mti/data,-6.1063170433,0.446622312069,87.716217041
2018/12/16/17:23:06.494745,109709,2410,356300000,mti/data,-6.10872554779,0.447935670614,87.7222213745
2018/12/16/17:23:06.504935,109710,2410,366300000,mti/data,-6.1100487709,0.443239718676,87.726776123
2018/12/16/17:23:06.514774,109711,2410,376300000,mti/data,-6.11637067795,0.441368877888,87.7306137085
2018/12/16/17:23:06.524771,109712,2410,386300000,mti/data,-6.11649417877,0.436359643936,87.7354431152
2018/12/16/17:23:06.534698,109713,2410,396300000,mti/data,-6.11344957352,0.438569039106,87.7391815186
2018/12/16/17:23:06.544710,109714,2410,406300000,mti/data,-6.11138916016,0.439571559429,87.7435150146
2018/12/16/17:23:06.554781,109715,2410,416300000,mti/data,-6.1103925705,0.433488965034,87.7483978271
2018/12/16/17:23:06.564865,109716,2410,426300000,mti/data,-6.11182260513,0.428101092577,87.7537765503
2018/12/16/17:23:06.574821,109717,2410,436300000,mti/data,-6.10916852951,0.428963154554,87.7602615356
2018/12/16/17:23:06.584733,109718,2410,446300000,mti/data,-6.10960292816,0.430412232876,87.7647476196
2018/12/16/17:23:06.594810,109719,2410,456300000,mti/data,-6.10802650452,0.425866425037,87.7685699463
2018/12/16/17:23:06.604799,109720,2410,466300000,mti/data,-6.10662508011,0.426018714905,87.7716674805
2018/12/16/17:23:06.614730,109721,2410,476300000,mti/data,-6.10545969009,0.425543010235,87.7764205933
2018/12/16/17:23:06.624794,109722,2410,486300000,mti/data,-6.10698127747,0.421522766352,87.7800521851
2018/12/16/17:23:06.635043,109723,2410,496300000,mti/data,-6.10610294342,0.415326505899,87.7857818604
2018/12/16/17:23:06.644857,109724,2410,506300000,mti/data,-6.10476446152,0.415826439857,87.7892532349
2018/12/16/17:23:06.654947,109725,2410,516300000,mti/data,-6.10345125198,0.40727737546,87.797454834
2018/12/16/17:23:06.664937,109726,2410,526300000,mti/data,-6.10542917252,0.403009057045,87.8014450073
2018/12/16/17:23:06.674842,109727,2410,536300000,mti/data,-6.10540485382,0.401673078537,87.8052215576
2018/12/16/17:23:06.684915,109728,2410,546300000,mti/data,-6.10342979431,0.397578477859,87.8096008301
2018/12/16/17:23:06.694668,109729,2410,556300000,mti/data,-6.10147714615,0.390786737204,87.8133010864
2018/12/16/17:23:06.704798,109730,2410,566300000,mti/data,-6.10302448273,0.383405685425,87.81640625
2018/12/16/17:23:06.714883,109731,2410,576300000,mti/data,-6.10382699966,0.374376416206,87.8185424805
2018/12/16/17:23:06.724803,109732,2410,586300000,mti/data,-6.10147333145,0.3634750247,87.822227478
2018/12/16/17:23:06.734901,109733,2410,596300000,mti/data,-6.10155296326,0.36680456996,87.8228378296
2018/12/16/17:23:06.744853,109734,2410,606300000,mti/data,-6.09620332718,0.366538017988,87.8281784058
2018/12/16/17:23:06.754778,109735,2410,616300000,mti/data,-6.09069681168,0.363053649664,87.8283691406
2018/12/16/17:23:06.764866,109736,2410,626300000,mti/data,-6.09007358551,0.35722759366,87.8316268921
2018/12/16/17:23:06.774848,109737,2410,636300000,mti/data,-6.08911943436,0.356901913881,87.8343811035
2018/12/16/17:23:06.784784,109738,2410,646300000,mti/data,-6.08582496643,0.351249605417,87.8367843628
2018/12/16/17:23:06.795043,109739,2410,656300000,mti/data,-6.08628845215,0.348548203707,87.8374862671
2018/12/16/17:23:06.804866,109740,2410,666300000,mti/data,-6.08891057968,0.347420990467,87.8387069702
2018/12/16/17:23:06.814727,109741,2410,676300000,mti/data,-6.0886926651,0.34390103817,87.8412322998
2018/12/16/17:23:06.825017,109742,2410,686300000,mti/data,-6.08858251572,0.340638250113,87.8428649902
2018/12/16/17:23:06.835026,109743,2410,696300000,mti/data,-6.09148073196,0.339901477098,87.8457260132
2018/12/16/17:23:06.844847,109744,2410,706300000,mti/data,-6.09466171265,0.337529629469,87.8460998535
2018/12/16/17:23:06.855123,109745,2410,716300000,mti/data,-6.09381484985,0.333096712828,87.850769043
2018/12/16/17:23:06.864797,109746,2410,726300000,mti/data,-6.09531641006,0.330354362726,87.8515090942
2018/12/16/17:23:06.874804,109747,2410,736300000,mti/data,-6.09679460526,0.334064543247,87.8522872925
2018/12/16/17:23:06.884857,109748,2410,746300000,mti/data,-6.09814453125,0.331152707338,87.8536148071
2018/12/16/17:23:06.894804,109749,2410,756300000,mti/data,-6.09144973755,0.315971076488,87.863067627
2018/12/16/17:23:06.904874,109750,2410,766300000,mti/data,-6.08924722672,0.310438096523,87.8651733398
2018/12/16/17:23:06.914958,109751,2410,776300000,mti/data,-6.09001493454,0.31347694993,87.8647766113
2018/12/16/17:23:06.924929,109752,2410,786300000,mti/data,-6.0865316391,0.311292737722,87.8662490845
2018/12/16/17:23:06.934871,109753,2410,796300000,mti/data,-6.08827877045,0.305917292833,87.8673248291
2018/12/16/17:23:06.944973,109754,2410,806300000,mti/data,-6.08481454849,0.304062902927,87.8679046631
2018/12/16/17:23:06.954815,109755,2410,816300000,mti/data,-6.0804104805,0.305557876825,87.8673706055
2018/12/16/17:23:06.964900,109756,2410,826300000,mti/data,-6.07713460922,0.309406906366,87.8659515381
2018/12/16/17:23:06.975103,109757,2410,836300000,mti/data,-6.07645750046,0.309768944979,87.8644332886
2018/12/16/17:23:06.984924,109758,2410,846300000,mti/data,-6.06830406189,0.30637922883,87.8639221191
2018/12/16/17:23:06.995044,109759,2410,856300000,mti/data,-6.06123971939,0.313042581081,87.8619384766
2018/12/16/17:23:07.004879,109760,2410,866300000,mti/data,-6.05878686905,0.316757589579,87.8594436646
2018/12/16/17:23:07.014804,109761,2410,876300000,mti/data,-6.06058835983,0.312546133995,87.8589401245
2018/12/16/17:23:07.024952,109762,2410,886300000,mti/data,-6.06283283234,0.31109765172,87.8584671021
2018/12/16/17:23:07.034969,109763,2410,896300000,mti/data,-6.05964422226,0.321903169155,87.8589477539
2018/12/16/17:23:07.044905,109764,2410,906300000,mti/data,-6.05750131607,0.327115774155,87.8571929932
2018/12/16/17:23:07.054914,109765,2410,916300000,mti/data,-6.05947208405,0.326492935419,87.8564376831
2018/12/16/17:23:07.064995,109766,2410,926300000,mti/data,-6.05896759033,0.325074344873,87.8565979004
2018/12/16/17:23:07.075077,109767,2410,936300000,mti/data,-6.06075668335,0.331660717726,87.8555908203
2018/12/16/17:23:07.084902,109768,2410,946300000,mti/data,-6.05891609192,0.339617788792,87.8561477661
2018/12/16/17:23:07.094797,109769,2410,956300000,mti/data,-6.05542850494,0.340031862259,87.854385376
2018/12/16/17:23:07.105135,109770,2410,966300000,mti/data,-6.05373907089,0.336734294891,87.8527755737
2018/12/16/17:23:07.114830,109771,2410,976300000,mti/data,-6.05222272873,0.344857037067,87.8528518677
2018/12/16/17:23:07.124899,109772,2410,986300000,mti/data,-6.05222558975,0.346504479647,87.8512268066
2018/12/16/17:23:07.134867,109773,2410,996300000,mti/data,-6.04621124268,0.340932399035,87.8534011841
2018/12/16/17:23:07.144875,109774,2411,6300000,mti/data,-6.03602075577,0.333696335554,87.8602676392
2018/12/16/17:23:07.154862,109775,2411,16300000,mti/data,-6.02540969849,0.339847058058,87.8609848022
2018/12/16/17:23:07.164836,109776,2411,26300000,mti/data,-6.02205991745,0.34300839901,87.8602523804
2018/12/16/17:23:07.174790,109777,2411,36300000,mti/data,-6.01968336105,0.34140175581,87.861831665
2018/12/16/17:23:07.185019,109778,2411,46300000,mti/data,-6.01752614975,0.3376506567,87.8633728027
2018/12/16/17:23:07.194863,109779,2411,56300000,mti/data,-6.01663923264,0.34112855792,87.8635482788
2018/12/16/17:23:07.205274,109780,2411,66300000,mti/data,-6.01190137863,0.343806475401,87.8649978638
2018/12/16/17:23:07.214793,109781,2411,76300000,mti/data,-6.01321935654,0.340790480375,87.8650436401
2018/12/16/17:23:07.224926,109782,2411,86300000,mti/data,-6.01467180252,0.335878193378,87.8674850464
2018/12/16/17:23:07.234861,109783,2411,96300000,mti/data,-6.01595306396,0.336775302887,87.8687667847
2018/12/16/17:23:07.244862,109784,2411,106300000,mti/data,-6.01405286789,0.334651917219,87.8720703125
2018/12/16/17:23:07.254862,109785,2411,116300000,mti/data,-6.01437330246,0.334868609905,87.8739089966
2018/12/16/17:23:07.264963,109786,2411,126300000,mti/data,-6.01886844635,0.330333262682,87.8748245239
2018/12/16/17:23:07.274898,109787,2411,136300000,mti/data,-6.0189409256,0.33145943284,87.8774719238
2018/12/16/17:23:07.284832,109788,2411,146300000,mti/data,-6.02187395096,0.330634862185,87.8779220581
2018/12/16/17:23:07.294750,109789,2411,156300000,mti/data,-6.01902770996,0.329190254211,87.8795013428
2018/12/16/17:23:07.304871,109790,2411,166300000,mti/data,-6.01562070847,0.326681852341,87.8813095093
2018/12/16/17:23:07.314745,109791,2411,176300000,mti/data,-6.00980186462,0.322869032621,87.8835067749
2018/12/16/17:23:07.325117,109792,2411,186300000,mti/data,-5.99766921997,0.331584274769,87.8851547241
2018/12/16/17:23:07.334922,109793,2411,196300000,mti/data,-5.98128557205,0.338220119476,87.8843841553
2018/12/16/17:23:07.344857,109794,2411,206300000,mti/data,-5.97178983688,0.328688025475,87.8856658936
2018/12/16/17:23:07.354844,109795,2411,216300000,mti/data,-5.96959447861,0.322787284851,87.887260437
2018/12/16/17:23:07.364876,109796,2411,226300000,mti/data,-5.96875333786,0.320993691683,87.8901901245
2018/12/16/17:23:07.374820,109797,2411,236300000,mti/data,-5.96876430511,0.325219720602,87.8919677734
2018/12/16/17:23:07.385058,109798,2411,246300000,mti/data,-5.96640443802,0.327956736088,87.8954162598
2018/12/16/17:23:07.394852,109799,2411,256300000,mti/data,-5.96689414978,0.332622438669,87.8988647461
2018/12/16/17:23:07.404898,109800,2411,266300000,mti/data,-5.96484804153,0.323729664087,87.9060211182
2018/12/16/17:23:07.414819,109801,2411,276300000,mti/data,-5.96187019348,0.328191995621,87.9087677002
2018/12/16/17:23:07.425090,109802,2411,286300000,mti/data,-5.96084737778,0.331036359072,87.911819458
2018/12/16/17:23:07.435098,109803,2411,296300000,mti/data,-5.96260404587,0.332216501236,87.9141464233
2018/12/16/17:23:07.444879,109804,2411,306300000,mti/data,-5.96307611465,0.329829931259,87.9167861938
2018/12/16/17:23:07.454943,109805,2411,316300000,mti/data,-5.96281337738,0.334891438484,87.9198684692
2018/12/16/17:23:07.464939,109806,2411,326300000,mti/data,-5.96084022522,0.334987044334,87.9214782715
2018/12/16/17:23:07.475035,109807,2411,336300000,mti/data,-5.95816373825,0.337992995977,87.9220962524
2018/12/16/17:23:07.484947,109808,2411,346300000,mti/data,-5.95330572128,0.337458968163,87.9224777222
2018/12/16/17:23:07.494847,109809,2411,356300000,mti/data,-5.94564294815,0.333699971437,87.9246902466
2018/12/16/17:23:07.504925,109810,2411,366300000,mti/data,-5.93709802628,0.339839339256,87.9279251099
2018/12/16/17:23:07.515040,109811,2411,376300000,mti/data,-5.93267774582,0.345875859261,87.9284744263
2018/12/16/17:23:07.525122,109812,2411,386300000,mti/data,-5.93051815033,0.341013282537,87.9321289062
2018/12/16/17:23:07.534877,109813,2411,396300000,mti/data,-5.92850208282,0.338161200285,87.9337310791
2018/12/16/17:23:07.544965,109814,2411,406300000,mti/data,-5.93001270294,0.338746070862,87.9349746704
2018/12/16/17:23:07.554863,109815,2411,416300000,mti/data,-5.93150615692,0.335494846106,87.9363861084
2018/12/16/17:23:07.564910,109816,2411,426300000,mti/data,-5.93521595001,0.331930696964,87.940071106
2018/12/16/17:23:07.574860,109817,2411,436300000,mti/data,-5.94057893753,0.326967835426,87.9416275024
2018/12/16/17:23:07.584892,109818,2411,446300000,mti/data,-5.94488859177,0.323325395584,87.9426651001
2018/12/16/17:23:07.594828,109819,2411,456300000,mti/data,-5.94682455063,0.322800725698,87.9414291382
2018/12/16/17:23:07.604841,109820,2411,466300000,mti/data,-5.9466843605,0.320328563452,87.9442977905
2018/12/16/17:23:07.614890,109821,2411,476300000,mti/data,-5.94961690903,0.311356157064,87.9455566406
2018/12/16/17:23:07.624916,109822,2411,486300000,mti/data,-5.95061063766,0.308747798204,87.9460067749
2018/12/16/17:23:07.634885,109823,2411,496300000,mti/data,-5.94922780991,0.311389058828,87.947555542
2018/12/16/17:23:07.644925,109824,2411,506300000,mti/data,-5.94922399521,0.309574246407,87.9449462891
2018/12/16/17:23:07.654944,109825,2411,516300000,mti/data,-5.9431271553,0.297834724188,87.9514007568
2018/12/16/17:23:07.664895,109826,2411,526300000,mti/data,-5.94376993179,0.304175108671,87.9503173828
2018/12/16/17:23:07.675113,109827,2411,536300000,mti/data,-5.94353914261,0.302932679653,87.9515304565
2018/12/16/17:23:07.685330,109828,2411,546300000,mti/data,-5.94774007797,0.298737615347,87.9516983032
2018/12/16/17:23:07.694835,109829,2411,556300000,mti/data,-5.94767618179,0.294585883617,87.9526443481
2018/12/16/17:23:07.704933,109830,2411,566300000,mti/data,-5.94556427002,0.297179251909,87.9539260864
2018/12/16/17:23:07.714946,109831,2411,576300000,mti/data,-5.94344758987,0.297859698534,87.9547576904
2018/12/16/17:23:07.724912,109832,2411,586300000,mti/data,-5.9404001236,0.295745491982,87.9546585083
2018/12/16/17:23:07.734848,109833,2411,596300000,mti/data,-5.94395017624,0.296580940485,87.9535293579
2018/12/16/17:23:07.746923,109834,2411,606300000,mti/data,-5.94227552414,0.298204183578,87.9528656006
2018/12/16/17:23:07.754848,109835,2411,616300000,mti/data,-5.9396982193,0.303043693304,87.9533538818
2018/12/16/17:23:07.764866,109836,2411,626300000,mti/data,-5.94095420837,0.304377734661,87.9494476318
2018/12/16/17:23:07.774830,109837,2411,636300000,mti/data,-5.93610477448,0.304807633162,87.9517059326
2018/12/16/17:23:07.784915,109838,2411,646300000,mti/data,-5.93498802185,0.31363555789,87.9512176514
2018/12/16/17:23:07.794839,109839,2411,656300000,mti/data,-5.93664216995,0.323179602623,87.9513702393
2018/12/16/17:23:07.804919,109840,2411,666300000,mti/data,-5.93894004822,0.327222287655,87.9510192871
2018/12/16/17:23:07.815365,109841,2411,676300000,mti/data,-5.93914985657,0.325559318066,87.9508132935
2018/12/16/17:23:07.824994,109842,2411,686300000,mti/data,-5.93448638916,0.33040818572,87.950920105
2018/12/16/17:23:07.834868,109843,2411,696300000,mti/data,-5.92866230011,0.33960583806,87.9504165649
2018/12/16/17:23:07.845004,109844,2411,706300000,mti/data,-5.92943716049,0.340911477804,87.950881958
2018/12/16/17:23:07.854940,109845,2411,716300000,mti/data,-5.93241500854,0.338900625706,87.9538574219
2018/12/16/17:23:07.865005,109846,2411,726300000,mti/data,-5.92998933792,0.32618662715,87.9560012817
2018/12/16/17:23:07.874934,109847,2411,736300000,mti/data,-5.9235329628,0.341507017612,87.9558792114
2018/12/16/17:23:07.884866,109848,2411,746300000,mti/data,-5.91770267487,0.358119398355,87.9540481567
2018/12/16/17:23:07.894857,109849,2411,756300000,mti/data,-5.91626310349,0.355229109526,87.9560317993
2018/12/16/17:23:07.905482,109850,2411,766300000,mti/data,-5.91628170013,0.348847031593,87.9579391479
2018/12/16/17:23:07.915324,109851,2411,776300000,mti/data,-5.92252111435,0.347001999617,87.9613876343
2018/12/16/17:23:07.925040,109852,2411,786300000,mti/data,-5.92134714127,0.358764886856,87.9600372314
2018/12/16/17:23:07.935088,109853,2411,796300000,mti/data,-5.91848087311,0.35766646266,87.9624023438
2018/12/16/17:23:07.944976,109854,2411,806300000,mti/data,-5.92083024979,0.357855558395,87.9622344971
2018/12/16/17:23:07.955123,109855,2411,816300000,mti/data,-5.91813850403,0.359877347946,87.958770752
2018/12/16/17:23:07.965009,109856,2411,826300000,mti/data,-5.91495323181,0.365573406219,87.9588394165
2018/12/16/17:23:07.975067,109857,2411,836300000,mti/data,-5.91344642639,0.365083366632,87.9562683105
2018/12/16/17:23:07.995493,109858,2411,846300000,mti/data,-5.91137170792,0.361474812031,87.9554290771
2018/12/16/17:23:07.996409,109859,2411,856300000,mti/data,-5.90797519684,0.362365305424,87.954826355
2018/12/16/17:23:08.005021,109860,2411,866300000,mti/data,-5.90515470505,0.364139288664,87.954536438
2018/12/16/17:23:08.014858,109861,2411,876300000,mti/data,-5.90013551712,0.358536869287,87.9551010132
2018/12/16/17:23:08.024999,109862,2411,886300000,mti/data,-5.89918327332,0.356592386961,87.9547958374
2018/12/16/17:23:08.035089,109863,2411,896300000,mti/data,-5.89727783203,0.355700224638,87.9531021118
2018/12/16/17:23:08.045151,109864,2411,906300000,mti/data,-5.89560985565,0.357403486967,87.9528656006
2018/12/16/17:23:08.054957,109865,2411,916300000,mti/data,-5.89375257492,0.360813945532,87.9522399902
2018/12/16/17:23:08.065578,109866,2411,926300000,mti/data,-5.89377164841,0.363933265209,87.9509658813
2018/12/16/17:23:08.074927,109867,2411,936300000,mti/data,-5.89344120026,0.361804574728,87.9512405396
2018/12/16/17:23:08.084938,109868,2411,946300000,mti/data,-5.89134979248,0.368164211512,87.9512176514
2018/12/16/17:23:08.094944,109869,2411,956300000,mti/data,-5.8886013031,0.375602900982,87.9521560669
2018/12/16/17:23:08.104989,109870,2411,966300000,mti/data,-5.88627672195,0.37874764204,87.9523544312
2018/12/16/17:23:08.115073,109871,2411,976300000,mti/data,-5.88482141495,0.380212545395,87.9513320923
2018/12/16/17:23:08.125208,109872,2411,986300000,mti/data,-5.88183689117,0.384164094925,87.9509963989
2018/12/16/17:23:08.134969,109873,2411,996300000,mti/data,-5.87803459167,0.388839900494,87.9506835938
2018/12/16/17:23:08.145041,109874,2412,6300000,mti/data,-5.87537956238,0.39503288269,87.9506225586
2018/12/16/17:23:08.155014,109875,2412,16300000,mti/data,-5.86937332153,0.398909986019,87.9527130127
2018/12/16/17:23:08.165316,109876,2412,26300000,mti/data,-5.8679933548,0.399196267128,87.9528274536
2018/12/16/17:23:08.174921,109877,2412,36300000,mti/data,-5.8648982048,0.402644723654,87.95337677
2018/12/16/17:23:08.184959,109878,2412,46300000,mti/data,-5.86392974854,0.407225340605,87.9539413452
2018/12/16/17:23:08.194880,109879,2412,56300000,mti/data,-5.86222028732,0.407359331846,87.9534225464
2018/12/16/17:23:08.205254,109880,2412,66300000,mti/data,-5.86142539978,0.411259055138,87.9518661499
2018/12/16/17:23:08.214901,109881,2412,76300000,mti/data,-5.86233663559,0.412568122149,87.9513397217
2018/12/16/17:23:08.225156,109882,2412,86300000,mti/data,-5.859790802,0.412909626961,87.9493255615
2018/12/16/17:23:08.234903,109883,2412,96300000,mti/data,-5.86119842529,0.413198471069,87.9474182129
2018/12/16/17:23:08.246877,109884,2412,106300000,mti/data,-5.86104869843,0.412124186754,87.9449996948
2018/12/16/17:23:08.255031,109885,2412,116300000,mti/data,-5.8614449501,0.407013148069,87.9424514771
2018/12/16/17:23:08.265137,109886,2412,126300000,mti/data,-5.85665655136,0.40470212698,87.9416427612
2018/12/16/17:23:08.275018,109887,2412,136300000,mti/data,-5.85101461411,0.407230883837,87.9389877319
2018/12/16/17:23:08.284932,109888,2412,146300000,mti/data,-5.84269332886,0.408771544695,87.9381332397
2018/12/16/17:23:08.294929,109889,2412,156300000,mti/data,-5.84005784988,0.404231667519,87.9337387085
2018/12/16/17:23:08.305467,109890,2412,166300000,mti/data,-5.83196115494,0.402137041092,87.9323196411
2018/12/16/17:23:08.314898,109891,2412,176300000,mti/data,-5.82426261902,0.404120475054,87.9299545288
2018/12/16/17:23:08.326885,109892,2412,186300000,mti/data,-5.81723117828,0.407740592957,87.9277114868
2018/12/16/17:23:08.334921,109893,2412,196300000,mti/data,-5.81227779388,0.401620775461,87.9270019531
2018/12/16/17:23:08.345090,109894,2412,206300000,mti/data,-5.81235551834,0.406098276377,87.9252929688
2018/12/16/17:23:08.355228,109895,2412,216300000,mti/data,-5.8115439415,0.40289080143,87.9238052368
2018/12/16/17:23:08.365126,109896,2412,226300000,mti/data,-5.81175136566,0.400925159454,87.9239196777
2018/12/16/17:23:08.375121,109897,2412,236300000,mti/data,-5.81681919098,0.398770809174,87.9237976074
2018/12/16/17:23:08.385015,109898,2412,246300000,mti/data,-5.82116031647,0.401270717382,87.9228897095
2018/12/16/17:23:08.395034,109899,2412,256300000,mti/data,-5.82311248779,0.396421343088,87.9277877808
2018/12/16/17:23:08.404903,109900,2412,266300000,mti/data,-5.83100986481,0.398961186409,87.9269866943
2018/12/16/17:23:08.414893,109901,2412,276300000,mti/data,-5.83315086365,0.403450906277,87.9278488159
2018/12/16/17:23:08.424966,109902,2412,286300000,mti/data,-5.83655118942,0.394573777914,87.9302597046
2018/12/16/17:23:08.434933,109903,2412,296300000,mti/data,-5.83704805374,0.393586099148,87.931427002
2018/12/16/17:23:08.445132,109904,2412,306300000,mti/data,-5.83724403381,0.385352134705,87.9324645996
2018/12/16/17:23:08.455027,109905,2412,316300000,mti/data,-5.83938598633,0.383312642574,87.936378479
2018/12/16/17:23:08.465010,109906,2412,326300000,mti/data,-5.83816003799,0.383837103844,87.9371414185
2018/12/16/17:23:08.475002,109907,2412,336300000,mti/data,-5.83784627914,0.375417202711,87.9430236816
2018/12/16/17:23:08.484951,109908,2412,346300000,mti/data,-5.83727216721,0.372503429651,87.9420471191
2018/12/16/17:23:08.494937,109909,2412,356300000,mti/data,-5.83336400986,0.373850703239,87.9458312988
2018/12/16/17:23:08.504973,109910,2412,366300000,mti/data,-5.82431793213,0.375162541866,87.9455795288
2018/12/16/17:23:08.515002,109911,2412,376300000,mti/data,-5.8179769516,0.376994162798,87.9496841431
2018/12/16/17:23:08.525054,109912,2412,386300000,mti/data,-5.81652879715,0.378445237875,87.9512405396
2018/12/16/17:23:08.534984,109913,2412,396300000,mti/data,-5.81620740891,0.367289334536,87.9546585083
2018/12/16/17:23:08.545064,109914,2412,406300000,mti/data,-5.81555604935,0.373860299587,87.9602432251
2018/12/16/17:23:08.555039,109915,2412,416300000,mti/data,-5.80820703506,0.383819818497,87.9622955322
2018/12/16/17:23:08.564951,109916,2412,426300000,mti/data,-5.80302238464,0.380111336708,87.9666900635
2018/12/16/17:23:08.575037,109917,2412,436300000,mti/data,-5.80012178421,0.38014164567,87.9686660767
2018/12/16/17:23:08.585110,109918,2412,446300000,mti/data,-5.79806995392,0.380394786596,87.9707717896
2018/12/16/17:23:08.595335,109919,2412,456300000,mti/data,-5.79846048355,0.382827490568,87.9738388062
2018/12/16/17:23:08.605031,109920,2412,466300000,mti/data,-5.79962015152,0.384760707617,87.9762649536
2018/12/16/17:23:08.615390,109921,2412,476300000,mti/data,-5.80270862579,0.385546386242,87.9787216187
2018/12/16/17:23:08.624951,109922,2412,486300000,mti/data,-5.80518341064,0.383475720882,87.9816741943
2018/12/16/17:23:08.634990,109923,2412,496300000,mti/data,-5.80975055695,0.384483426809,87.9825897217
2018/12/16/17:23:08.640237,109924,2412,506300000,mti/data,-5.81192302704,0.382720768452,87.9831924438
2018/12/16/17:23:08.654994,109925,2412,516300000,mti/data,-5.81294870377,0.381430506706,87.9881439209
2018/12/16/17:23:08.665238,109926,2412,526300000,mti/data,-5.8172492981,0.381129086018,87.9880599976
2018/12/16/17:23:08.675220,109927,2412,536300000,mti/data,-5.82172060013,0.380033880472,87.9863739014
2018/12/16/17:23:08.680212,109928,2412,546300000,mti/data,-5.82406520844,0.38423371315,87.9857177734
2018/12/16/17:23:08.693974,109929,2412,556300000,mti/data,-5.82616376877,0.386741280556,87.9850463867
2018/12/16/17:23:08.704093,109930,2412,566300000,mti/data,-5.83003759384,0.383460760117,87.9837646484
2018/12/16/17:23:08.713995,109931,2412,576300000,mti/data,-5.83281135559,0.386467427015,87.9846572876
2018/12/16/17:23:08.724027,109932,2412,586300000,mti/data,-5.83433914185,0.387450784445,87.9846572876
2018/12/16/17:23:08.733977,109933,2412,596300000,mti/data,-5.83789873123,0.384792894125,87.9853744507
2018/12/16/17:23:08.743983,109934,2412,606300000,mti/data,-5.8408408165,0.389644593,87.9846191406
2018/12/16/17:23:08.753954,109935,2412,616300000,mti/data,-5.84218215942,0.391658246517,87.9845275879
2018/12/16/17:23:08.763954,109936,2412,626300000,mti/data,-5.84433317184,0.39335373044,87.9848327637
2018/12/16/17:23:08.773984,109937,2412,636300000,mti/data,-5.84686756134,0.39693659544,87.9868164062
2018/12/16/17:23:08.783961,109938,2412,646300000,mti/data,-5.85030126572,0.398988306522,87.989616394
2018/12/16/17:23:08.794024,109939,2412,656300000,mti/data,-5.85261297226,0.396534085274,87.9905548096
2018/12/16/17:23:08.804291,109940,2412,666300000,mti/data,-5.85216569901,0.398348629475,87.9939041138
2018/12/16/17:23:08.814046,109941,2412,676300000,mti/data,-5.85077905655,0.399944096804,87.9960708618
2018/12/16/17:23:08.823995,109942,2412,686300000,mti/data,-5.84941625595,0.395277887583,87.9984817505
2018/12/16/17:23:08.834288,109943,2412,696300000,mti/data,-5.84663724899,0.396411091089,88.0011520386
2018/12/16/17:23:08.843980,109944,2412,706300000,mti/data,-5.84443330765,0.396615415812,88.0040206909
2018/12/16/17:23:08.853925,109945,2412,716300000,mti/data,-5.83863592148,0.391456156969,88.0053024292
2018/12/16/17:23:08.864203,109946,2412,726300000,mti/data,-5.83150815964,0.392547309399,88.008140564
2018/12/16/17:23:08.874997,109947,2412,736300000,mti/data,-5.82685422897,0.392389953136,88.0110321045
2018/12/16/17:23:08.880022,109948,2412,746300000,mti/data,-5.82069778442,0.390770941973,88.015045166
2018/12/16/17:23:08.893964,109949,2412,756300000,mti/data,-5.81541967392,0.393494933844,88.0171813965
2018/12/16/17:23:08.903934,109950,2412,766300000,mti/data,-5.81186437607,0.39517608285,88.0180053711
2018/12/16/17:23:08.913985,109951,2412,776300000,mti/data,-5.80671262741,0.391327649355,88.018737793
2018/12/16/17:23:08.923944,109952,2412,786300000,mti/data,-5.80549669266,0.391406416893,88.0207443237
2018/12/16/17:23:08.934042,109953,2412,796300000,mti/data,-5.80549287796,0.388930410147,88.0232391357
2018/12/16/17:23:08.943984,109954,2412,806300000,mti/data,-5.80947446823,0.39080363512,88.0249633789
2018/12/16/17:23:08.954097,109955,2412,816300000,mti/data,-5.80456209183,0.393795311451,88.0261611938
2018/12/16/17:23:08.964006,109956,2412,826300000,mti/data,-5.79743242264,0.398226290941,88.0288848877
2018/12/16/17:23:08.974027,109957,2412,836300000,mti/data,-5.79231405258,0.399150967598,88.0304336548
2018/12/16/17:23:08.984031,109958,2412,846300000,mti/data,-5.79304647446,0.397289097309,88.0330276489
2018/12/16/17:23:08.994008,109959,2412,856300000,mti/data,-5.78692483902,0.400385469198,88.0345077515
2018/12/16/17:23:09.004002,109960,2412,866300000,mti/data,-5.77924060822,0.395849138498,88.0379333496
2018/12/16/17:23:09.014007,109961,2412,876300000,mti/data,-5.76945734024,0.395363301039,88.0405426025
2018/12/16/17:23:09.024041,109962,2412,886300000,mti/data,-5.76216936111,0.392318248749,88.0434265137
2018/12/16/17:23:09.033969,109963,2412,896300000,mti/data,-5.75651311874,0.386096447706,88.0475006104
2018/12/16/17:23:09.044043,109964,2412,906300000,mti/data,-5.74552297592,0.385018348694,88.0522918701
2018/12/16/17:23:09.054000,109965,2412,916300000,mti/data,-5.73678350449,0.380792528391,88.0563201904
2018/12/16/17:23:09.064062,109966,2412,926300000,mti/data,-5.72549962997,0.371509850025,88.0622329712
2018/12/16/17:23:09.073990,109967,2412,936300000,mti/data,-5.72187232971,0.357119649649,88.0701904297
2018/12/16/17:23:09.084017,109968,2412,946300000,mti/data,-5.72332239151,0.352730691433,88.0744781494
2018/12/16/17:23:09.094028,109969,2412,956300000,mti/data,-5.72332334518,0.339886516333,88.081413269
2018/12/16/17:23:09.104141,109970,2412,966300000,mti/data,-5.71803188324,0.340103387833,88.0880050659
2018/12/16/17:23:09.114001,109971,2412,976300000,mti/data,-5.71869325638,0.332131117582,88.0937347412
2018/12/16/17:23:09.123943,109972,2412,986300000,mti/data,-5.72634220123,0.322087585926,88.1000900269
2018/12/16/17:23:09.134160,109973,2412,996300000,mti/data,-5.73403835297,0.309092968702,88.1058425903
2018/12/16/17:23:09.144086,109974,2413,6300000,mti/data,-5.74505853653,0.306465625763,88.111618042
2018/12/16/17:23:09.153976,109975,2413,16300000,mti/data,-5.75066757202,0.298769205809,88.1182785034
2018/12/16/17:23:09.164101,109976,2413,26300000,mti/data,-5.76208496094,0.297664433718,88.1225891113
2018/12/16/17:23:09.174013,109977,2413,36300000,mti/data,-5.77134895325,0.297093212605,88.1256637573
2018/12/16/17:23:09.184025,109978,2413,46300000,mti/data,-5.7785358429,0.290201663971,88.1280059814
2018/12/16/17:23:09.193957,109979,2413,56300000,mti/data,-5.78375244141,0.284754544497,88.1318893433
2018/12/16/17:23:09.204053,109980,2413,66300000,mti/data,-5.78680944443,0.287613242865,88.132194519
2018/12/16/17:23:09.213989,109981,2413,76300000,mti/data,-5.78924131393,0.28014177084,88.1346893311
2018/12/16/17:23:09.224085,109982,2413,86300000,mti/data,-5.79388093948,0.278581261635,88.1366577148
2018/12/16/17:23:09.234006,109983,2413,96300000,mti/data,-5.79742622375,0.277098029852,88.1389846802
2018/12/16/17:23:09.244185,109984,2413,106300000,mti/data,-5.79879426956,0.276067912579,88.1415939331
2018/12/16/17:23:09.254233,109985,2413,116300000,mti/data,-5.80463647842,0.280644834042,88.1428146362
2018/12/16/17:23:09.263983,109986,2413,126300000,mti/data,-5.81007051468,0.281070917845,88.1437530518
2018/12/16/17:23:09.274100,109987,2413,136300000,mti/data,-5.81835889816,0.275453001261,88.1464920044
2018/12/16/17:23:09.283978,109988,2413,146300000,mti/data,-5.82597589493,0.27840089798,88.1487579346
2018/12/16/17:23:09.294060,109989,2413,156300000,mti/data,-5.82960653305,0.288783103228,88.1492385864
2018/12/16/17:23:09.304083,109990,2413,166300000,mti/data,-5.83420324326,0.283877700567,88.1518554688
2018/12/16/17:23:09.314038,109991,2413,176300000,mti/data,-5.8386888504,0.28565955162,88.1542816162
2018/12/16/17:23:09.324122,109992,2413,186300000,mti/data,-5.84382963181,0.292901128531,88.1537322998
2018/12/16/17:23:09.334119,109993,2413,196300000,mti/data,-5.85150146484,0.296777963638,88.1521911621
2018/12/16/17:23:09.344069,109994,2413,206300000,mti/data,-5.85710382462,0.299673110247,88.1516036987
2018/12/16/17:23:09.354089,109995,2413,216300000,mti/data,-5.86246967316,0.307018905878,88.1512985229
2018/12/16/17:23:09.364155,109996,2413,226300000,mti/data,-5.864341259,0.308843404055,88.1504669189
2018/12/16/17:23:09.374374,109997,2413,236300000,mti/data,-5.86577272415,0.313729256392,88.1484527588
2018/12/16/17:23:09.383979,109998,2413,246300000,mti/data,-5.86550760269,0.319494664669,88.147857666
2018/12/16/17:23:09.393985,109999,2413,256300000,mti/data,-5.86554336548,0.32161077857,88.1484222412
2018/12/16/17:23:09.404139,110000,2413,266300000,mti/data,-5.86363172531,0.327647686005,88.1484680176
2018/12/16/17:23:09.414099,110001,2413,276300000,mti/data,-5.86368370056,0.330983877182,88.1479492188
2018/12/16/17:23:09.424079,110002,2413,286300000,mti/data,-5.86414861679,0.331396043301,88.1466140747
2018/12/16/17:23:09.434054,110003,2413,296300000,mti/data,-5.86333751678,0.334073722363,88.1477432251
2018/12/16/17:23:09.444037,110004,2413,306300000,mti/data,-5.8644952774,0.340187877417,88.1450576782
2018/12/16/17:23:09.454138,110005,2413,316300000,mti/data,-5.85989236832,0.338362723589,88.1466293335
2018/12/16/17:23:09.464275,110006,2413,326300000,mti/data,-5.86283731461,0.339983850718,88.1484603882
2018/12/16/17:23:09.474027,110007,2413,336300000,mti/data,-5.86791324615,0.350963979959,88.1472854614
2018/12/16/17:23:09.484293,110008,2413,346300000,mti/data,-5.87146949768,0.349176377058,88.1510543823
2018/12/16/17:23:09.493977,110009,2413,356300000,mti/data,-5.87076425552,0.347915351391,88.1499328613
2018/12/16/17:23:09.504041,110010,2413,366300000,mti/data,-5.87273073196,0.351310372353,88.1523666382
2018/12/16/17:23:09.514040,110011,2413,376300000,mti/data,-5.87616348267,0.354888051748,88.1550369263
2018/12/16/17:23:09.524045,110012,2413,386300000,mti/data,-5.88003206253,0.349318504333,88.1561660767
2018/12/16/17:23:09.534356,110013,2413,396300000,mti/data,-5.87701225281,0.352613329887,88.1624679565
