time,.header.seq,.header.stamp.secs,.header.stamp.nsecs,.header.frame_id,.child_frame_id,.pose.pose.position.x,.pose.pose.position.y,.pose.pose.position.z,.pose.pose.orientation.x,.pose.pose.orientation.y,.pose.pose.orientation.z,.pose.pose.orientation.w,.pose.covariance,.twist.twist.linear.x,.twist.twist.linear.y,.twist.twist.linear.z,.twist.twist.angular.x,.twist.twist.angular.y,.twist.twist.angular.z,.twist.covariance
2018/12/16/17:22:06.629287,10252,1545002526,629149562,gps,,5.013,-10.462,1.543,0.0,0.0,0.0,0.0,"(121000000.0, 0.0, 0.0, 0.0, 0.0, 0.0, 0.0, 121000000.0, 0.0, 0.0, 0.0, 0.0, 0.0, 0.0, 576000000.0, 0.0, 0.0, 0.0, 0.0, 0.0, 0.0, 1000.0, 0.0, 0.0, 0.0, 0.0, 0.0, 0.0, 1000.0, 0.0, 0.0, 0.0, 0.0, 0.0, 0.0, 1000.0)",-0.046,0.82,-0.009,0.0,0.0,0.0,"(0.022090000000000002, 0.0, 0.0, 0.0, 0.0, 0.0, 0.0, 0.022090000000000002, 0.0, 0.0, 0.0, 0.0, 0.0, 0.0, 0.052640000000000006, 0.0, 0.0, 0.0, 0.0, 0.0, 0.0, 1000.0, 0.0, 0.0, 0.0, 0.0, 0.0, 0.0, 1000.0, 0.0, 0.0, 0.0, 0.0, 0.0, 0.0, 1000.0)"
2018/12/16/17:22:06.772213,10253,1545002526,772075882,gps,,5.011,-10.37,1.543,0.0,0.0,0.0,0.0,"(121000000.0, 0.0, 0.0, 0.0, 0.0, 0.0, 0.0, 121000000.0, 0.0, 0.0, 0.0, 0.0, 0.0, 0.0, 576000000.0, 0.0, 0.0, 0.0, 0.0, 0.0, 0.0, 1000.0, 0.0, 0.0, 0.0, 0.0, 0.0, 0.0, 1000.0, 0.0, 0.0, 0.0, 0.0, 0.0, 0.0, 1000.0)",-0.025,0.923,-0.025,0.0,0.0,0.0,"(0.022090000000000002, 0.0, 0.0, 0.0, 0.0, 0.0, 0.0, 0.022090000000000002, 0.0, 0.0, 0.0, 0.0, 0.0, 0.0, 0.052640000000000006, 0.0, 0.0, 0.0, 0.0, 0.0, 0.0, 1000.0, 0.0, 0.0, 0.0, 0.0, 0.0, 0.0, 1000.0, 0.0, 0.0, 0.0, 0.0, 0.0, 0.0, 1000.0)"
2018/12/16/17:22:06.829205,10254,1545002526,829067350,gps,,5.003,-10.263,1.542,0.0,0.0,0.0,0.0,"(121000000.0, 0.0, 0.0, 0.0, 0.0, 0.0, 0.0, 121000000.0, 0.0, 0.0, 0.0, 0.0, 0.0, 0.0, 576000000.0, 0.0, 0.0, 0.0, 0.0, 0.0, 0.0, 1000.0, 0.0, 0.0, 0.0, 0.0, 0.0, 0.0, 1000.0, 0.0, 0.0, 0.0, 0.0, 0.0, 0.0, 1000.0)",-0.077,1.067,-0.025,0.0,0.0,0.0,"(0.022090000000000002, 0.0, 0.0, 0.0, 0.0, 0.0, 0.0, 0.022090000000000002, 0.0, 0.0, 0.0, 0.0, 0.0, 0.0, 0.052640000000000006, 0.0, 0.0, 0.0, 0.0, 0.0, 0.0, 1000.0, 0.0, 0.0, 0.0, 0.0, 0.0, 0.0, 1000.0, 0.0, 0.0, 0.0, 0.0, 0.0, 0.0, 1000.0)"
2018/12/16/17:22:06.985495,10255,1545002526,984992730,gps,,5.001,-10.153,1.546,0.0,0.0,0.0,0.0,"(144000000.0, 0.0, 0.0, 0.0, 0.0, 0.0, 0.0, 144000000.0, 0.0, 0.0, 0.0, 0.0, 0.0, 0.0, 676000000.0, 0.0, 0.0, 0.0, 0.0, 0.0, 0.0, 1000.0, 0.0, 0.0, 0.0, 0.0, 0.0, 0.0, 1000.0, 0.0, 0.0, 0.0, 0.0, 0.0, 0.0, 1000.0)",-0.017,1.122,-0.001,0.0,0.0,0.0,"(0.022090000000000002, 0.0, 0.0, 0.0, 0.0, 0.0, 0.0, 0.022090000000000002, 0.0, 0.0, 0.0, 0.0, 0.0, 0.0, 0.05405000000000001, 0.0, 0.0, 0.0, 0.0, 0.0, 0.0, 1000.0, 0.0, 0.0, 0.0, 0.0, 0.0, 0.0, 1000.0, 0.0, 0.0, 0.0, 0.0, 0.0, 0.0, 1000.0)"
2018/12/16/17:22:07.043379,10256,1545002527,43003173,gps,,4.991,-10.027,1.543,0.0,0.0,0.0,0.0,"(144000000.0, 0.0, 0.0, 0.0, 0.0, 0.0, 0.0, 144000000.0, 0.0, 0.0, 0.0, 0.0, 0.0, 0.0, 729000000.0, 0.0, 0.0, 0.0, 0.0, 0.0, 0.0, 1000.0, 0.0, 0.0, 0.0, 0.0, 0.0, 0.0, 1000.0, 0.0, 0.0, 0.0, 0.0, 0.0, 0.0, 1000.0)",-0.095,1.255,-0.019,0.0,0.0,0.0,"(0.022090000000000002, 0.0, 0.0, 0.0, 0.0, 0.0, 0.0, 0.022090000000000002, 0.0, 0.0, 0.0, 0.0, 0.0, 0.0, 0.05405000000000001, 0.0, 0.0, 0.0, 0.0, 0.0, 0.0, 1000.0, 0.0, 0.0, 0.0, 0.0, 0.0, 0.0, 1000.0, 0.0, 0.0, 0.0, 0.0, 0.0, 0.0, 1000.0)"
2018/12/16/17:22:07.187019,10257,1545002527,186882121,gps,,4.987,-9.89,1.541,0.0,0.0,0.0,0.0,"(144000000.0, 0.0, 0.0, 0.0, 0.0, 0.0, 0.0, 144000000.0, 0.0, 0.0, 0.0, 0.0, 0.0, 0.0, 729000000.0, 0.0, 0.0, 0.0, 0.0, 0.0, 0.0, 1000.0, 0.0, 0.0, 0.0, 0.0, 0.0, 0.0, 1000.0, 0.0, 0.0, 0.0, 0.0, 0.0, 0.0, 1000.0)",-0.044,1.372,-0.026,0.0,0.0,0.0,"(0.022090000000000002, 0.0, 0.0, 0.0, 0.0, 0.0, 0.0, 0.022090000000000002, 0.0, 0.0, 0.0, 0.0, 0.0, 0.0, 0.05405000000000001, 0.0, 0.0, 0.0, 0.0, 0.0, 0.0, 1000.0, 0.0, 0.0, 0.0, 0.0, 0.0, 0.0, 1000.0, 0.0, 0.0, 0.0, 0.0, 0.0, 0.0, 1000.0)"
2018/12/16/17:22:07.245996,10258,1545002527,245862343,gps,,4.98,-9.743,1.543,0.0,0.0,0.0,0.0,"(144000000.0, 0.0, 0.0, 0.0, 0.0, 0.0, 0.0, 144000000.0, 0.0, 0.0, 0.0, 0.0, 0.0, 0.0, 729000000.0, 0.0, 0.0, 0.0, 0.0, 0.0, 0.0, 1000.0, 0.0, 0.0, 0.0, 0.0, 0.0, 0.0, 1000.0, 0.0, 0.0, 0.0, 0.0, 0.0, 0.0, 1000.0)",-0.065,1.481,0.007,0.0,0.0,0.0,"(0.022090000000000002, 0.0, 0.0, 0.0, 0.0, 0.0, 0.0, 0.022090000000000002, 0.0, 0.0, 0.0, 0.0, 0.0, 0.0, 0.05405000000000001, 0.0, 0.0, 0.0, 0.0, 0.0, 0.0, 1000.0, 0.0, 0.0, 0.0, 0.0, 0.0, 0.0, 1000.0, 0.0, 0.0, 0.0, 0.0, 0.0, 0.0, 1000.0)"
2018/12/16/17:22:07.382963,10259,1545002527,382796297,gps,,4.979,-9.584,1.548,0.0,0.0,0.0,0.0,"(144000000.0, 0.0, 0.0, 0.0, 0.0, 0.0, 0.0, 144000000.0, 0.0, 0.0, 0.0, 0.0, 0.0, 0.0, 729000000.0, 0.0, 0.0, 0.0, 0.0, 0.0, 0.0, 1000.0, 0.0, 0.0, 0.0, 0.0, 0.0, 0.0, 1000.0, 0.0, 0.0, 0.0, 0.0, 0.0, 0.0, 1000.0)",-0.022,1.585,0.065,0.0,0.0,0.0,"(0.022090000000000002, 0.0, 0.0, 0.0, 0.0, 0.0, 0.0, 0.022090000000000002, 0.0, 0.0, 0.0, 0.0, 0.0, 0.0, 0.05405000000000001, 0.0, 0.0, 0.0, 0.0, 0.0, 0.0, 1000.0, 0.0, 0.0, 0.0, 0.0, 0.0, 0.0, 1000.0, 0.0, 0.0, 0.0, 0.0, 0.0, 0.0, 1000.0)"
2018/12/16/17:22:07.450920,10260,1545002527,450776982,gps,,4.972,-9.417,1.547,0.0,0.0,0.0,0.0,"(144000000.0, 0.0, 0.0, 0.0, 0.0, 0.0, 0.0, 144000000.0, 0.0, 0.0, 0.0, 0.0, 0.0, 0.0, 784000000.0, 0.0, 0.0, 0.0, 0.0, 0.0, 0.0, 1000.0, 0.0, 0.0, 0.0, 0.0, 0.0, 0.0, 1000.0, 0.0, 0.0, 0.0, 0.0, 0.0, 0.0, 1000.0)",-0.066,1.672,-0.027,0.0,0.0,0.0,"(0.022090000000000002, 0.0, 0.0, 0.0, 0.0, 0.0, 0.0, 0.022090000000000002, 0.0, 0.0, 0.0, 0.0, 0.0, 0.0, 0.05405000000000001, 0.0, 0.0, 0.0, 0.0, 0.0, 0.0, 1000.0, 0.0, 0.0, 0.0, 0.0, 0.0, 0.0, 1000.0, 0.0, 0.0, 0.0, 0.0, 0.0, 0.0, 1000.0)"
2018/12/16/17:22:07.590328,10261,1545002527,590191809,gps,,4.965,-9.236,1.55,0.0,0.0,0.0,0.0,"(100000000.0, 0.0, 0.0, 0.0, 0.0, 0.0, 0.0, 100000000.0, 0.0, 0.0, 0.0, 0.0, 0.0, 0.0, 484000000.0, 0.0, 0.0, 0.0, 0.0, 0.0, 0.0, 1000.0, 0.0, 0.0, 0.0, 0.0, 0.0, 0.0, 1000.0, 0.0, 0.0, 0.0, 0.0, 0.0, 0.0, 1000.0)",-0.07,1.818,-0.008,0.0,0.0,0.0,"(0.022090000000000002, 0.0, 0.0, 0.0, 0.0, 0.0, 0.0, 0.022090000000000002, 0.0, 0.0, 0.0, 0.0, 0.0, 0.0, 0.05405000000000001, 0.0, 0.0, 0.0, 0.0, 0.0, 0.0, 1000.0, 0.0, 0.0, 0.0, 0.0, 0.0, 0.0, 1000.0, 0.0, 0.0, 0.0, 0.0, 0.0, 0.0, 1000.0)"
2018/12/16/17:22:07.627801,10262,1545002527,627654748,gps,,4.957,-9.041,1.547,0.0,0.0,0.0,0.0,"(100000000.0, 0.0, 0.0, 0.0, 0.0, 0.0, 0.0, 100000000.0, 0.0, 0.0, 0.0, 0.0, 0.0, 0.0, 484000000.0, 0.0, 0.0, 0.0, 0.0, 0.0, 0.0, 1000.0, 0.0, 0.0, 0.0, 0.0, 0.0, 0.0, 1000.0, 0.0, 0.0, 0.0, 0.0, 0.0, 0.0, 1000.0)",-0.084,1.947,-0.025,0.0,0.0,0.0,"(0.022090000000000002, 0.0, 0.0, 0.0, 0.0, 0.0, 0.0, 0.022090000000000002, 0.0, 0.0, 0.0, 0.0, 0.0, 0.0, 0.05405000000000001, 0.0, 0.0, 0.0, 0.0, 0.0, 0.0, 1000.0, 0.0, 0.0, 0.0, 0.0, 0.0, 0.0, 1000.0, 0.0, 0.0, 0.0, 0.0, 0.0, 0.0, 1000.0)"
2018/12/16/17:22:07.770943,10263,1545002527,770814778,gps,,4.948,-8.84,1.549,0.0,0.0,0.0,0.0,"(100000000.0, 0.0, 0.0, 0.0, 0.0, 0.0, 0.0, 100000000.0, 0.0, 0.0, 0.0, 0.0, 0.0, 0.0, 484000000.0, 0.0, 0.0, 0.0, 0.0, 0.0, 0.0, 1000.0, 0.0, 0.0, 0.0, 0.0, 0.0, 0.0, 1000.0, 0.0, 0.0, 0.0, 0.0, 0.0, 0.0, 1000.0)",-0.082,2.011,0.024,0.0,0.0,0.0,"(0.022090000000000002, 0.0, 0.0, 0.0, 0.0, 0.0, 0.0, 0.022090000000000002, 0.0, 0.0, 0.0, 0.0, 0.0, 0.0, 0.05405000000000001, 0.0, 0.0, 0.0, 0.0, 0.0, 0.0, 1000.0, 0.0, 0.0, 0.0, 0.0, 0.0, 0.0, 1000.0, 0.0, 0.0, 0.0, 0.0, 0.0, 0.0, 1000.0)"
2018/12/16/17:22:07.827677,10264,1545002527,827533802,gps,,4.942,-8.629,1.548,0.0,0.0,0.0,0.0,"(100000000.0, 0.0, 0.0, 0.0, 0.0, 0.0, 0.0, 100000000.0, 0.0, 0.0, 0.0, 0.0, 0.0, 0.0, 529000000.0, 0.0, 0.0, 0.0, 0.0, 0.0, 0.0, 1000.0, 0.0, 0.0, 0.0, 0.0, 0.0, 0.0, 1000.0, 0.0, 0.0, 0.0, 0.0, 0.0, 0.0, 1000.0)",-0.06,2.117,-0.012,0.0,0.0,0.0,"(0.022090000000000002, 0.0, 0.0, 0.0, 0.0, 0.0, 0.0, 0.022090000000000002, 0.0, 0.0, 0.0, 0.0, 0.0, 0.0, 0.05405000000000001, 0.0, 0.0, 0.0, 0.0, 0.0, 0.0, 1000.0, 0.0, 0.0, 0.0, 0.0, 0.0, 0.0, 1000.0, 0.0, 0.0, 0.0, 0.0, 0.0, 0.0, 1000.0)"
2018/12/16/17:22:07.970592,10265,1545002527,970443526,gps,,4.939,-8.412,1.544,0.0,0.0,0.0,0.0,"(100000000.0, 0.0, 0.0, 0.0, 0.0, 0.0, 0.0, 100000000.0, 0.0, 0.0, 0.0, 0.0, 0.0, 0.0, 529000000.0, 0.0, 0.0, 0.0, 0.0, 0.0, 0.0, 1000.0, 0.0, 0.0, 0.0, 0.0, 0.0, 0.0, 1000.0, 0.0, 0.0, 0.0, 0.0, 0.0, 0.0, 1000.0)",-0.032,2.171,-0.035,0.0,0.0,0.0,"(0.022090000000000002, 0.0, 0.0, 0.0, 0.0, 0.0, 0.0, 0.022090000000000002, 0.0, 0.0, 0.0, 0.0, 0.0, 0.0, 0.05405000000000001, 0.0, 0.0, 0.0, 0.0, 0.0, 0.0, 1000.0, 0.0, 0.0, 0.0, 0.0, 0.0, 0.0, 1000.0, 0.0, 0.0, 0.0, 0.0, 0.0, 0.0, 1000.0)"
2018/12/16/17:22:08.034578,10266,1545002528,34418565,gps,,4.928,-8.189,1.538,0.0,0.0,0.0,0.0,"(100000000.0, 0.0, 0.0, 0.0, 0.0, 0.0, 0.0, 100000000.0, 0.0, 0.0, 0.0, 0.0, 0.0, 0.0, 576000000.0, 0.0, 0.0, 0.0, 0.0, 0.0, 0.0, 1000.0, 0.0, 0.0, 0.0, 0.0, 0.0, 0.0, 1000.0, 0.0, 0.0, 0.0, 0.0, 0.0, 0.0, 1000.0)",-0.111,2.233,-0.064,0.0,0.0,0.0,"(0.022090000000000002, 0.0, 0.0, 0.0, 0.0, 0.0, 0.0, 0.022090000000000002, 0.0, 0.0, 0.0, 0.0, 0.0, 0.0, 0.05405000000000001, 0.0, 0.0, 0.0, 0.0, 0.0, 0.0, 1000.0, 0.0, 0.0, 0.0, 0.0, 0.0, 0.0, 1000.0, 0.0, 0.0, 0.0, 0.0, 0.0, 0.0, 1000.0)"
2018/12/16/17:22:08.179573,10267,1545002528,179415027,gps,,4.926,-7.966,1.551,0.0,0.0,0.0,0.0,"(121000000.0, 0.0, 0.0, 0.0, 0.0, 0.0, 0.0, 121000000.0, 0.0, 0.0, 0.0, 0.0, 0.0, 0.0, 576000000.0, 0.0, 0.0, 0.0, 0.0, 0.0, 0.0, 1000.0, 0.0, 0.0, 0.0, 0.0, 0.0, 0.0, 1000.0, 0.0, 0.0, 0.0, 0.0, 0.0, 0.0, 1000.0)",-0.022,2.229,0.095,0.0,0.0,0.0,"(0.022090000000000002, 0.0, 0.0, 0.0, 0.0, 0.0, 0.0, 0.022090000000000002, 0.0, 0.0, 0.0, 0.0, 0.0, 0.0, 0.05405000000000001, 0.0, 0.0, 0.0, 0.0, 0.0, 0.0, 1000.0, 0.0, 0.0, 0.0, 0.0, 0.0, 0.0, 1000.0, 0.0, 0.0, 0.0, 0.0, 0.0, 0.0, 1000.0)"
2018/12/16/17:22:08.231477,10268,1545002528,231336902,gps,,4.925,-7.74,1.553,0.0,0.0,0.0,0.0,"(121000000.0, 0.0, 0.0, 0.0, 0.0, 0.0, 0.0, 121000000.0, 0.0, 0.0, 0.0, 0.0, 0.0, 0.0, 576000000.0, 0.0, 0.0, 0.0, 0.0, 0.0, 0.0, 1000.0, 0.0, 0.0, 0.0, 0.0, 0.0, 0.0, 1000.0, 0.0, 0.0, 0.0, 0.0, 0.0, 0.0, 1000.0)",-0.012,2.271,0.01,0.0,0.0,0.0,"(0.022090000000000002, 0.0, 0.0, 0.0, 0.0, 0.0, 0.0, 0.022090000000000002, 0.0, 0.0, 0.0, 0.0, 0.0, 0.0, 0.053110000000000004, 0.0, 0.0, 0.0, 0.0, 0.0, 0.0, 1000.0, 0.0, 0.0, 0.0, 0.0, 0.0, 0.0, 1000.0, 0.0, 0.0, 0.0, 0.0, 0.0, 0.0, 1000.0)"
2018/12/16/17:22:08.374430,10269,1545002528,374285024,gps,,4.913,-7.503,1.543,0.0,0.0,0.0,0.0,"(121000000.0, 0.0, 0.0, 0.0, 0.0, 0.0, 0.0, 121000000.0, 0.0, 0.0, 0.0, 0.0, 0.0, 0.0, 625000000.0, 0.0, 0.0, 0.0, 0.0, 0.0, 0.0, 1000.0, 0.0, 0.0, 0.0, 0.0, 0.0, 0.0, 1000.0, 0.0, 0.0, 0.0, 0.0, 0.0, 0.0, 1000.0)",-0.111,2.36,-0.095,0.0,0.0,0.0,"(0.022090000000000002, 0.0, 0.0, 0.0, 0.0, 0.0, 0.0, 0.022090000000000002, 0.0, 0.0, 0.0, 0.0, 0.0, 0.0, 0.053110000000000004, 0.0, 0.0, 0.0, 0.0, 0.0, 0.0, 1000.0, 0.0, 0.0, 0.0, 0.0, 0.0, 0.0, 1000.0, 0.0, 0.0, 0.0, 0.0, 0.0, 0.0, 1000.0)"
2018/12/16/17:22:08.433452,10270,1545002528,431821105,gps,,4.909,-7.273,1.543,0.0,0.0,0.0,0.0,"(121000000.0, 0.0, 0.0, 0.0, 0.0, 0.0, 0.0, 121000000.0, 0.0, 0.0, 0.0, 0.0, 0.0, 0.0, 625000000.0, 0.0, 0.0, 0.0, 0.0, 0.0, 0.0, 1000.0, 0.0, 0.0, 0.0, 0.0, 0.0, 0.0, 1000.0, 0.0, 0.0, 0.0, 0.0, 0.0, 0.0, 1000.0)",-0.041,2.306,0.013,0.0,0.0,0.0,"(0.022090000000000002, 0.0, 0.0, 0.0, 0.0, 0.0, 0.0, 0.022090000000000002, 0.0, 0.0, 0.0, 0.0, 0.0, 0.0, 0.053110000000000004, 0.0, 0.0, 0.0, 0.0, 0.0, 0.0, 1000.0, 0.0, 0.0, 0.0, 0.0, 0.0, 0.0, 1000.0, 0.0, 0.0, 0.0, 0.0, 0.0, 0.0, 1000.0)"
2018/12/16/17:22:08.576376,10271,1545002528,576183998,gps,,4.907,-7.039,1.544,0.0,0.0,0.0,0.0,"(121000000.0, 0.0, 0.0, 0.0, 0.0, 0.0, 0.0, 121000000.0, 0.0, 0.0, 0.0, 0.0, 0.0, 0.0, 625000000.0, 0.0, 0.0, 0.0, 0.0, 0.0, 0.0, 1000.0, 0.0, 0.0, 0.0, 0.0, 0.0, 0.0, 1000.0, 0.0, 0.0, 0.0, 0.0, 0.0, 0.0, 1000.0)",-0.028,2.343,0.013,0.0,0.0,0.0,"(0.022090000000000002, 0.0, 0.0, 0.0, 0.0, 0.0, 0.0, 0.022090000000000002, 0.0, 0.0, 0.0, 0.0, 0.0, 0.0, 0.053110000000000004, 0.0, 0.0, 0.0, 0.0, 0.0, 0.0, 1000.0, 0.0, 0.0, 0.0, 0.0, 0.0, 0.0, 1000.0, 0.0, 0.0, 0.0, 0.0, 0.0, 0.0, 1000.0)"
2018/12/16/17:22:08.636437,10272,1545002528,636152736,gps,,4.902,-6.8,1.543,0.0,0.0,0.0,0.0,"(121000000.0, 0.0, 0.0, 0.0, 0.0, 0.0, 0.0, 121000000.0, 0.0, 0.0, 0.0, 0.0, 0.0, 0.0, 625000000.0, 0.0, 0.0, 0.0, 0.0, 0.0, 0.0, 1000.0, 0.0, 0.0, 0.0, 0.0, 0.0, 0.0, 1000.0, 0.0, 0.0, 0.0, 0.0, 0.0, 0.0, 1000.0)",-0.047,2.394,-0.047,0.0,0.0,0.0,"(0.022090000000000002, 0.0, 0.0, 0.0, 0.0, 0.0, 0.0, 0.022090000000000002, 0.0, 0.0, 0.0, 0.0, 0.0, 0.0, 0.053110000000000004, 0.0, 0.0, 0.0, 0.0, 0.0, 0.0, 1000.0, 0.0, 0.0, 0.0, 0.0, 0.0, 0.0, 1000.0, 0.0, 0.0, 0.0, 0.0, 0.0, 0.0, 1000.0)"
2018/12/16/17:22:08.779534,10273,1545002528,779368710,gps,,4.898,-6.562,1.543,0.0,0.0,0.0,0.0,"(121000000.0, 0.0, 0.0, 0.0, 0.0, 0.0, 0.0, 121000000.0, 0.0, 0.0, 0.0, 0.0, 0.0, 0.0, 676000000.0, 0.0, 0.0, 0.0, 0.0, 0.0, 0.0, 1000.0, 0.0, 0.0, 0.0, 0.0, 0.0, 0.0, 1000.0, 0.0, 0.0, 0.0, 0.0, 0.0, 0.0, 1000.0)",-0.042,2.384,0.042,0.0,0.0,0.0,"(0.022090000000000002, 0.0, 0.0, 0.0, 0.0, 0.0, 0.0, 0.022090000000000002, 0.0, 0.0, 0.0, 0.0, 0.0, 0.0, 0.053110000000000004, 0.0, 0.0, 0.0, 0.0, 0.0, 0.0, 1000.0, 0.0, 0.0, 0.0, 0.0, 0.0, 0.0, 1000.0, 0.0, 0.0, 0.0, 0.0, 0.0, 0.0, 1000.0)"
2018/12/16/17:22:08.831210,10274,1545002528,831085569,gps,,4.893,-6.318,1.545,0.0,0.0,0.0,0.0,"(121000000.0, 0.0, 0.0, 0.0, 0.0, 0.0, 0.0, 121000000.0, 0.0, 0.0, 0.0, 0.0, 0.0, 0.0, 676000000.0, 0.0, 0.0, 0.0, 0.0, 0.0, 0.0, 1000.0, 0.0, 0.0, 0.0, 0.0, 0.0, 0.0, 1000.0, 0.0, 0.0, 0.0, 0.0, 0.0, 0.0, 1000.0)",-0.045,2.433,0.021,0.0,0.0,0.0,"(0.022090000000000002, 0.0, 0.0, 0.0, 0.0, 0.0, 0.0, 0.022090000000000002, 0.0, 0.0, 0.0, 0.0, 0.0, 0.0, 0.053110000000000004, 0.0, 0.0, 0.0, 0.0, 0.0, 0.0, 1000.0, 0.0, 0.0, 0.0, 0.0, 0.0, 0.0, 1000.0, 0.0, 0.0, 0.0, 0.0, 0.0, 0.0, 1000.0)"
2018/12/16/17:22:08.974149,10275,1545002528,974002168,gps,,4.887,-6.068,1.544,0.0,0.0,0.0,0.0,"(144000000.0, 0.0, 0.0, 0.0, 0.0, 0.0, 0.0, 144000000.0, 0.0, 0.0, 0.0, 0.0, 0.0, 0.0, 676000000.0, 0.0, 0.0, 0.0, 0.0, 0.0, 0.0, 1000.0, 0.0, 0.0, 0.0, 0.0, 0.0, 0.0, 1000.0, 0.0, 0.0, 0.0, 0.0, 0.0, 0.0, 1000.0)",-0.051,2.498,-0.044,0.0,0.0,0.0,"(0.022090000000000002, 0.0, 0.0, 0.0, 0.0, 0.0, 0.0, 0.022090000000000002, 0.0, 0.0, 0.0, 0.0, 0.0, 0.0, 0.053110000000000004, 0.0, 0.0, 0.0, 0.0, 0.0, 0.0, 1000.0, 0.0, 0.0, 0.0, 0.0, 0.0, 0.0, 1000.0, 0.0, 0.0, 0.0, 0.0, 0.0, 0.0, 1000.0)"
2018/12/16/17:22:09.035009,10276,1545002529,34838780,gps,,4.887,-5.819,1.551,0.0,0.0,0.0,0.0,"(144000000.0, 0.0, 0.0, 0.0, 0.0, 0.0, 0.0, 144000000.0, 0.0, 0.0, 0.0, 0.0, 0.0, 0.0, 729000000.0, 0.0, 0.0, 0.0, 0.0, 0.0, 0.0, 1000.0, 0.0, 0.0, 0.0, 0.0, 0.0, 0.0, 1000.0, 0.0, 0.0, 0.0, 0.0, 0.0, 0.0, 1000.0)",-0.01,2.503,0.061,0.0,0.0,0.0,"(0.022090000000000002, 0.0, 0.0, 0.0, 0.0, 0.0, 0.0, 0.022090000000000002, 0.0, 0.0, 0.0, 0.0, 0.0, 0.0, 0.053110000000000004, 0.0, 0.0, 0.0, 0.0, 0.0, 0.0, 1000.0, 0.0, 0.0, 0.0, 0.0, 0.0, 0.0, 1000.0, 0.0, 0.0, 0.0, 0.0, 0.0, 0.0, 1000.0)"
2018/12/16/17:22:09.177596,10277,1545002529,177461371,gps,,4.883,-5.561,1.544,0.0,0.0,0.0,0.0,"(144000000.0, 0.0, 0.0, 0.0, 0.0, 0.0, 0.0, 144000000.0, 0.0, 0.0, 0.0, 0.0, 0.0, 0.0, 729000000.0, 0.0, 0.0, 0.0, 0.0, 0.0, 0.0, 1000.0, 0.0, 0.0, 0.0, 0.0, 0.0, 0.0, 1000.0, 0.0, 0.0, 0.0, 0.0, 0.0, 0.0, 1000.0)",-0.039,2.574,-0.04,0.0,0.0,0.0,"(0.022090000000000002, 0.0, 0.0, 0.0, 0.0, 0.0, 0.0, 0.022090000000000002, 0.0, 0.0, 0.0, 0.0, 0.0, 0.0, 0.053110000000000004, 0.0, 0.0, 0.0, 0.0, 0.0, 0.0, 1000.0, 0.0, 0.0, 0.0, 0.0, 0.0, 0.0, 1000.0, 0.0, 0.0, 0.0, 0.0, 0.0, 0.0, 1000.0)"
2018/12/16/17:22:09.232050,10278,1545002529,231885645,gps,,4.88,-5.303,1.542,0.0,0.0,0.0,0.0,"(144000000.0, 0.0, 0.0, 0.0, 0.0, 0.0, 0.0, 144000000.0, 0.0, 0.0, 0.0, 0.0, 0.0, 0.0, 729000000.0, 0.0, 0.0, 0.0, 0.0, 0.0, 0.0, 1000.0, 0.0, 0.0, 0.0, 0.0, 0.0, 0.0, 1000.0, 0.0, 0.0, 0.0, 0.0, 0.0, 0.0, 1000.0)",-0.03,2.585,-0.013,0.0,0.0,0.0,"(0.022090000000000002, 0.0, 0.0, 0.0, 0.0, 0.0, 0.0, 0.022090000000000002, 0.0, 0.0, 0.0, 0.0, 0.0, 0.0, 0.053110000000000004, 0.0, 0.0, 0.0, 0.0, 0.0, 0.0, 1000.0, 0.0, 0.0, 0.0, 0.0, 0.0, 0.0, 1000.0, 0.0, 0.0, 0.0, 0.0, 0.0, 0.0, 1000.0)"
2018/12/16/17:22:09.373949,10279,1545002529,373790277,gps,,4.874,-5.036,1.54,0.0,0.0,0.0,0.0,"(144000000.0, 0.0, 0.0, 0.0, 0.0, 0.0, 0.0, 144000000.0, 0.0, 0.0, 0.0, 0.0, 0.0, 0.0, 729000000.0, 0.0, 0.0, 0.0, 0.0, 0.0, 0.0, 1000.0, 0.0, 0.0, 0.0, 0.0, 0.0, 0.0, 1000.0, 0.0, 0.0, 0.0, 0.0, 0.0, 0.0, 1000.0)",-0.062,2.672,-0.057,0.0,0.0,0.0,"(0.022090000000000002, 0.0, 0.0, 0.0, 0.0, 0.0, 0.0, 0.022090000000000002, 0.0, 0.0, 0.0, 0.0, 0.0, 0.0, 0.053110000000000004, 0.0, 0.0, 0.0, 0.0, 0.0, 0.0, 1000.0, 0.0, 0.0, 0.0, 0.0, 0.0, 0.0, 1000.0, 0.0, 0.0, 0.0, 0.0, 0.0, 0.0, 1000.0)"
2018/12/16/17:22:09.451958,10280,1545002529,451756257,gps,,4.875,-4.771,1.538,0.0,0.0,0.0,0.0,"(144000000.0, 0.0, 0.0, 0.0, 0.0, 0.0, 0.0, 144000000.0, 0.0, 0.0, 0.0, 0.0, 0.0, 0.0, 784000000.0, 0.0, 0.0, 0.0, 0.0, 0.0, 0.0, 1000.0, 0.0, 0.0, 0.0, 0.0, 0.0, 0.0, 1000.0, 0.0, 0.0, 0.0, 0.0, 0.0, 0.0, 1000.0)",0.008,2.665,-0.026,0.0,0.0,0.0,"(0.022090000000000002, 0.0, 0.0, 0.0, 0.0, 0.0, 0.0, 0.022090000000000002, 0.0, 0.0, 0.0, 0.0, 0.0, 0.0, 0.053110000000000004, 0.0, 0.0, 0.0, 0.0, 0.0, 0.0, 1000.0, 0.0, 0.0, 0.0, 0.0, 0.0, 0.0, 1000.0, 0.0, 0.0, 0.0, 0.0, 0.0, 0.0, 1000.0)"
2018/12/16/17:22:09.578045,10281,1545002529,577849815,gps,,4.873,-4.506,1.539,0.0,0.0,0.0,0.0,"(100000000.0, 0.0, 0.0, 0.0, 0.0, 0.0, 0.0, 100000000.0, 0.0, 0.0, 0.0, 0.0, 0.0, 0.0, 441000000.0, 0.0, 0.0, 0.0, 0.0, 0.0, 0.0, 1000.0, 0.0, 0.0, 0.0, 0.0, 0.0, 0.0, 1000.0, 0.0, 0.0, 0.0, 0.0, 0.0, 0.0, 1000.0)",-0.039,2.687,0.061,0.0,0.0,0.0,"(0.022090000000000002, 0.0, 0.0, 0.0, 0.0, 0.0, 0.0, 0.022090000000000002, 0.0, 0.0, 0.0, 0.0, 0.0, 0.0, 0.053110000000000004, 0.0, 0.0, 0.0, 0.0, 0.0, 0.0, 1000.0, 0.0, 0.0, 0.0, 0.0, 0.0, 0.0, 1000.0, 0.0, 0.0, 0.0, 0.0, 0.0, 0.0, 1000.0)"
2018/12/16/17:22:09.627757,10282,1545002529,627628743,gps,,4.869,-4.233,1.535,0.0,0.0,0.0,0.0,"(100000000.0, 0.0, 0.0, 0.0, 0.0, 0.0, 0.0, 100000000.0, 0.0, 0.0, 0.0, 0.0, 0.0, 0.0, 484000000.0, 0.0, 0.0, 0.0, 0.0, 0.0, 0.0, 1000.0, 0.0, 0.0, 0.0, 0.0, 0.0, 0.0, 1000.0, 0.0, 0.0, 0.0, 0.0, 0.0, 0.0, 1000.0)",-0.037,2.731,-0.036,0.0,0.0,0.0,"(0.022090000000000002, 0.0, 0.0, 0.0, 0.0, 0.0, 0.0, 0.022090000000000002, 0.0, 0.0, 0.0, 0.0, 0.0, 0.0, 0.053110000000000004, 0.0, 0.0, 0.0, 0.0, 0.0, 0.0, 1000.0, 0.0, 0.0, 0.0, 0.0, 0.0, 0.0, 1000.0, 0.0, 0.0, 0.0, 0.0, 0.0, 0.0, 1000.0)"
2018/12/16/17:22:09.775721,10283,1545002529,775559102,gps,,4.866,-3.958,1.54,0.0,0.0,0.0,0.0,"(100000000.0, 0.0, 0.0, 0.0, 0.0, 0.0, 0.0, 100000000.0, 0.0, 0.0, 0.0, 0.0, 0.0, 0.0, 484000000.0, 0.0, 0.0, 0.0, 0.0, 0.0, 0.0, 1000.0, 0.0, 0.0, 0.0, 0.0, 0.0, 0.0, 1000.0, 0.0, 0.0, 0.0, 0.0, 0.0, 0.0, 1000.0)",-0.033,2.748,0.037,0.0,0.0,0.0,"(0.022090000000000002, 0.0, 0.0, 0.0, 0.0, 0.0, 0.0, 0.022090000000000002, 0.0, 0.0, 0.0, 0.0, 0.0, 0.0, 0.053110000000000004, 0.0, 0.0, 0.0, 0.0, 0.0, 0.0, 1000.0, 0.0, 0.0, 0.0, 0.0, 0.0, 0.0, 1000.0, 0.0, 0.0, 0.0, 0.0, 0.0, 0.0, 1000.0)"
2018/12/16/17:22:09.837685,10284,1545002529,837528591,gps,,4.863,-3.683,1.541,0.0,0.0,0.0,0.0,"(100000000.0, 0.0, 0.0, 0.0, 0.0, 0.0, 0.0, 100000000.0, 0.0, 0.0, 0.0, 0.0, 0.0, 0.0, 484000000.0, 0.0, 0.0, 0.0, 0.0, 0.0, 0.0, 1000.0, 0.0, 0.0, 0.0, 0.0, 0.0, 0.0, 1000.0, 0.0, 0.0, 0.0, 0.0, 0.0, 0.0, 1000.0)",-0.035,2.758,0.021,0.0,0.0,0.0,"(0.022090000000000002, 0.0, 0.0, 0.0, 0.0, 0.0, 0.0, 0.022090000000000002, 0.0, 0.0, 0.0, 0.0, 0.0, 0.0, 0.053110000000000004, 0.0, 0.0, 0.0, 0.0, 0.0, 0.0, 1000.0, 0.0, 0.0, 0.0, 0.0, 0.0, 0.0, 1000.0, 0.0, 0.0, 0.0, 0.0, 0.0, 0.0, 1000.0)"
2018/12/16/17:22:09.972198,10285,1545002529,971951245,gps,,4.86,-3.402,1.534,0.0,0.0,0.0,0.0,"(100000000.0, 0.0, 0.0, 0.0, 0.0, 0.0, 0.0, 100000000.0, 0.0, 0.0, 0.0, 0.0, 0.0, 0.0, 484000000.0, 0.0, 0.0, 0.0, 0.0, 0.0, 0.0, 1000.0, 0.0, 0.0, 0.0, 0.0, 0.0, 0.0, 1000.0, 0.0, 0.0, 0.0, 0.0, 0.0, 0.0, 1000.0)",-0.031,2.805,-0.082,0.0,0.0,0.0,"(0.022090000000000002, 0.0, 0.0, 0.0, 0.0, 0.0, 0.0, 0.022090000000000002, 0.0, 0.0, 0.0, 0.0, 0.0, 0.0, 0.053110000000000004, 0.0, 0.0, 0.0, 0.0, 0.0, 0.0, 1000.0, 0.0, 0.0, 0.0, 0.0, 0.0, 0.0, 1000.0, 0.0, 0.0, 0.0, 0.0, 0.0, 0.0, 1000.0)"
2018/12/16/17:22:10.032590,10286,1545002530,32432622,gps,,4.854,-3.116,1.536,0.0,0.0,0.0,0.0,"(100000000.0, 0.0, 0.0, 0.0, 0.0, 0.0, 0.0, 100000000.0, 0.0, 0.0, 0.0, 0.0, 0.0, 0.0, 529000000.0, 0.0, 0.0, 0.0, 0.0, 0.0, 0.0, 1000.0, 0.0, 0.0, 0.0, 0.0, 0.0, 0.0, 1000.0, 0.0, 0.0, 0.0, 0.0, 0.0, 0.0, 1000.0)",-0.054,2.859,0.029,0.0,0.0,0.0,"(0.022090000000000002, 0.0, 0.0, 0.0, 0.0, 0.0, 0.0, 0.022090000000000002, 0.0, 0.0, 0.0, 0.0, 0.0, 0.0, 0.053110000000000004, 0.0, 0.0, 0.0, 0.0, 0.0, 0.0, 1000.0, 0.0, 0.0, 0.0, 0.0, 0.0, 0.0, 1000.0, 0.0, 0.0, 0.0, 0.0, 0.0, 0.0, 1000.0)"
2018/12/16/17:22:10.171485,10287,1545002530,171343738,gps,,4.852,-2.827,1.536,0.0,0.0,0.0,0.0,"(121000000.0, 0.0, 0.0, 0.0, 0.0, 0.0, 0.0, 121000000.0, 0.0, 0.0, 0.0, 0.0, 0.0, 0.0, 529000000.0, 0.0, 0.0, 0.0, 0.0, 0.0, 0.0, 1000.0, 0.0, 0.0, 0.0, 0.0, 0.0, 0.0, 1000.0, 0.0, 0.0, 0.0, 0.0, 0.0, 0.0, 1000.0)",-0.025,2.89,0.006,0.0,0.0,0.0,"(0.022090000000000002, 0.0, 0.0, 0.0, 0.0, 0.0, 0.0, 0.022090000000000002, 0.0, 0.0, 0.0, 0.0, 0.0, 0.0, 0.053110000000000004, 0.0, 0.0, 0.0, 0.0, 0.0, 0.0, 1000.0, 0.0, 0.0, 0.0, 0.0, 0.0, 0.0, 1000.0, 0.0, 0.0, 0.0, 0.0, 0.0, 0.0, 1000.0)"
2018/12/16/17:22:10.230468,10288,1545002530,230325506,gps,,4.849,-2.539,1.539,0.0,0.0,0.0,0.0,"(121000000.0, 0.0, 0.0, 0.0, 0.0, 0.0, 0.0, 121000000.0, 0.0, 0.0, 0.0, 0.0, 0.0, 0.0, 529000000.0, 0.0, 0.0, 0.0, 0.0, 0.0, 0.0, 1000.0, 0.0, 0.0, 0.0, 0.0, 0.0, 0.0, 1000.0, 0.0, 0.0, 0.0, 0.0, 0.0, 0.0, 1000.0)",-0.025,2.883,0.035,0.0,0.0,0.0,"(0.022090000000000002, 0.0, 0.0, 0.0, 0.0, 0.0, 0.0, 0.022090000000000002, 0.0, 0.0, 0.0, 0.0, 0.0, 0.0, 0.053110000000000004, 0.0, 0.0, 0.0, 0.0, 0.0, 0.0, 1000.0, 0.0, 0.0, 0.0, 0.0, 0.0, 0.0, 1000.0, 0.0, 0.0, 0.0, 0.0, 0.0, 0.0, 1000.0)"
2018/12/16/17:22:10.369367,10289,1545002530,369242474,gps,,4.845,-2.247,1.542,0.0,0.0,0.0,0.0,"(121000000.0, 0.0, 0.0, 0.0, 0.0, 0.0, 0.0, 121000000.0, 0.0, 0.0, 0.0, 0.0, 0.0, 0.0, 529000000.0, 0.0, 0.0, 0.0, 0.0, 0.0, 0.0, 1000.0, 0.0, 0.0, 0.0, 0.0, 0.0, 0.0, 1000.0, 0.0, 0.0, 0.0, 0.0, 0.0, 0.0, 1000.0)",-0.034,2.923,-0.012,0.0,0.0,0.0,"(0.022090000000000002, 0.0, 0.0, 0.0, 0.0, 0.0, 0.0, 0.022090000000000002, 0.0, 0.0, 0.0, 0.0, 0.0, 0.0, 0.053110000000000004, 0.0, 0.0, 0.0, 0.0, 0.0, 0.0, 1000.0, 0.0, 0.0, 0.0, 0.0, 0.0, 0.0, 1000.0, 0.0, 0.0, 0.0, 0.0, 0.0, 0.0, 1000.0)"
2018/12/16/17:22:10.429320,10290,1545002530,429198582,gps,,4.841,-1.95,1.536,0.0,0.0,0.0,0.0,"(121000000.0, 0.0, 0.0, 0.0, 0.0, 0.0, 0.0, 121000000.0, 0.0, 0.0, 0.0, 0.0, 0.0, 0.0, 576000000.0, 0.0, 0.0, 0.0, 0.0, 0.0, 0.0, 1000.0, 0.0, 0.0, 0.0, 0.0, 0.0, 0.0, 1000.0, 0.0, 0.0, 0.0, 0.0, 0.0, 0.0, 1000.0)",-0.04,2.977,-0.032,0.0,0.0,0.0,"(0.022090000000000002, 0.0, 0.0, 0.0, 0.0, 0.0, 0.0, 0.022090000000000002, 0.0, 0.0, 0.0, 0.0, 0.0, 0.0, 0.053110000000000004, 0.0, 0.0, 0.0, 0.0, 0.0, 0.0, 1000.0, 0.0, 0.0, 0.0, 0.0, 0.0, 0.0, 1000.0, 0.0, 0.0, 0.0, 0.0, 0.0, 0.0, 1000.0)"
2018/12/16/17:22:10.574274,10291,1545002530,574132493,gps,,4.841,-1.648,1.539,0.0,0.0,0.0,0.0,"(121000000.0, 0.0, 0.0, 0.0, 0.0, 0.0, 0.0, 121000000.0, 0.0, 0.0, 0.0, 0.0, 0.0, 0.0, 576000000.0, 0.0, 0.0, 0.0, 0.0, 0.0, 0.0, 1000.0, 0.0, 0.0, 0.0, 0.0, 0.0, 0.0, 1000.0, 0.0, 0.0, 0.0, 0.0, 0.0, 0.0, 1000.0)",-0.011,3.023,0.032,0.0,0.0,0.0,"(0.022090000000000002, 0.0, 0.0, 0.0, 0.0, 0.0, 0.0, 0.022090000000000002, 0.0, 0.0, 0.0, 0.0, 0.0, 0.0, 0.053110000000000004, 0.0, 0.0, 0.0, 0.0, 0.0, 0.0, 1000.0, 0.0, 0.0, 0.0, 0.0, 0.0, 0.0, 1000.0, 0.0, 0.0, 0.0, 0.0, 0.0, 0.0, 1000.0)"
2018/12/16/17:22:10.628225,10292,1545002530,628094072,gps,,4.835,-1.342,1.539,0.0,0.0,0.0,0.0,"(121000000.0, 0.0, 0.0, 0.0, 0.0, 0.0, 0.0, 121000000.0, 0.0, 0.0, 0.0, 0.0, 0.0, 0.0, 576000000.0, 0.0, 0.0, 0.0, 0.0, 0.0, 0.0, 1000.0, 0.0, 0.0, 0.0, 0.0, 0.0, 0.0, 1000.0, 0.0, 0.0, 0.0, 0.0, 0.0, 0.0, 1000.0)",-0.052,3.052,0.008,0.0,0.0,0.0,"(0.022090000000000002, 0.0, 0.0, 0.0, 0.0, 0.0, 0.0, 0.022090000000000002, 0.0, 0.0, 0.0, 0.0, 0.0, 0.0, 0.053110000000000004, 0.0, 0.0, 0.0, 0.0, 0.0, 0.0, 1000.0, 0.0, 0.0, 0.0, 0.0, 0.0, 0.0, 1000.0, 0.0, 0.0, 0.0, 0.0, 0.0, 0.0, 1000.0)"
2018/12/16/17:22:10.771158,10293,1545002530,771028389,gps,,4.832,-1.031,1.541,0.0,0.0,0.0,0.0,"(121000000.0, 0.0, 0.0, 0.0, 0.0, 0.0, 0.0, 121000000.0, 0.0, 0.0, 0.0, 0.0, 0.0, 0.0, 625000000.0, 0.0, 0.0, 0.0, 0.0, 0.0, 0.0, 1000.0, 0.0, 0.0, 0.0, 0.0, 0.0, 0.0, 1000.0, 0.0, 0.0, 0.0, 0.0, 0.0, 0.0, 1000.0)",-0.04,3.107,0.004,0.0,0.0,0.0,"(0.022090000000000002, 0.0, 0.0, 0.0, 0.0, 0.0, 0.0, 0.022090000000000002, 0.0, 0.0, 0.0, 0.0, 0.0, 0.0, 0.053110000000000004, 0.0, 0.0, 0.0, 0.0, 0.0, 0.0, 1000.0, 0.0, 0.0, 0.0, 0.0, 0.0, 0.0, 1000.0, 0.0, 0.0, 0.0, 0.0, 0.0, 0.0, 1000.0)"
2018/12/16/17:22:10.829151,10294,1545002530,829013438,gps,,4.827,-0.716,1.542,0.0,0.0,0.0,0.0,"(121000000.0, 0.0, 0.0, 0.0, 0.0, 0.0, 0.0, 121000000.0, 0.0, 0.0, 0.0, 0.0, 0.0, 0.0, 625000000.0, 0.0, 0.0, 0.0, 0.0, 0.0, 0.0, 1000.0, 0.0, 0.0, 0.0, 0.0, 0.0, 0.0, 1000.0, 0.0, 0.0, 0.0, 0.0, 0.0, 0.0, 1000.0)",-0.036,3.154,0.02,0.0,0.0,0.0,"(0.022090000000000002, 0.0, 0.0, 0.0, 0.0, 0.0, 0.0, 0.022090000000000002, 0.0, 0.0, 0.0, 0.0, 0.0, 0.0, 0.053110000000000004, 0.0, 0.0, 0.0, 0.0, 0.0, 0.0, 1000.0, 0.0, 0.0, 0.0, 0.0, 0.0, 0.0, 1000.0, 0.0, 0.0, 0.0, 0.0, 0.0, 0.0, 1000.0)"
2018/12/16/17:22:10.972127,10295,1545002530,972004806,gps,,4.822,-0.399,1.536,0.0,0.0,0.0,0.0,"(144000000.0, 0.0, 0.0, 0.0, 0.0, 0.0, 0.0, 144000000.0, 0.0, 0.0, 0.0, 0.0, 0.0, 0.0, 625000000.0, 0.0, 0.0, 0.0, 0.0, 0.0, 0.0, 1000.0, 0.0, 0.0, 0.0, 0.0, 0.0, 0.0, 1000.0, 0.0, 0.0, 0.0, 0.0, 0.0, 0.0, 1000.0)",-0.05,3.177,-0.03,0.0,0.0,0.0,"(0.022090000000000002, 0.0, 0.0, 0.0, 0.0, 0.0, 0.0, 0.022090000000000002, 0.0, 0.0, 0.0, 0.0, 0.0, 0.0, 0.053110000000000004, 0.0, 0.0, 0.0, 0.0, 0.0, 0.0, 1000.0, 0.0, 0.0, 0.0, 0.0, 0.0, 0.0, 1000.0, 0.0, 0.0, 0.0, 0.0, 0.0, 0.0, 1000.0)"
2018/12/16/17:22:11.032129,10296,1545002531,31917418,gps,,4.82,-0.078,1.542,0.0,0.0,0.0,0.0,"(144000000.0, 0.0, 0.0, 0.0, 0.0, 0.0, 0.0, 144000000.0, 0.0, 0.0, 0.0, 0.0, 0.0, 0.0, 625000000.0, 0.0, 0.0, 0.0, 0.0, 0.0, 0.0, 1000.0, 0.0, 0.0, 0.0, 0.0, 0.0, 0.0, 1000.0, 0.0, 0.0, 0.0, 0.0, 0.0, 0.0, 1000.0)",-0.029,3.211,0.034,0.0,0.0,0.0,"(0.022090000000000002, 0.0, 0.0, 0.0, 0.0, 0.0, 0.0, 0.022090000000000002, 0.0, 0.0, 0.0, 0.0, 0.0, 0.0, 0.053110000000000004, 0.0, 0.0, 0.0, 0.0, 0.0, 0.0, 1000.0, 0.0, 0.0, 0.0, 0.0, 0.0, 0.0, 1000.0, 0.0, 0.0, 0.0, 0.0, 0.0, 0.0, 1000.0)"
2018/12/16/17:22:11.172960,10297,1545002531,172840325,gps,,4.819,0.251,1.541,0.0,0.0,0.0,0.0,"(144000000.0, 0.0, 0.0, 0.0, 0.0, 0.0, 0.0, 144000000.0, 0.0, 0.0, 0.0, 0.0, 0.0, 0.0, 676000000.0, 0.0, 0.0, 0.0, 0.0, 0.0, 0.0, 1000.0, 0.0, 0.0, 0.0, 0.0, 0.0, 0.0, 1000.0, 0.0, 0.0, 0.0, 0.0, 0.0, 0.0, 1000.0)",-0.008,3.283,-0.031,0.0,0.0,0.0,"(0.022090000000000002, 0.0, 0.0, 0.0, 0.0, 0.0, 0.0, 0.022090000000000002, 0.0, 0.0, 0.0, 0.0, 0.0, 0.0, 0.053110000000000004, 0.0, 0.0, 0.0, 0.0, 0.0, 0.0, 1000.0, 0.0, 0.0, 0.0, 0.0, 0.0, 0.0, 1000.0, 0.0, 0.0, 0.0, 0.0, 0.0, 0.0, 1000.0)"
2018/12/16/17:22:11.235372,10298,1545002531,235229533,gps,,4.816,0.58,1.541,0.0,0.0,0.0,0.0,"(144000000.0, 0.0, 0.0, 0.0, 0.0, 0.0, 0.0, 144000000.0, 0.0, 0.0, 0.0, 0.0, 0.0, 0.0, 676000000.0, 0.0, 0.0, 0.0, 0.0, 0.0, 0.0, 1000.0, 0.0, 0.0, 0.0, 0.0, 0.0, 0.0, 1000.0, 0.0, 0.0, 0.0, 0.0, 0.0, 0.0, 1000.0)",-0.025,3.301,-0.013,0.0,0.0,0.0,"(0.022090000000000002, 0.0, 0.0, 0.0, 0.0, 0.0, 0.0, 0.022090000000000002, 0.0, 0.0, 0.0, 0.0, 0.0, 0.0, 0.053110000000000004, 0.0, 0.0, 0.0, 0.0, 0.0, 0.0, 1000.0, 0.0, 0.0, 0.0, 0.0, 0.0, 0.0, 1000.0, 0.0, 0.0, 0.0, 0.0, 0.0, 0.0, 1000.0)"
2018/12/16/17:22:11.370901,10299,1545002531,370713300,gps,,4.814,0.914,1.543,0.0,0.0,0.0,0.0,"(144000000.0, 0.0, 0.0, 0.0, 0.0, 0.0, 0.0, 144000000.0, 0.0, 0.0, 0.0, 0.0, 0.0, 0.0, 676000000.0, 0.0, 0.0, 0.0, 0.0, 0.0, 0.0, 1000.0, 0.0, 0.0, 0.0, 0.0, 0.0, 0.0, 1000.0, 0.0, 0.0, 0.0, 0.0, 0.0, 0.0, 1000.0)",-0.019,3.339,0.035,0.0,0.0,0.0,"(0.022090000000000002, 0.0, 0.0, 0.0, 0.0, 0.0, 0.0, 0.022090000000000002, 0.0, 0.0, 0.0, 0.0, 0.0, 0.0, 0.053110000000000004, 0.0, 0.0, 0.0, 0.0, 0.0, 0.0, 1000.0, 0.0, 0.0, 0.0, 0.0, 0.0, 0.0, 1000.0, 0.0, 0.0, 0.0, 0.0, 0.0, 0.0, 1000.0)"
2018/12/16/17:22:11.429833,10300,1545002531,429690158,gps,,4.815,1.252,1.542,0.0,0.0,0.0,0.0,"(144000000.0, 0.0, 0.0, 0.0, 0.0, 0.0, 0.0, 144000000.0, 0.0, 0.0, 0.0, 0.0, 0.0, 0.0, 676000000.0, 0.0, 0.0, 0.0, 0.0, 0.0, 0.0, 1000.0, 0.0, 0.0, 0.0, 0.0, 0.0, 0.0, 1000.0, 0.0, 0.0, 0.0, 0.0, 0.0, 0.0, 1000.0)",0.002,3.38,-0.01,0.0,0.0,0.0,"(0.022090000000000002, 0.0, 0.0, 0.0, 0.0, 0.0, 0.0, 0.022090000000000002, 0.0, 0.0, 0.0, 0.0, 0.0, 0.0, 0.053110000000000004, 0.0, 0.0, 0.0, 0.0, 0.0, 0.0, 1000.0, 0.0, 0.0, 0.0, 0.0, 0.0, 0.0, 1000.0, 0.0, 0.0, 0.0, 0.0, 0.0, 0.0, 1000.0)"
2018/12/16/17:22:11.574740,10301,1545002531,574603452,gps,,4.812,1.597,1.544,0.0,0.0,0.0,0.0,"(100000000.0, 0.0, 0.0, 0.0, 0.0, 0.0, 0.0, 100000000.0, 0.0, 0.0, 0.0, 0.0, 0.0, 0.0, 441000000.0, 0.0, 0.0, 0.0, 0.0, 0.0, 0.0, 1000.0, 0.0, 0.0, 0.0, 0.0, 0.0, 0.0, 1000.0, 0.0, 0.0, 0.0, 0.0, 0.0, 0.0, 1000.0)",-0.027,3.454,0.028,0.0,0.0,0.0,"(0.022090000000000002, 0.0, 0.0, 0.0, 0.0, 0.0, 0.0, 0.022090000000000002, 0.0, 0.0, 0.0, 0.0, 0.0, 0.0, 0.053110000000000004, 0.0, 0.0, 0.0, 0.0, 0.0, 0.0, 1000.0, 0.0, 0.0, 0.0, 0.0, 0.0, 0.0, 1000.0, 0.0, 0.0, 0.0, 0.0, 0.0, 0.0, 1000.0)"
2018/12/16/17:22:11.628695,10302,1545002531,628569037,gps,,4.814,1.947,1.543,0.0,0.0,0.0,0.0,"(100000000.0, 0.0, 0.0, 0.0, 0.0, 0.0, 0.0, 100000000.0, 0.0, 0.0, 0.0, 0.0, 0.0, 0.0, 441000000.0, 0.0, 0.0, 0.0, 0.0, 0.0, 0.0, 1000.0, 0.0, 0.0, 0.0, 0.0, 0.0, 0.0, 1000.0, 0.0, 0.0, 0.0, 0.0, 0.0, 0.0, 1000.0)",0.013,3.502,-0.005,0.0,0.0,0.0,"(0.022090000000000002, 0.0, 0.0, 0.0, 0.0, 0.0, 0.0, 0.022090000000000002, 0.0, 0.0, 0.0, 0.0, 0.0, 0.0, 0.053110000000000004, 0.0, 0.0, 0.0, 0.0, 0.0, 0.0, 1000.0, 0.0, 0.0, 0.0, 0.0, 0.0, 0.0, 1000.0, 0.0, 0.0, 0.0, 0.0, 0.0, 0.0, 1000.0)"
2018/12/16/17:22:11.770617,10303,1545002531,770475015,gps,,4.811,2.299,1.542,0.0,0.0,0.0,0.0,"(100000000.0, 0.0, 0.0, 0.0, 0.0, 0.0, 0.0, 100000000.0, 0.0, 0.0, 0.0, 0.0, 0.0, 0.0, 441000000.0, 0.0, 0.0, 0.0, 0.0, 0.0, 0.0, 1000.0, 0.0, 0.0, 0.0, 0.0, 0.0, 0.0, 1000.0, 0.0, 0.0, 0.0, 0.0, 0.0, 0.0, 1000.0)",-0.031,3.52,-0.003,0.0,0.0,0.0,"(0.022090000000000002, 0.0, 0.0, 0.0, 0.0, 0.0, 0.0, 0.022090000000000002, 0.0, 0.0, 0.0, 0.0, 0.0, 0.0, 0.053110000000000004, 0.0, 0.0, 0.0, 0.0, 0.0, 0.0, 1000.0, 0.0, 0.0, 0.0, 0.0, 0.0, 0.0, 1000.0, 0.0, 0.0, 0.0, 0.0, 0.0, 0.0, 1000.0)"
2018/12/16/17:22:11.827600,10304,1545002531,827471703,gps,,4.814,2.653,1.54,0.0,0.0,0.0,0.0,"(100000000.0, 0.0, 0.0, 0.0, 0.0, 0.0, 0.0, 100000000.0, 0.0, 0.0, 0.0, 0.0, 0.0, 0.0, 484000000.0, 0.0, 0.0, 0.0, 0.0, 0.0, 0.0, 1000.0, 0.0, 0.0, 0.0, 0.0, 0.0, 0.0, 1000.0, 0.0, 0.0, 0.0, 0.0, 0.0, 0.0, 1000.0)",0.029,3.544,-0.005,0.0,0.0,0.0,"(0.022090000000000002, 0.0, 0.0, 0.0, 0.0, 0.0, 0.0, 0.022090000000000002, 0.0, 0.0, 0.0, 0.0, 0.0, 0.0, 0.053110000000000004, 0.0, 0.0, 0.0, 0.0, 0.0, 0.0, 1000.0, 0.0, 0.0, 0.0, 0.0, 0.0, 0.0, 1000.0, 0.0, 0.0, 0.0, 0.0, 0.0, 0.0, 1000.0)"
2018/12/16/17:22:11.971544,10305,1545002531,971376570,gps,,4.81,3.014,1.535,0.0,0.0,0.0,0.0,"(100000000.0, 0.0, 0.0, 0.0, 0.0, 0.0, 0.0, 100000000.0, 0.0, 0.0, 0.0, 0.0, 0.0, 0.0, 484000000.0, 0.0, 0.0, 0.0, 0.0, 0.0, 0.0, 1000.0, 0.0, 0.0, 0.0, 0.0, 0.0, 0.0, 1000.0, 0.0, 0.0, 0.0, 0.0, 0.0, 0.0, 1000.0)",-0.033,3.608,-0.061,0.0,0.0,0.0,"(0.022090000000000002, 0.0, 0.0, 0.0, 0.0, 0.0, 0.0, 0.022090000000000002, 0.0, 0.0, 0.0, 0.0, 0.0, 0.0, 0.053110000000000004, 0.0, 0.0, 0.0, 0.0, 0.0, 0.0, 1000.0, 0.0, 0.0, 0.0, 0.0, 0.0, 0.0, 1000.0, 0.0, 0.0, 0.0, 0.0, 0.0, 0.0, 1000.0)"
2018/12/16/17:22:12.032503,10306,1545002532,32365341,gps,,4.81,3.382,1.539,0.0,0.0,0.0,0.0,"(100000000.0, 0.0, 0.0, 0.0, 0.0, 0.0, 0.0, 100000000.0, 0.0, 0.0, 0.0, 0.0, 0.0, 0.0, 484000000.0, 0.0, 0.0, 0.0, 0.0, 0.0, 0.0, 1000.0, 0.0, 0.0, 0.0, 0.0, 0.0, 0.0, 1000.0, 0.0, 0.0, 0.0, 0.0, 0.0, 0.0, 1000.0)",0.0,3.682,0.048,0.0,0.0,0.0,"(0.022090000000000002, 0.0, 0.0, 0.0, 0.0, 0.0, 0.0, 0.022090000000000002, 0.0, 0.0, 0.0, 0.0, 0.0, 0.0, 0.053110000000000004, 0.0, 0.0, 0.0, 0.0, 0.0, 0.0, 1000.0, 0.0, 0.0, 0.0, 0.0, 0.0, 0.0, 1000.0, 0.0, 0.0, 0.0, 0.0, 0.0, 0.0, 1000.0)"
2018/12/16/17:22:12.171406,10307,1545002532,171258187,gps,,4.814,3.749,1.538,0.0,0.0,0.0,0.0,"(121000000.0, 0.0, 0.0, 0.0, 0.0, 0.0, 0.0, 121000000.0, 0.0, 0.0, 0.0, 0.0, 0.0, 0.0, 529000000.0, 0.0, 0.0, 0.0, 0.0, 0.0, 0.0, 1000.0, 0.0, 0.0, 0.0, 0.0, 0.0, 0.0, 1000.0, 0.0, 0.0, 0.0, 0.0, 0.0, 0.0, 1000.0)",0.037,3.669,-0.019,0.0,0.0,0.0,"(0.022090000000000002, 0.0, 0.0, 0.0, 0.0, 0.0, 0.0, 0.022090000000000002, 0.0, 0.0, 0.0, 0.0, 0.0, 0.0, 0.053110000000000004, 0.0, 0.0, 0.0, 0.0, 0.0, 0.0, 1000.0, 0.0, 0.0, 0.0, 0.0, 0.0, 0.0, 1000.0, 0.0, 0.0, 0.0, 0.0, 0.0, 0.0, 1000.0)"
2018/12/16/17:22:12.235885,10308,1545002532,235738426,gps,,4.816,4.123,1.542,0.0,0.0,0.0,0.0,"(121000000.0, 0.0, 0.0, 0.0, 0.0, 0.0, 0.0, 121000000.0, 0.0, 0.0, 0.0, 0.0, 0.0, 0.0, 529000000.0, 0.0, 0.0, 0.0, 0.0, 0.0, 0.0, 1000.0, 0.0, 0.0, 0.0, 0.0, 0.0, 0.0, 1000.0, 0.0, 0.0, 0.0, 0.0, 0.0, 0.0, 1000.0)",0.015,3.743,0.061,0.0,0.0,0.0,"(0.022090000000000002, 0.0, 0.0, 0.0, 0.0, 0.0, 0.0, 0.022090000000000002, 0.0, 0.0, 0.0, 0.0, 0.0, 0.0, 0.053110000000000004, 0.0, 0.0, 0.0, 0.0, 0.0, 0.0, 1000.0, 0.0, 0.0, 0.0, 0.0, 0.0, 0.0, 1000.0, 0.0, 0.0, 0.0, 0.0, 0.0, 0.0, 1000.0)"
2018/12/16/17:22:12.372323,10309,1545002532,372159056,gps,,4.814,4.499,1.533,0.0,0.0,0.0,0.0,"(121000000.0, 0.0, 0.0, 0.0, 0.0, 0.0, 0.0, 121000000.0, 0.0, 0.0, 0.0, 0.0, 0.0, 0.0, 529000000.0, 0.0, 0.0, 0.0, 0.0, 0.0, 0.0, 1000.0, 0.0, 0.0, 0.0, 0.0, 0.0, 0.0, 1000.0, 0.0, 0.0, 0.0, 0.0, 0.0, 0.0, 1000.0)",-0.016,3.772,-0.073,0.0,0.0,0.0,"(0.022090000000000002, 0.0, 0.0, 0.0, 0.0, 0.0, 0.0, 0.022090000000000002, 0.0, 0.0, 0.0, 0.0, 0.0, 0.0, 0.053110000000000004, 0.0, 0.0, 0.0, 0.0, 0.0, 0.0, 1000.0, 0.0, 0.0, 0.0, 0.0, 0.0, 0.0, 1000.0, 0.0, 0.0, 0.0, 0.0, 0.0, 0.0, 1000.0)"
2018/12/16/17:22:12.431356,10310,1545002532,431224642,gps,,4.82,4.883,1.531,0.0,0.0,0.0,0.0,"(121000000.0, 0.0, 0.0, 0.0, 0.0, 0.0, 0.0, 121000000.0, 0.0, 0.0, 0.0, 0.0, 0.0, 0.0, 576000000.0, 0.0, 0.0, 0.0, 0.0, 0.0, 0.0, 1000.0, 0.0, 0.0, 0.0, 0.0, 0.0, 0.0, 1000.0, 0.0, 0.0, 0.0, 0.0, 0.0, 0.0, 1000.0)",0.049,3.835,0.021,0.0,0.0,0.0,"(0.022090000000000002, 0.0, 0.0, 0.0, 0.0, 0.0, 0.0, 0.022090000000000002, 0.0, 0.0, 0.0, 0.0, 0.0, 0.0, 0.05405000000000001, 0.0, 0.0, 0.0, 0.0, 0.0, 0.0, 1000.0, 0.0, 0.0, 0.0, 0.0, 0.0, 0.0, 1000.0, 0.0, 0.0, 0.0, 0.0, 0.0, 0.0, 1000.0)"
2018/12/16/17:22:12.576456,10311,1545002532,576309118,gps,,4.822,5.27,1.537,0.0,0.0,0.0,0.0,"(121000000.0, 0.0, 0.0, 0.0, 0.0, 0.0, 0.0, 121000000.0, 0.0, 0.0, 0.0, 0.0, 0.0, 0.0, 576000000.0, 0.0, 0.0, 0.0, 0.0, 0.0, 0.0, 1000.0, 0.0, 0.0, 0.0, 0.0, 0.0, 0.0, 1000.0, 0.0, 0.0, 0.0, 0.0, 0.0, 0.0, 1000.0)",0.031,3.869,-0.012,0.0,0.0,0.0,"(0.022090000000000002, 0.0, 0.0, 0.0, 0.0, 0.0, 0.0, 0.022090000000000002, 0.0, 0.0, 0.0, 0.0, 0.0, 0.0, 0.05405000000000001, 0.0, 0.0, 0.0, 0.0, 0.0, 0.0, 1000.0, 0.0, 0.0, 0.0, 0.0, 0.0, 0.0, 1000.0, 0.0, 0.0, 0.0, 0.0, 0.0, 0.0, 1000.0)"
2018/12/16/17:22:12.628194,10312,1545002532,628058788,gps,,4.826,5.661,1.537,0.0,0.0,0.0,0.0,"(121000000.0, 0.0, 0.0, 0.0, 0.0, 0.0, 0.0, 121000000.0, 0.0, 0.0, 0.0, 0.0, 0.0, 0.0, 625000000.0, 0.0, 0.0, 0.0, 0.0, 0.0, 0.0, 1000.0, 0.0, 0.0, 0.0, 0.0, 0.0, 0.0, 1000.0, 0.0, 0.0, 0.0, 0.0, 0.0, 0.0, 1000.0)",0.037,3.904,0.008,0.0,0.0,0.0,"(0.022090000000000002, 0.0, 0.0, 0.0, 0.0, 0.0, 0.0, 0.022090000000000002, 0.0, 0.0, 0.0, 0.0, 0.0, 0.0, 0.05405000000000001, 0.0, 0.0, 0.0, 0.0, 0.0, 0.0, 1000.0, 0.0, 0.0, 0.0, 0.0, 0.0, 0.0, 1000.0, 0.0, 0.0, 0.0, 0.0, 0.0, 0.0, 1000.0)"
2018/12/16/17:22:12.770191,10313,1545002532,770013225,gps,,4.831,6.052,1.537,0.0,0.0,0.0,0.0,"(121000000.0, 0.0, 0.0, 0.0, 0.0, 0.0, 0.0, 121000000.0, 0.0, 0.0, 0.0, 0.0, 0.0, 0.0, 625000000.0, 0.0, 0.0, 0.0, 0.0, 0.0, 0.0, 1000.0, 0.0, 0.0, 0.0, 0.0, 0.0, 0.0, 1000.0, 0.0, 0.0, 0.0, 0.0, 0.0, 0.0, 1000.0)",0.036,3.922,0.003,0.0,0.0,0.0,"(0.022090000000000002, 0.0, 0.0, 0.0, 0.0, 0.0, 0.0, 0.022090000000000002, 0.0, 0.0, 0.0, 0.0, 0.0, 0.0, 0.05405000000000001, 0.0, 0.0, 0.0, 0.0, 0.0, 0.0, 1000.0, 0.0, 0.0, 0.0, 0.0, 0.0, 0.0, 1000.0, 0.0, 0.0, 0.0, 0.0, 0.0, 0.0, 1000.0)"
2018/12/16/17:22:12.833330,10314,1545002532,833139754,gps,,4.833,6.453,1.54,0.0,0.0,0.0,0.0,"(144000000.0, 0.0, 0.0, 0.0, 0.0, 0.0, 0.0, 144000000.0, 0.0, 0.0, 0.0, 0.0, 0.0, 0.0, 625000000.0, 0.0, 0.0, 0.0, 0.0, 0.0, 0.0, 1000.0, 0.0, 0.0, 0.0, 0.0, 0.0, 0.0, 1000.0, 0.0, 0.0, 0.0, 0.0, 0.0, 0.0, 1000.0)",0.026,4.011,0.061,0.0,0.0,0.0,"(0.022090000000000002, 0.0, 0.0, 0.0, 0.0, 0.0, 0.0, 0.022090000000000002, 0.0, 0.0, 0.0, 0.0, 0.0, 0.0, 0.05405000000000001, 0.0, 0.0, 0.0, 0.0, 0.0, 0.0, 1000.0, 0.0, 0.0, 0.0, 0.0, 0.0, 0.0, 1000.0, 0.0, 0.0, 0.0, 0.0, 0.0, 0.0, 1000.0)"
2018/12/16/17:22:12.971049,10315,1545002532,970888253,gps,,4.837,6.855,1.538,0.0,0.0,0.0,0.0,"(144000000.0, 0.0, 0.0, 0.0, 0.0, 0.0, 0.0, 144000000.0, 0.0, 0.0, 0.0, 0.0, 0.0, 0.0, 676000000.0, 0.0, 0.0, 0.0, 0.0, 0.0, 0.0, 1000.0, 0.0, 0.0, 0.0, 0.0, 0.0, 0.0, 1000.0, 0.0, 0.0, 0.0, 0.0, 0.0, 0.0, 1000.0)",0.041,4.022,-0.026,0.0,0.0,0.0,"(0.022090000000000002, 0.0, 0.0, 0.0, 0.0, 0.0, 0.0, 0.022090000000000002, 0.0, 0.0, 0.0, 0.0, 0.0, 0.0, 0.05405000000000001, 0.0, 0.0, 0.0, 0.0, 0.0, 0.0, 1000.0, 0.0, 0.0, 0.0, 0.0, 0.0, 0.0, 1000.0, 0.0, 0.0, 0.0, 0.0, 0.0, 0.0, 1000.0)"
2018/12/16/17:22:13.031025,10316,1545002533,30871031,gps,,4.84,7.259,1.536,0.0,0.0,0.0,0.0,"(144000000.0, 0.0, 0.0, 0.0, 0.0, 0.0, 0.0, 144000000.0, 0.0, 0.0, 0.0, 0.0, 0.0, 0.0, 676000000.0, 0.0, 0.0, 0.0, 0.0, 0.0, 0.0, 1000.0, 0.0, 0.0, 0.0, 0.0, 0.0, 0.0, 1000.0, 0.0, 0.0, 0.0, 0.0, 0.0, 0.0, 1000.0)",0.026,4.04,-0.032,0.0,0.0,0.0,"(0.022090000000000002, 0.0, 0.0, 0.0, 0.0, 0.0, 0.0, 0.022090000000000002, 0.0, 0.0, 0.0, 0.0, 0.0, 0.0, 0.05405000000000001, 0.0, 0.0, 0.0, 0.0, 0.0, 0.0, 1000.0, 0.0, 0.0, 0.0, 0.0, 0.0, 0.0, 1000.0, 0.0, 0.0, 0.0, 0.0, 0.0, 0.0, 1000.0)"
2018/12/16/17:22:13.172952,10317,1545002533,172790297,gps,,4.84,7.667,1.535,0.0,0.0,0.0,0.0,"(144000000.0, 0.0, 0.0, 0.0, 0.0, 0.0, 0.0, 144000000.0, 0.0, 0.0, 0.0, 0.0, 0.0, 0.0, 676000000.0, 0.0, 0.0, 0.0, 0.0, 0.0, 0.0, 1000.0, 0.0, 0.0, 0.0, 0.0, 0.0, 0.0, 1000.0, 0.0, 0.0, 0.0, 0.0, 0.0, 0.0, 1000.0)",0.008,4.085,-0.002,0.0,0.0,0.0,"(0.022090000000000002, 0.0, 0.0, 0.0, 0.0, 0.0, 0.0, 0.022090000000000002, 0.0, 0.0, 0.0, 0.0, 0.0, 0.0, 0.05405000000000001, 0.0, 0.0, 0.0, 0.0, 0.0, 0.0, 1000.0, 0.0, 0.0, 0.0, 0.0, 0.0, 0.0, 1000.0, 0.0, 0.0, 0.0, 0.0, 0.0, 0.0, 1000.0)"
2018/12/16/17:22:13.232896,10318,1545002533,232742629,gps,,4.846,8.082,1.534,0.0,0.0,0.0,0.0,"(144000000.0, 0.0, 0.0, 0.0, 0.0, 0.0, 0.0, 144000000.0, 0.0, 0.0, 0.0, 0.0, 0.0, 0.0, 676000000.0, 0.0, 0.0, 0.0, 0.0, 0.0, 0.0, 1000.0, 0.0, 0.0, 0.0, 0.0, 0.0, 0.0, 1000.0, 0.0, 0.0, 0.0, 0.0, 0.0, 0.0, 1000.0)",0.053,4.141,-0.006,0.0,0.0,0.0,"(0.022090000000000002, 0.0, 0.0, 0.0, 0.0, 0.0, 0.0, 0.022090000000000002, 0.0, 0.0, 0.0, 0.0, 0.0, 0.0, 0.05405000000000001, 0.0, 0.0, 0.0, 0.0, 0.0, 0.0, 1000.0, 0.0, 0.0, 0.0, 0.0, 0.0, 0.0, 1000.0, 0.0, 0.0, 0.0, 0.0, 0.0, 0.0, 1000.0)"
2018/12/16/17:22:13.374812,10319,1545002533,374655748,gps,,4.847,8.496,1.534,0.0,0.0,0.0,0.0,"(144000000.0, 0.0, 0.0, 0.0, 0.0, 0.0, 0.0, 144000000.0, 0.0, 0.0, 0.0, 0.0, 0.0, 0.0, 729000000.0, 0.0, 0.0, 0.0, 0.0, 0.0, 0.0, 1000.0, 0.0, 0.0, 0.0, 0.0, 0.0, 0.0, 1000.0, 0.0, 0.0, 0.0, 0.0, 0.0, 0.0, 1000.0)",0.016,4.151,-0.002,0.0,0.0,0.0,"(0.022090000000000002, 0.0, 0.0, 0.0, 0.0, 0.0, 0.0, 0.022090000000000002, 0.0, 0.0, 0.0, 0.0, 0.0, 0.0, 0.05405000000000001, 0.0, 0.0, 0.0, 0.0, 0.0, 0.0, 1000.0, 0.0, 0.0, 0.0, 0.0, 0.0, 0.0, 1000.0, 0.0, 0.0, 0.0, 0.0, 0.0, 0.0, 1000.0)"
2018/12/16/17:22:13.452752,10320,1545002533,452607443,gps,,4.849,8.913,1.536,0.0,0.0,0.0,0.0,"(144000000.0, 0.0, 0.0, 0.0, 0.0, 0.0, 0.0, 144000000.0, 0.0, 0.0, 0.0, 0.0, 0.0, 0.0, 729000000.0, 0.0, 0.0, 0.0, 0.0, 0.0, 0.0, 1000.0, 0.0, 0.0, 0.0, 0.0, 0.0, 0.0, 1000.0, 0.0, 0.0, 0.0, 0.0, 0.0, 0.0, 1000.0)",0.018,4.164,0.044,0.0,0.0,0.0,"(0.022090000000000002, 0.0, 0.0, 0.0, 0.0, 0.0, 0.0, 0.022090000000000002, 0.0, 0.0, 0.0, 0.0, 0.0, 0.0, 0.05358, 0.0, 0.0, 0.0, 0.0, 0.0, 0.0, 1000.0, 0.0, 0.0, 0.0, 0.0, 0.0, 0.0, 1000.0, 0.0, 0.0, 0.0, 0.0, 0.0, 0.0, 1000.0)"
2018/12/16/17:22:13.574694,10321,1545002533,574583252,gps,,4.85,9.33,1.539,0.0,0.0,0.0,0.0,"(100000000.0, 0.0, 0.0, 0.0, 0.0, 0.0, 0.0, 100000000.0, 0.0, 0.0, 0.0, 0.0, 0.0, 0.0, 441000000.0, 0.0, 0.0, 0.0, 0.0, 0.0, 0.0, 1000.0, 0.0, 0.0, 0.0, 0.0, 0.0, 0.0, 1000.0, 0.0, 0.0, 0.0, 0.0, 0.0, 0.0, 1000.0)",0.008,4.197,-0.024,0.0,0.0,0.0,"(0.022090000000000002, 0.0, 0.0, 0.0, 0.0, 0.0, 0.0, 0.022090000000000002, 0.0, 0.0, 0.0, 0.0, 0.0, 0.0, 0.05358, 0.0, 0.0, 0.0, 0.0, 0.0, 0.0, 1000.0, 0.0, 0.0, 0.0, 0.0, 0.0, 0.0, 1000.0, 0.0, 0.0, 0.0, 0.0, 0.0, 0.0, 1000.0)"
2018/12/16/17:22:13.628654,10322,1545002533,628536531,gps,,4.855,9.751,1.535,0.0,0.0,0.0,0.0,"(100000000.0, 0.0, 0.0, 0.0, 0.0, 0.0, 0.0, 100000000.0, 0.0, 0.0, 0.0, 0.0, 0.0, 0.0, 441000000.0, 0.0, 0.0, 0.0, 0.0, 0.0, 0.0, 1000.0, 0.0, 0.0, 0.0, 0.0, 0.0, 0.0, 1000.0, 0.0, 0.0, 0.0, 0.0, 0.0, 0.0, 1000.0)",0.047,4.214,-0.029,0.0,0.0,0.0,"(0.022090000000000002, 0.0, 0.0, 0.0, 0.0, 0.0, 0.0, 0.022090000000000002, 0.0, 0.0, 0.0, 0.0, 0.0, 0.0, 0.05358, 0.0, 0.0, 0.0, 0.0, 0.0, 0.0, 1000.0, 0.0, 0.0, 0.0, 0.0, 0.0, 0.0, 1000.0, 0.0, 0.0, 0.0, 0.0, 0.0, 0.0, 1000.0)"
2018/12/16/17:22:13.771674,10323,1545002533,771512748,gps,,4.86,10.171,1.54,0.0,0.0,0.0,0.0,"(100000000.0, 0.0, 0.0, 0.0, 0.0, 0.0, 0.0, 100000000.0, 0.0, 0.0, 0.0, 0.0, 0.0, 0.0, 484000000.0, 0.0, 0.0, 0.0, 0.0, 0.0, 0.0, 1000.0, 0.0, 0.0, 0.0, 0.0, 0.0, 0.0, 1000.0, 0.0, 0.0, 0.0, 0.0, 0.0, 0.0, 1000.0)",0.05,4.202,0.051,0.0,0.0,0.0,"(0.022090000000000002, 0.0, 0.0, 0.0, 0.0, 0.0, 0.0, 0.022090000000000002, 0.0, 0.0, 0.0, 0.0, 0.0, 0.0, 0.05358, 0.0, 0.0, 0.0, 0.0, 0.0, 0.0, 1000.0, 0.0, 0.0, 0.0, 0.0, 0.0, 0.0, 1000.0, 0.0, 0.0, 0.0, 0.0, 0.0, 0.0, 1000.0)"
2018/12/16/17:22:13.833736,10324,1545002533,833496813,gps,,4.863,10.593,1.537,0.0,0.0,0.0,0.0,"(100000000.0, 0.0, 0.0, 0.0, 0.0, 0.0, 0.0, 100000000.0, 0.0, 0.0, 0.0, 0.0, 0.0, 0.0, 484000000.0, 0.0, 0.0, 0.0, 0.0, 0.0, 0.0, 1000.0, 0.0, 0.0, 0.0, 0.0, 0.0, 0.0, 1000.0, 0.0, 0.0, 0.0, 0.0, 0.0, 0.0, 1000.0)",0.032,4.215,-0.046,0.0,0.0,0.0,"(0.022090000000000002, 0.0, 0.0, 0.0, 0.0, 0.0, 0.0, 0.022090000000000002, 0.0, 0.0, 0.0, 0.0, 0.0, 0.0, 0.05358, 0.0, 0.0, 0.0, 0.0, 0.0, 0.0, 1000.0, 0.0, 0.0, 0.0, 0.0, 0.0, 0.0, 1000.0, 0.0, 0.0, 0.0, 0.0, 0.0, 0.0, 1000.0)"
2018/12/16/17:22:13.972520,10325,1545002533,972388979,gps,,4.868,11.017,1.532,0.0,0.0,0.0,0.0,"(100000000.0, 0.0, 0.0, 0.0, 0.0, 0.0, 0.0, 100000000.0, 0.0, 0.0, 0.0, 0.0, 0.0, 0.0, 484000000.0, 0.0, 0.0, 0.0, 0.0, 0.0, 0.0, 1000.0, 0.0, 0.0, 0.0, 0.0, 0.0, 0.0, 1000.0, 0.0, 0.0, 0.0, 0.0, 0.0, 0.0, 1000.0)",0.047,4.25,-0.017,0.0,0.0,0.0,"(0.022090000000000002, 0.0, 0.0, 0.0, 0.0, 0.0, 0.0, 0.022090000000000002, 0.0, 0.0, 0.0, 0.0, 0.0, 0.0, 0.05358, 0.0, 0.0, 0.0, 0.0, 0.0, 0.0, 1000.0, 0.0, 0.0, 0.0, 0.0, 0.0, 0.0, 1000.0, 0.0, 0.0, 0.0, 0.0, 0.0, 0.0, 1000.0)"
2018/12/16/17:22:14.032502,10326,1545002534,32355666,gps,,4.87,11.443,1.535,0.0,0.0,0.0,0.0,"(100000000.0, 0.0, 0.0, 0.0, 0.0, 0.0, 0.0, 100000000.0, 0.0, 0.0, 0.0, 0.0, 0.0, 0.0, 529000000.0, 0.0, 0.0, 0.0, 0.0, 0.0, 0.0, 1000.0, 0.0, 0.0, 0.0, 0.0, 0.0, 0.0, 1000.0, 0.0, 0.0, 0.0, 0.0, 0.0, 0.0, 1000.0)",0.015,4.259,0.004,0.0,0.0,0.0,"(0.022090000000000002, 0.0, 0.0, 0.0, 0.0, 0.0, 0.0, 0.022090000000000002, 0.0, 0.0, 0.0, 0.0, 0.0, 0.0, 0.05358, 0.0, 0.0, 0.0, 0.0, 0.0, 0.0, 1000.0, 0.0, 0.0, 0.0, 0.0, 0.0, 0.0, 1000.0, 0.0, 0.0, 0.0, 0.0, 0.0, 0.0, 1000.0)"
2018/12/16/17:22:14.172399,10327,1545002534,172269318,gps,,4.868,11.871,1.542,0.0,0.0,0.0,0.0,"(121000000.0, 0.0, 0.0, 0.0, 0.0, 0.0, 0.0, 121000000.0, 0.0, 0.0, 0.0, 0.0, 0.0, 0.0, 529000000.0, 0.0, 0.0, 0.0, 0.0, 0.0, 0.0, 1000.0, 0.0, 0.0, 0.0, 0.0, 0.0, 0.0, 1000.0, 0.0, 0.0, 0.0, 0.0, 0.0, 0.0, 1000.0)",-0.015,4.277,0.046,0.0,0.0,0.0,"(0.022090000000000002, 0.0, 0.0, 0.0, 0.0, 0.0, 0.0, 0.022090000000000002, 0.0, 0.0, 0.0, 0.0, 0.0, 0.0, 0.05358, 0.0, 0.0, 0.0, 0.0, 0.0, 0.0, 1000.0, 0.0, 0.0, 0.0, 0.0, 0.0, 0.0, 1000.0, 0.0, 0.0, 0.0, 0.0, 0.0, 0.0, 1000.0)"
2018/12/16/17:22:14.229392,10328,1545002534,229234682,gps,,4.872,12.297,1.533,0.0,0.0,0.0,0.0,"(121000000.0, 0.0, 0.0, 0.0, 0.0, 0.0, 0.0, 121000000.0, 0.0, 0.0, 0.0, 0.0, 0.0, 0.0, 529000000.0, 0.0, 0.0, 0.0, 0.0, 0.0, 0.0, 1000.0, 0.0, 0.0, 0.0, 0.0, 0.0, 0.0, 1000.0, 0.0, 0.0, 0.0, 0.0, 0.0, 0.0, 1000.0)",0.037,4.267,-0.08,0.0,0.0,0.0,"(0.022090000000000002, 0.0, 0.0, 0.0, 0.0, 0.0, 0.0, 0.022090000000000002, 0.0, 0.0, 0.0, 0.0, 0.0, 0.0, 0.05358, 0.0, 0.0, 0.0, 0.0, 0.0, 0.0, 1000.0, 0.0, 0.0, 0.0, 0.0, 0.0, 0.0, 1000.0, 0.0, 0.0, 0.0, 0.0, 0.0, 0.0, 1000.0)"
2018/12/16/17:22:14.373337,10329,1545002534,373194898,gps,,4.873,12.728,1.538,0.0,0.0,0.0,0.0,"(121000000.0, 0.0, 0.0, 0.0, 0.0, 0.0, 0.0, 121000000.0, 0.0, 0.0, 0.0, 0.0, 0.0, 0.0, 576000000.0, 0.0, 0.0, 0.0, 0.0, 0.0, 0.0, 1000.0, 0.0, 0.0, 0.0, 0.0, 0.0, 0.0, 1000.0, 0.0, 0.0, 0.0, 0.0, 0.0, 0.0, 1000.0)",0.011,4.313,0.05,0.0,0.0,0.0,"(0.022090000000000002, 0.0, 0.0, 0.0, 0.0, 0.0, 0.0, 0.022090000000000002, 0.0, 0.0, 0.0, 0.0, 0.0, 0.0, 0.053110000000000004, 0.0, 0.0, 0.0, 0.0, 0.0, 0.0, 1000.0, 0.0, 0.0, 0.0, 0.0, 0.0, 0.0, 1000.0, 0.0, 0.0, 0.0, 0.0, 0.0, 0.0, 1000.0)"
2018/12/16/17:22:14.430372,10330,1545002534,430166038,gps,,4.872,13.157,1.54,0.0,0.0,0.0,0.0,"(121000000.0, 0.0, 0.0, 0.0, 0.0, 0.0, 0.0, 121000000.0, 0.0, 0.0, 0.0, 0.0, 0.0, 0.0, 576000000.0, 0.0, 0.0, 0.0, 0.0, 0.0, 0.0, 1000.0, 0.0, 0.0, 0.0, 0.0, 0.0, 0.0, 1000.0, 0.0, 0.0, 0.0, 0.0, 0.0, 0.0, 1000.0)",-0.008,4.29,0.003,0.0,0.0,0.0,"(0.022090000000000002, 0.0, 0.0, 0.0, 0.0, 0.0, 0.0, 0.022090000000000002, 0.0, 0.0, 0.0, 0.0, 0.0, 0.0, 0.053110000000000004, 0.0, 0.0, 0.0, 0.0, 0.0, 0.0, 1000.0, 0.0, 0.0, 0.0, 0.0, 0.0, 0.0, 1000.0, 0.0, 0.0, 0.0, 0.0, 0.0, 0.0, 1000.0)"
2018/12/16/17:22:14.574233,10331,1545002534,574101152,gps,,4.873,13.589,1.543,0.0,0.0,0.0,0.0,"(121000000.0, 0.0, 0.0, 0.0, 0.0, 0.0, 0.0, 121000000.0, 0.0, 0.0, 0.0, 0.0, 0.0, 0.0, 576000000.0, 0.0, 0.0, 0.0, 0.0, 0.0, 0.0, 1000.0, 0.0, 0.0, 0.0, 0.0, 0.0, 0.0, 1000.0, 0.0, 0.0, 0.0, 0.0, 0.0, 0.0, 1000.0)",0.006,4.317,0.038,0.0,0.0,0.0,"(0.022090000000000002, 0.0, 0.0, 0.0, 0.0, 0.0, 0.0, 0.022090000000000002, 0.0, 0.0, 0.0, 0.0, 0.0, 0.0, 0.053110000000000004, 0.0, 0.0, 0.0, 0.0, 0.0, 0.0, 1000.0, 0.0, 0.0, 0.0, 0.0, 0.0, 0.0, 1000.0, 0.0, 0.0, 0.0, 0.0, 0.0, 0.0, 1000.0)"
2018/12/16/17:22:14.630277,10332,1545002534,630052031,gps,,4.873,14.023,1.538,0.0,0.0,0.0,0.0,"(121000000.0, 0.0, 0.0, 0.0, 0.0, 0.0, 0.0, 121000000.0, 0.0, 0.0, 0.0, 0.0, 0.0, 0.0, 576000000.0, 0.0, 0.0, 0.0, 0.0, 0.0, 0.0, 1000.0, 0.0, 0.0, 0.0, 0.0, 0.0, 0.0, 1000.0, 0.0, 0.0, 0.0, 0.0, 0.0, 0.0, 1000.0)",0.001,4.349,-0.028,0.0,0.0,0.0,"(0.022090000000000002, 0.0, 0.0, 0.0, 0.0, 0.0, 0.0, 0.022090000000000002, 0.0, 0.0, 0.0, 0.0, 0.0, 0.0, 0.053110000000000004, 0.0, 0.0, 0.0, 0.0, 0.0, 0.0, 1000.0, 0.0, 0.0, 0.0, 0.0, 0.0, 0.0, 1000.0, 0.0, 0.0, 0.0, 0.0, 0.0, 0.0, 1000.0)"
2018/12/16/17:22:14.771231,10333,1545002534,771014023,gps,,4.873,14.455,1.54,0.0,0.0,0.0,0.0,"(121000000.0, 0.0, 0.0, 0.0, 0.0, 0.0, 0.0, 121000000.0, 0.0, 0.0, 0.0, 0.0, 0.0, 0.0, 625000000.0, 0.0, 0.0, 0.0, 0.0, 0.0, 0.0, 1000.0, 0.0, 0.0, 0.0, 0.0, 0.0, 0.0, 1000.0, 0.0, 0.0, 0.0, 0.0, 0.0, 0.0, 1000.0)",0.006,4.32,0.008,0.0,0.0,0.0,"(0.022090000000000002, 0.0, 0.0, 0.0, 0.0, 0.0, 0.0, 0.022090000000000002, 0.0, 0.0, 0.0, 0.0, 0.0, 0.0, 0.053110000000000004, 0.0, 0.0, 0.0, 0.0, 0.0, 0.0, 1000.0, 0.0, 0.0, 0.0, 0.0, 0.0, 0.0, 1000.0, 0.0, 0.0, 0.0, 0.0, 0.0, 0.0, 1000.0)"
2018/12/16/17:22:14.829135,10334,1545002534,829011938,gps,,4.877,14.889,1.535,0.0,0.0,0.0,0.0,"(144000000.0, 0.0, 0.0, 0.0, 0.0, 0.0, 0.0, 144000000.0, 0.0, 0.0, 0.0, 0.0, 0.0, 0.0, 625000000.0, 0.0, 0.0, 0.0, 0.0, 0.0, 0.0, 1000.0, 0.0, 0.0, 0.0, 0.0, 0.0, 0.0, 1000.0, 0.0, 0.0, 0.0, 0.0, 0.0, 0.0, 1000.0)",0.036,4.345,-0.018,0.0,0.0,0.0,"(0.022090000000000002, 0.0, 0.0, 0.0, 0.0, 0.0, 0.0, 0.022090000000000002, 0.0, 0.0, 0.0, 0.0, 0.0, 0.0, 0.053110000000000004, 0.0, 0.0, 0.0, 0.0, 0.0, 0.0, 1000.0, 0.0, 0.0, 0.0, 0.0, 0.0, 0.0, 1000.0, 0.0, 0.0, 0.0, 0.0, 0.0, 0.0, 1000.0)"
2018/12/16/17:22:14.973041,10335,1545002534,972893642,gps,,4.879,15.323,1.536,0.0,0.0,0.0,0.0,"(144000000.0, 0.0, 0.0, 0.0, 0.0, 0.0, 0.0, 144000000.0, 0.0, 0.0, 0.0, 0.0, 0.0, 0.0, 625000000.0, 0.0, 0.0, 0.0, 0.0, 0.0, 0.0, 1000.0, 0.0, 0.0, 0.0, 0.0, 0.0, 0.0, 1000.0, 0.0, 0.0, 0.0, 0.0, 0.0, 0.0, 1000.0)",0.012,4.342,-0.003,0.0,0.0,0.0,"(0.022090000000000002, 0.0, 0.0, 0.0, 0.0, 0.0, 0.0, 0.022090000000000002, 0.0, 0.0, 0.0, 0.0, 0.0, 0.0, 0.053110000000000004, 0.0, 0.0, 0.0, 0.0, 0.0, 0.0, 1000.0, 0.0, 0.0, 0.0, 0.0, 0.0, 0.0, 1000.0, 0.0, 0.0, 0.0, 0.0, 0.0, 0.0, 1000.0)"
2018/12/16/17:22:15.032992,10336,1545002535,32861243,gps,,4.88,15.759,1.539,0.0,0.0,0.0,0.0,"(144000000.0, 0.0, 0.0, 0.0, 0.0, 0.0, 0.0, 144000000.0, 0.0, 0.0, 0.0, 0.0, 0.0, 0.0, 625000000.0, 0.0, 0.0, 0.0, 0.0, 0.0, 0.0, 1000.0, 0.0, 0.0, 0.0, 0.0, 0.0, 0.0, 1000.0, 0.0, 0.0, 0.0, 0.0, 0.0, 0.0, 1000.0)",0.011,4.357,0.036,0.0,0.0,0.0,"(0.022090000000000002, 0.0, 0.0, 0.0, 0.0, 0.0, 0.0, 0.022090000000000002, 0.0, 0.0, 0.0, 0.0, 0.0, 0.0, 0.053110000000000004, 0.0, 0.0, 0.0, 0.0, 0.0, 0.0, 1000.0, 0.0, 0.0, 0.0, 0.0, 0.0, 0.0, 1000.0, 0.0, 0.0, 0.0, 0.0, 0.0, 0.0, 1000.0)"
2018/12/16/17:22:15.175260,10337,1545002535,174786002,gps,,4.879,16.198,1.536,0.0,0.0,0.0,0.0,"(144000000.0, 0.0, 0.0, 0.0, 0.0, 0.0, 0.0, 144000000.0, 0.0, 0.0, 0.0, 0.0, 0.0, 0.0, 676000000.0, 0.0, 0.0, 0.0, 0.0, 0.0, 0.0, 1000.0, 0.0, 0.0, 0.0, 0.0, 0.0, 0.0, 1000.0, 0.0, 0.0, 0.0, 0.0, 0.0, 0.0, 1000.0)",-0.003,4.391,-0.027,0.0,0.0,0.0,"(0.022090000000000002, 0.0, 0.0, 0.0, 0.0, 0.0, 0.0, 0.022090000000000002, 0.0, 0.0, 0.0, 0.0, 0.0, 0.0, 0.053110000000000004, 0.0, 0.0, 0.0, 0.0, 0.0, 0.0, 1000.0, 0.0, 0.0, 0.0, 0.0, 0.0, 0.0, 1000.0, 0.0, 0.0, 0.0, 0.0, 0.0, 0.0, 1000.0)"
2018/12/16/17:22:15.228970,10338,1545002535,228802621,gps,,4.883,16.634,1.534,0.0,0.0,0.0,0.0,"(144000000.0, 0.0, 0.0, 0.0, 0.0, 0.0, 0.0, 144000000.0, 0.0, 0.0, 0.0, 0.0, 0.0, 0.0, 676000000.0, 0.0, 0.0, 0.0, 0.0, 0.0, 0.0, 1000.0, 0.0, 0.0, 0.0, 0.0, 0.0, 0.0, 1000.0, 0.0, 0.0, 0.0, 0.0, 0.0, 0.0, 1000.0)",0.035,4.368,-0.033,0.0,0.0,0.0,"(0.022090000000000002, 0.0, 0.0, 0.0, 0.0, 0.0, 0.0, 0.022090000000000002, 0.0, 0.0, 0.0, 0.0, 0.0, 0.0, 0.053110000000000004, 0.0, 0.0, 0.0, 0.0, 0.0, 0.0, 1000.0, 0.0, 0.0, 0.0, 0.0, 0.0, 0.0, 1000.0, 0.0, 0.0, 0.0, 0.0, 0.0, 0.0, 1000.0)"
2018/12/16/17:22:15.373843,10339,1545002535,373713962,gps,,4.884,17.07,1.536,0.0,0.0,0.0,0.0,"(144000000.0, 0.0, 0.0, 0.0, 0.0, 0.0, 0.0, 144000000.0, 0.0, 0.0, 0.0, 0.0, 0.0, 0.0, 676000000.0, 0.0, 0.0, 0.0, 0.0, 0.0, 0.0, 1000.0, 0.0, 0.0, 0.0, 0.0, 0.0, 0.0, 1000.0, 0.0, 0.0, 0.0, 0.0, 0.0, 0.0, 1000.0)",0.013,4.361,0.011,0.0,0.0,0.0,"(0.022090000000000002, 0.0, 0.0, 0.0, 0.0, 0.0, 0.0, 0.022090000000000002, 0.0, 0.0, 0.0, 0.0, 0.0, 0.0, 0.053110000000000004, 0.0, 0.0, 0.0, 0.0, 0.0, 0.0, 1000.0, 0.0, 0.0, 0.0, 0.0, 0.0, 0.0, 1000.0, 0.0, 0.0, 0.0, 0.0, 0.0, 0.0, 1000.0)"
2018/12/16/17:22:15.429811,10340,1545002535,429680511,gps,,4.887,17.505,1.542,0.0,0.0,0.0,0.0,"(144000000.0, 0.0, 0.0, 0.0, 0.0, 0.0, 0.0, 144000000.0, 0.0, 0.0, 0.0, 0.0, 0.0, 0.0, 676000000.0, 0.0, 0.0, 0.0, 0.0, 0.0, 0.0, 1000.0, 0.0, 0.0, 0.0, 0.0, 0.0, 0.0, 1000.0, 0.0, 0.0, 0.0, 0.0, 0.0, 0.0, 1000.0)",0.022,4.349,0.055,0.0,0.0,0.0,"(0.022090000000000002, 0.0, 0.0, 0.0, 0.0, 0.0, 0.0, 0.022090000000000002, 0.0, 0.0, 0.0, 0.0, 0.0, 0.0, 0.053110000000000004, 0.0, 0.0, 0.0, 0.0, 0.0, 0.0, 1000.0, 0.0, 0.0, 0.0, 0.0, 0.0, 0.0, 1000.0, 0.0, 0.0, 0.0, 0.0, 0.0, 0.0, 1000.0)"
2018/12/16/17:22:15.578748,10341,1545002535,578610468,gps,,4.887,17.942,1.538,0.0,0.0,0.0,0.0,"(100000000.0, 0.0, 0.0, 0.0, 0.0, 0.0, 0.0, 100000000.0, 0.0, 0.0, 0.0, 0.0, 0.0, 0.0, 441000000.0, 0.0, 0.0, 0.0, 0.0, 0.0, 0.0, 1000.0, 0.0, 0.0, 0.0, 0.0, 0.0, 0.0, 1000.0, 0.0, 0.0, 0.0, 0.0, 0.0, 0.0, 1000.0)",0.004,4.399,-0.049,0.0,0.0,0.0,"(0.022090000000000002, 0.0, 0.0, 0.0, 0.0, 0.0, 0.0, 0.022090000000000002, 0.0, 0.0, 0.0, 0.0, 0.0, 0.0, 0.053110000000000004, 0.0, 0.0, 0.0, 0.0, 0.0, 0.0, 1000.0, 0.0, 0.0, 0.0, 0.0, 0.0, 0.0, 1000.0, 0.0, 0.0, 0.0, 0.0, 0.0, 0.0, 1000.0)"
2018/12/16/17:22:15.628837,10342,1545002535,628700834,gps,,4.888,18.382,1.538,0.0,0.0,0.0,0.0,"(100000000.0, 0.0, 0.0, 0.0, 0.0, 0.0, 0.0, 100000000.0, 0.0, 0.0, 0.0, 0.0, 0.0, 0.0, 441000000.0, 0.0, 0.0, 0.0, 0.0, 0.0, 0.0, 1000.0, 0.0, 0.0, 0.0, 0.0, 0.0, 0.0, 1000.0, 0.0, 0.0, 0.0, 0.0, 0.0, 0.0, 1000.0)",0.013,4.4,-0.006,0.0,0.0,0.0,"(0.022090000000000002, 0.0, 0.0, 0.0, 0.0, 0.0, 0.0, 0.022090000000000002, 0.0, 0.0, 0.0, 0.0, 0.0, 0.0, 0.053110000000000004, 0.0, 0.0, 0.0, 0.0, 0.0, 0.0, 1000.0, 0.0, 0.0, 0.0, 0.0, 0.0, 0.0, 1000.0, 0.0, 0.0, 0.0, 0.0, 0.0, 0.0, 1000.0)"
2018/12/16/17:22:15.769623,10343,1545002535,769486397,gps,,4.89,18.821,1.536,0.0,0.0,0.0,0.0,"(100000000.0, 0.0, 0.0, 0.0, 0.0, 0.0, 0.0, 100000000.0, 0.0, 0.0, 0.0, 0.0, 0.0, 0.0, 441000000.0, 0.0, 0.0, 0.0, 0.0, 0.0, 0.0, 1000.0, 0.0, 0.0, 0.0, 0.0, 0.0, 0.0, 1000.0, 0.0, 0.0, 0.0, 0.0, 0.0, 0.0, 1000.0)",0.022,4.395,-0.002,0.0,0.0,0.0,"(0.022090000000000002, 0.0, 0.0, 0.0, 0.0, 0.0, 0.0, 0.022090000000000002, 0.0, 0.0, 0.0, 0.0, 0.0, 0.0, 0.053110000000000004, 0.0, 0.0, 0.0, 0.0, 0.0, 0.0, 1000.0, 0.0, 0.0, 0.0, 0.0, 0.0, 0.0, 1000.0, 0.0, 0.0, 0.0, 0.0, 0.0, 0.0, 1000.0)"
2018/12/16/17:22:15.829275,10344,1545002535,829137002,gps,,4.889,19.262,1.537,0.0,0.0,0.0,0.0,"(100000000.0, 0.0, 0.0, 0.0, 0.0, 0.0, 0.0, 100000000.0, 0.0, 0.0, 0.0, 0.0, 0.0, 0.0, 484000000.0, 0.0, 0.0, 0.0, 0.0, 0.0, 0.0, 1000.0, 0.0, 0.0, 0.0, 0.0, 0.0, 0.0, 1000.0, 0.0, 0.0, 0.0, 0.0, 0.0, 0.0, 1000.0)",-0.014,4.408,-0.005,0.0,0.0,0.0,"(0.022090000000000002, 0.0, 0.0, 0.0, 0.0, 0.0, 0.0, 0.022090000000000002, 0.0, 0.0, 0.0, 0.0, 0.0, 0.0, 0.053110000000000004, 0.0, 0.0, 0.0, 0.0, 0.0, 0.0, 1000.0, 0.0, 0.0, 0.0, 0.0, 0.0, 0.0, 1000.0, 0.0, 0.0, 0.0, 0.0, 0.0, 0.0, 1000.0)"
2018/12/16/17:22:15.972517,10345,1545002535,972388818,gps,,4.891,19.702,1.531,0.0,0.0,0.0,0.0,"(100000000.0, 0.0, 0.0, 0.0, 0.0, 0.0, 0.0, 100000000.0, 0.0, 0.0, 0.0, 0.0, 0.0, 0.0, 484000000.0, 0.0, 0.0, 0.0, 0.0, 0.0, 0.0, 1000.0, 0.0, 0.0, 0.0, 0.0, 0.0, 0.0, 1000.0, 0.0, 0.0, 0.0, 0.0, 0.0, 0.0, 1000.0)",0.021,4.412,-0.036,0.0,0.0,0.0,"(0.022090000000000002, 0.0, 0.0, 0.0, 0.0, 0.0, 0.0, 0.022090000000000002, 0.0, 0.0, 0.0, 0.0, 0.0, 0.0, 0.053110000000000004, 0.0, 0.0, 0.0, 0.0, 0.0, 0.0, 1000.0, 0.0, 0.0, 0.0, 0.0, 0.0, 0.0, 1000.0, 0.0, 0.0, 0.0, 0.0, 0.0, 0.0, 1000.0)"
2018/12/16/17:22:16.032517,10346,1545002536,32356933,gps,,4.89,20.143,1.536,0.0,0.0,0.0,0.0,"(100000000.0, 0.0, 0.0, 0.0, 0.0, 0.0, 0.0, 100000000.0, 0.0, 0.0, 0.0, 0.0, 0.0, 0.0, 484000000.0, 0.0, 0.0, 0.0, 0.0, 0.0, 0.0, 1000.0, 0.0, 0.0, 0.0, 0.0, 0.0, 0.0, 1000.0, 0.0, 0.0, 0.0, 0.0, 0.0, 0.0, 1000.0)",-0.006,4.402,0.029,0.0,0.0,0.0,"(0.022090000000000002, 0.0, 0.0, 0.0, 0.0, 0.0, 0.0, 0.022090000000000002, 0.0, 0.0, 0.0, 0.0, 0.0, 0.0, 0.053110000000000004, 0.0, 0.0, 0.0, 0.0, 0.0, 0.0, 1000.0, 0.0, 0.0, 0.0, 0.0, 0.0, 0.0, 1000.0, 0.0, 0.0, 0.0, 0.0, 0.0, 0.0, 1000.0)"
2018/12/16/17:22:16.172417,10347,1545002536,172262947,gps,,4.888,20.581,1.541,0.0,0.0,0.0,0.0,"(121000000.0, 0.0, 0.0, 0.0, 0.0, 0.0, 0.0, 121000000.0, 0.0, 0.0, 0.0, 0.0, 0.0, 0.0, 529000000.0, 0.0, 0.0, 0.0, 0.0, 0.0, 0.0, 1000.0, 0.0, 0.0, 0.0, 0.0, 0.0, 0.0, 1000.0, 0.0, 0.0, 0.0, 0.0, 0.0, 0.0, 1000.0)",-0.019,4.383,0.029,0.0,0.0,0.0,"(0.022090000000000002, 0.0, 0.0, 0.0, 0.0, 0.0, 0.0, 0.022090000000000002, 0.0, 0.0, 0.0, 0.0, 0.0, 0.0, 0.053110000000000004, 0.0, 0.0, 0.0, 0.0, 0.0, 0.0, 1000.0, 0.0, 0.0, 0.0, 0.0, 0.0, 0.0, 1000.0, 0.0, 0.0, 0.0, 0.0, 0.0, 0.0, 1000.0)"
2018/12/16/17:22:16.230355,10348,1545002536,230226647,gps,,4.887,21.024,1.534,0.0,0.0,0.0,0.0,"(121000000.0, 0.0, 0.0, 0.0, 0.0, 0.0, 0.0, 121000000.0, 0.0, 0.0, 0.0, 0.0, 0.0, 0.0, 529000000.0, 0.0, 0.0, 0.0, 0.0, 0.0, 0.0, 1000.0, 0.0, 0.0, 0.0, 0.0, 0.0, 0.0, 1000.0, 0.0, 0.0, 0.0, 0.0, 0.0, 0.0, 1000.0)",-0.017,4.432,-0.046,0.0,0.0,0.0,"(0.022090000000000002, 0.0, 0.0, 0.0, 0.0, 0.0, 0.0, 0.022090000000000002, 0.0, 0.0, 0.0, 0.0, 0.0, 0.0, 0.053110000000000004, 0.0, 0.0, 0.0, 0.0, 0.0, 0.0, 1000.0, 0.0, 0.0, 0.0, 0.0, 0.0, 0.0, 1000.0, 0.0, 0.0, 0.0, 0.0, 0.0, 0.0, 1000.0)"
2018/12/16/17:22:16.378364,10349,1545002536,378227292,gps,,4.886,21.461,1.536,0.0,0.0,0.0,0.0,"(121000000.0, 0.0, 0.0, 0.0, 0.0, 0.0, 0.0, 121000000.0, 0.0, 0.0, 0.0, 0.0, 0.0, 0.0, 529000000.0, 0.0, 0.0, 0.0, 0.0, 0.0, 0.0, 1000.0, 0.0, 0.0, 0.0, 0.0, 0.0, 0.0, 1000.0, 0.0, 0.0, 0.0, 0.0, 0.0, 0.0, 1000.0)",-0.012,4.373,0.023,0.0,0.0,0.0,"(0.022090000000000002, 0.0, 0.0, 0.0, 0.0, 0.0, 0.0, 0.022090000000000002, 0.0, 0.0, 0.0, 0.0, 0.0, 0.0, 0.053110000000000004, 0.0, 0.0, 0.0, 0.0, 0.0, 0.0, 1000.0, 0.0, 0.0, 0.0, 0.0, 0.0, 0.0, 1000.0, 0.0, 0.0, 0.0, 0.0, 0.0, 0.0, 1000.0)"
2018/12/16/17:22:16.434341,10350,1545002536,434215094,gps,,4.887,21.902,1.545,0.0,0.0,0.0,0.0,"(121000000.0, 0.0, 0.0, 0.0, 0.0, 0.0, 0.0, 121000000.0, 0.0, 0.0, 0.0, 0.0, 0.0, 0.0, 576000000.0, 0.0, 0.0, 0.0, 0.0, 0.0, 0.0, 1000.0, 0.0, 0.0, 0.0, 0.0, 0.0, 0.0, 1000.0, 0.0, 0.0, 0.0, 0.0, 0.0, 0.0, 1000.0)",0.017,4.412,0.069,0.0,0.0,0.0,"(0.022090000000000002, 0.0, 0.0, 0.0, 0.0, 0.0, 0.0, 0.022090000000000002, 0.0, 0.0, 0.0, 0.0, 0.0, 0.0, 0.053110000000000004, 0.0, 0.0, 0.0, 0.0, 0.0, 0.0, 1000.0, 0.0, 0.0, 0.0, 0.0, 0.0, 0.0, 1000.0, 0.0, 0.0, 0.0, 0.0, 0.0, 0.0, 1000.0)"
2018/12/16/17:22:16.573066,10351,1545002536,572905111,gps,,4.886,22.344,1.537,0.0,0.0,0.0,0.0,"(121000000.0, 0.0, 0.0, 0.0, 0.0, 0.0, 0.0, 121000000.0, 0.0, 0.0, 0.0, 0.0, 0.0, 0.0, 576000000.0, 0.0, 0.0, 0.0, 0.0, 0.0, 0.0, 1000.0, 0.0, 0.0, 0.0, 0.0, 0.0, 0.0, 1000.0, 0.0, 0.0, 0.0, 0.0, 0.0, 0.0, 1000.0)",0.017,4.412,0.069,0.0,0.0,0.0,"(0.022090000000000002, 0.0, 0.0, 0.0, 0.0, 0.0, 0.0, 0.022090000000000002, 0.0, 0.0, 0.0, 0.0, 0.0, 0.0, 0.053110000000000004, 0.0, 0.0, 0.0, 0.0, 0.0, 0.0, 1000.0, 0.0, 0.0, 0.0, 0.0, 0.0, 0.0, 1000.0, 0.0, 0.0, 0.0, 0.0, 0.0, 0.0, 1000.0)"
2018/12/16/17:22:16.629141,10352,1545002536,629006733,gps,,4.885,22.785,1.534,0.0,0.0,0.0,0.0,"(121000000.0, 0.0, 0.0, 0.0, 0.0, 0.0, 0.0, 121000000.0, 0.0, 0.0, 0.0, 0.0, 0.0, 0.0, 576000000.0, 0.0, 0.0, 0.0, 0.0, 0.0, 0.0, 1000.0, 0.0, 0.0, 0.0, 0.0, 0.0, 0.0, 1000.0, 0.0, 0.0, 0.0, 0.0, 0.0, 0.0, 1000.0)",-0.008,4.413,-0.036,0.0,0.0,0.0,"(0.022090000000000002, 0.0, 0.0, 0.0, 0.0, 0.0, 0.0, 0.022090000000000002, 0.0, 0.0, 0.0, 0.0, 0.0, 0.0, 0.053110000000000004, 0.0, 0.0, 0.0, 0.0, 0.0, 0.0, 1000.0, 0.0, 0.0, 0.0, 0.0, 0.0, 0.0, 1000.0, 0.0, 0.0, 0.0, 0.0, 0.0, 0.0, 1000.0)"
2018/12/16/17:22:16.771215,10353,1545002536,771027241,gps,,4.885,23.227,1.533,0.0,0.0,0.0,0.0,"(121000000.0, 0.0, 0.0, 0.0, 0.0, 0.0, 0.0, 121000000.0, 0.0, 0.0, 0.0, 0.0, 0.0, 0.0, 576000000.0, 0.0, 0.0, 0.0, 0.0, 0.0, 0.0, 1000.0, 0.0, 0.0, 0.0, 0.0, 0.0, 0.0, 1000.0, 0.0, 0.0, 0.0, 0.0, 0.0, 0.0, 1000.0)",0.001,4.419,0.001,0.0,0.0,0.0,"(0.022090000000000002, 0.0, 0.0, 0.0, 0.0, 0.0, 0.0, 0.022090000000000002, 0.0, 0.0, 0.0, 0.0, 0.0, 0.0, 0.053110000000000004, 0.0, 0.0, 0.0, 0.0, 0.0, 0.0, 1000.0, 0.0, 0.0, 0.0, 0.0, 0.0, 0.0, 1000.0, 0.0, 0.0, 0.0, 0.0, 0.0, 0.0, 1000.0)"
