time,.header.seq,.header.stamp.secs,.header.stamp.nsecs,.header.frame_id,.steering_wheel_angle,.steering_wheel_angle_cmd,.steering_wheel_torque,.speed,.enabled,.override,.timeout,.fault_wdc,.fault_bus1,.fault_bus2,.fault_calibration
2018/12/16/17:22:06.582608,51909,1545002526,582091823,,-0.122173048556,0.0,-1.0,0.772222220898,False,False,False,False,False,False,False
2018/12/16/17:22:06.604028,51910,1545002526,602112200,,-0.125663712621,0.0,-1.0625,0.78888887167,False,False,False,False,False,False,False
2018/12/16/17:22:06.622690,51911,1545002526,622406577,,-0.129154369235,0.0,-1.0625,0.811111092567,False,False,False,False,False,False,False
2018/12/16/17:22:06.642510,51912,1545002526,642181864,,-0.132645025849,0.0,-1.125,0.833333313465,False,False,False,False,False,False,False
2018/12/16/17:22:06.662545,51913,1545002526,662224688,,-0.136135682464,0.0,-1.125,0.852777779102,False,False,False,False,False,False,False
2018/12/16/17:22:06.682618,51914,1545002526,682261748,,-0.139626339078,0.0,-1.1875,0.87222224474,False,False,False,False,False,False,False
2018/12/16/17:22:06.702597,51915,1545002526,702277928,,-0.144862323999,0.0,-1.125,0.891666650772,False,False,False,False,False,False,False
2018/12/16/17:22:06.722623,51916,1545002526,722312503,,-0.148352980614,0.0,-1.1875,0.911111116409,False,False,False,False,False,False,False
2018/12/16/17:22:06.742623,51917,1545002526,742340209,,-0.151843652129,0.0,-1.1875,0.930555582047,False,False,False,False,False,False,False
2018/12/16/17:22:06.762685,51918,1545002526,762394377,,-0.155334308743,0.0,-1.125,0.949999988079,False,False,False,False,False,False,False
2018/12/16/17:22:06.782711,51919,1545002526,782428824,,-0.158824965358,0.0,-1.125,0.969444453716,False,False,False,False,False,False,False
2018/12/16/17:22:06.802917,51920,1545002526,802442335,,-0.162315621972,0.0,-1.125,0.991666674614,False,False,False,False,False,False,False
2018/12/16/17:22:06.822942,51921,1545002526,822483871,,-0.164060950279,0.0,-1.0625,1.01666665077,False,False,False,False,False,False,False
2018/12/16/17:22:06.843018,51922,1545002526,842508790,,-0.164060950279,0.0,-1.125,1.03888893127,False,False,False,False,False,False,False
2018/12/16/17:22:06.863335,51923,1545002526,862561684,,-0.164060950279,0.0,-1.0625,1.06111109257,False,False,False,False,False,False,False
2018/12/16/17:22:06.883132,51924,1545002526,882591671,,-0.165806278586,0.0,-1.0625,1.08333337307,False,False,False,False,False,False,False
2018/12/16/17:22:06.902980,51925,1545002526,902624177,,-0.165806278586,0.0,-0.9375,1.1027777195,False,False,False,False,False,False,False
2018/12/16/17:22:06.923647,51926,1545002526,922640674,,-0.164060950279,0.0,-0.75,1.125,False,False,False,False,False,False,False
2018/12/16/17:22:06.943400,51927,1545002526,942700424,,-0.164060950279,0.0,-0.8125,1.1472222805,False,False,False,False,False,False,False
2018/12/16/17:22:06.963419,51928,1545002526,962699814,,-0.164060950279,0.0,-0.8125,1.1694444418,False,False,False,False,False,False,False
2018/12/16/17:22:06.983306,51929,1545002526,982753419,,-0.164060950279,0.0,-0.9375,1.1916667223,False,False,False,False,False,False,False
2018/12/16/17:22:07.003369,51930,1545002527,2786105,,-0.165806278586,0.0,-1.0,1.21388888359,False,False,False,False,False,False,False
2018/12/16/17:22:07.023111,51931,1545002527,22819321,,-0.167551606894,0.0,-1.0625,1.23611116409,False,False,False,False,False,False,False
2018/12/16/17:22:07.043373,51932,1545002527,42858244,,-0.171042263508,0.0,-1.125,1.25833332539,False,False,False,False,False,False,False
2018/12/16/17:22:07.063707,51933,1545002527,62938183,,-0.172787591815,0.0,-1.125,1.27777779102,False,False,False,False,False,False,False
2018/12/16/17:22:07.083666,51934,1545002527,82927262,,-0.179768919945,0.0,-1.1875,1.29999995232,False,False,False,False,False,False,False
2018/12/16/17:22:07.103400,51935,1545002527,102972728,,-0.185004904866,0.0,-1.1875,1.32222223282,False,False,False,False,False,False,False
2018/12/16/17:22:07.123529,51936,1545002527,122975133,,-0.191986218095,0.0,-1.1875,1.34444439411,False,False,False,False,False,False,False
2018/12/16/17:22:07.143535,51937,1545002527,143020329,,-0.198967531323,0.0,-1.25,1.36666667461,False,False,False,False,False,False,False
2018/12/16/17:22:07.163512,51938,1545002527,163069992,,-0.205948844552,0.0,-1.3125,1.39166665077,False,False,False,False,False,False,False
2018/12/16/17:22:07.183574,51939,1545002527,183089596,,-0.214675500989,0.0,-1.375,1.41111111641,False,False,False,False,False,False,False
2018/12/16/17:22:07.203575,51940,1545002527,203115090,,-0.225147470832,0.0,-1.4375,1.4333332777,False,False,False,False,False,False,False
2018/12/16/17:22:07.223618,51941,1545002527,223137860,,-0.237364783883,0.0,-1.4375,1.45277774334,False,False,False,False,False,False,False
2018/12/16/17:22:07.243612,51942,1545002527,243190199,,-0.249582082033,0.0,-1.375,1.4777777195,False,False,False,False,False,False,False
2018/12/16/17:22:07.263658,51943,1545002527,263212082,,-0.25830873847,0.0,-1.375,1.5,False,False,False,False,False,False,False
2018/12/16/17:22:07.283812,51944,1545002527,283246800,,-0.265290051699,0.0,-1.375,1.52499997616,False,False,False,False,False,False,False
2018/12/16/17:22:07.303853,51945,1545002527,303418600,,-0.272271364927,0.0,-1.3125,1.54722225666,False,False,False,False,False,False,False
2018/12/16/17:22:07.323796,51946,1545002527,323436994,,-0.275762021542,0.0,-1.3125,1.56944441795,False,False,False,False,False,False,False
2018/12/16/17:22:07.343736,51947,1545002527,343452641,,-0.279252678156,0.0,-1.3125,1.59166669846,False,False,False,False,False,False,False
2018/12/16/17:22:07.363823,51948,1545002527,363466197,,-0.28274333477,0.0,-1.3125,1.61388885975,False,False,False,False,False,False,False
2018/12/16/17:22:07.383738,51949,1545002527,383430672,,-0.286233991385,0.0,-1.25,1.63611114025,False,False,False,False,False,False,False
2018/12/16/17:22:07.403759,51950,1545002527,403512746,,-0.287979334593,0.0,-1.25,1.65833330154,False,False,False,False,False,False,False
2018/12/16/17:22:07.423916,51951,1545002527,423495763,,-0.289724647999,0.0,-1.1875,1.67777776718,False,False,False,False,False,False,False
2018/12/16/17:22:07.444069,51952,1545002527,443672200,,-0.289724647999,0.0,-1.1875,1.70000004768,False,False,False,False,False,False,False
2018/12/16/17:22:07.463993,51953,1545002527,463675036,,-0.289724647999,0.0,-1.1875,1.72222220898,False,False,False,False,False,False,False
2018/12/16/17:22:07.484006,51954,1545002527,483751517,,-0.289724647999,0.0,-1.0625,1.74444448948,False,False,False,False,False,False,False
2018/12/16/17:22:07.503965,51955,1545002527,503691198,,-0.289724647999,0.0,-1.0625,1.76666665077,False,False,False,False,False,False,False
2018/12/16/17:22:07.524047,51956,1545002527,523680526,,-0.289724647999,0.0,-1.125,1.78611111641,False,False,False,False,False,False,False
2018/12/16/17:22:07.544177,51957,1545002527,543749006,,-0.289724647999,0.0,-1.125,1.8083332777,False,False,False,False,False,False,False
2018/12/16/17:22:07.564323,51958,1545002527,563869266,,-0.289724647999,0.0,-1.1875,1.8305555582,False,False,False,False,False,False,False
2018/12/16/17:22:07.584169,51959,1545002527,583745456,,-0.291469991207,0.0,-1.1875,1.8527777195,False,False,False,False,False,False,False
2018/12/16/17:22:07.604161,51960,1545002527,603919859,,-0.293215304613,0.0,-1.1875,1.875,False,False,False,False,False,False,False
2018/12/16/17:22:07.624422,51961,1545002527,623810705,,-0.294960647821,0.0,-1.1875,1.8972222805,False,False,False,False,False,False,False
2018/12/16/17:22:07.644101,51962,1545002527,643836411,,-0.298451304436,0.0,-1.25,1.9194444418,False,False,False,False,False,False,False
2018/12/16/17:22:07.664284,51963,1545002527,663921159,,-0.30194196105,0.0,-1.1875,1.93888890743,False,False,False,False,False,False,False
2018/12/16/17:22:07.684225,51964,1545002527,683923532,,-0.305432617664,0.0,-1.25,1.9555555582,False,False,False,False,False,False,False
2018/12/16/17:22:07.704176,51965,1545002527,703947044,,-0.310668617487,0.0,-1.1875,1.97500002384,False,False,False,False,False,False,False
2018/12/16/17:22:07.724398,51966,1545002527,723976044,,-0.312413930893,0.0,-1.25,1.98888885975,False,False,False,False,False,False,False
2018/12/16/17:22:07.744354,51967,1545002527,744006210,,-0.315904587507,0.0,-1.25,2.00555562973,False,False,False,False,False,False,False
2018/12/16/17:22:07.764311,51968,1545002527,764028762,,-0.319395244122,0.0,-1.3125,2.01944446564,False,False,False,False,False,False,False
2018/12/16/17:22:07.784388,51969,1545002527,784080072,,-0.32637655735,0.0,-1.25,2.03611111641,False,False,False,False,False,False,False
2018/12/16/17:22:07.804487,51970,1545002527,804103585,,-0.333357900381,0.0,-1.25,2.05277776718,False,False,False,False,False,False,False
2018/12/16/17:22:07.824422,51971,1545002527,824139443,,-0.336848556995,0.0,-1.25,2.06666660309,False,False,False,False,False,False,False
2018/12/16/17:22:07.844471,51972,1545002527,844181801,,-0.342084527016,0.0,-1.3125,2.080555439,False,False,False,False,False,False,False
2018/12/16/17:22:07.864508,51973,1545002527,864216433,,-0.347320526838,0.0,-1.3125,2.09444451332,False,False,False,False,False,False,False
2018/12/16/17:22:07.884545,51974,1545002527,884242428,,-0.352556496859,0.0,-1.25,2.1027777195,False,False,False,False,False,False,False
2018/12/16/17:22:07.904608,51975,1545002527,904303840,,-0.354301840067,0.0,-1.25,2.11388897896,False,False,False,False,False,False,False
2018/12/16/17:22:07.924717,51976,1545002527,924311532,,-0.356047153473,0.0,-1.1875,2.125,False,False,False,False,False,False,False
2018/12/16/17:22:07.944666,51977,1545002527,944375748,,-0.356047153473,0.0,-1.25,2.1333334446,False,False,False,False,False,False,False
2018/12/16/17:22:07.964842,51978,1545002527,964415472,,-0.356047153473,0.0,-1.25,2.14444446564,False,False,False,False,False,False,False
2018/12/16/17:22:07.984701,51979,1545002527,984414128,,-0.356047153473,0.0,-1.1875,2.15555548668,False,False,False,False,False,False,False
2018/12/16/17:22:08.004806,51980,1545002528,4442193,,-0.356047153473,0.0,-1.1875,2.16388893127,False,False,False,False,False,False,False
2018/12/16/17:22:08.024755,51981,1545002528,24497729,,-0.356047153473,0.0,-1.1875,2.17222213745,False,False,False,False,False,False,False
2018/12/16/17:22:08.044810,51982,1545002528,44502883,,-0.356047153473,0.0,-1.125,2.18055558205,False,False,False,False,False,False,False
2018/12/16/17:22:08.064986,51983,1545002528,64554778,,-0.356047153473,0.0,-1.125,2.19166660309,False,False,False,False,False,False,False
2018/12/16/17:22:08.084967,51984,1545002528,84580669,,-0.356047153473,0.0,-1.0,2.19722223282,False,False,False,False,False,False,False
2018/12/16/17:22:08.105103,51985,1545002528,104609960,,-0.356047153473,0.0,-1.0,2.205555439,False,False,False,False,False,False,False
2018/12/16/17:22:08.125227,51986,1545002528,124642219,,-0.356047153473,0.0,-1.0,2.21666669846,False,False,False,False,False,False,False
2018/12/16/17:22:08.145186,51987,1545002528,144673723,,-0.356047153473,0.0,-0.9375,2.22222232819,False,False,False,False,False,False,False
2018/12/16/17:22:08.165251,51988,1545002528,164700504,,-0.356047153473,0.0,-0.9375,2.22499990463,False,False,False,False,False,False,False
2018/12/16/17:22:08.185149,51989,1545002528,184758362,,-0.356047153473,0.0,-0.875,2.23055553436,False,False,False,False,False,False,False
2018/12/16/17:22:08.205156,51990,1545002528,204769711,,-0.354301840067,0.0,-0.875,2.23888897896,False,False,False,False,False,False,False
2018/12/16/17:22:08.225073,51991,1545002528,224808303,,-0.354301840067,0.0,-0.8125,2.2416665554,False,False,False,False,False,False,False
2018/12/16/17:22:08.245373,51992,1545002528,244841827,,-0.354301840067,0.0,-0.75,2.24722218513,False,False,False,False,False,False,False
2018/12/16/17:22:08.265564,51993,1545002528,264932307,,-0.352556496859,0.0,-0.75,2.25277781487,False,False,False,False,False,False,False
2018/12/16/17:22:08.285367,51994,1545002528,284922604,,-0.350811183453,0.0,-0.6875,2.2583334446,False,False,False,False,False,False,False
2018/12/16/17:22:08.305268,51995,1545002528,304948838,,-0.349065840244,0.0,-0.6875,2.26666665077,False,False,False,False,False,False,False
2018/12/16/17:22:08.325291,51996,1545002528,324973389,,-0.347320526838,0.0,-0.625,2.26944446564,False,False,False,False,False,False,False
2018/12/16/17:22:08.345446,51997,1545002528,345025735,,-0.347320526838,0.0,-0.625,2.27500009537,False,False,False,False,False,False,False
2018/12/16/17:22:08.365330,51998,1545002528,365065084,,-0.343829870224,0.0,-0.625,2.27777767181,False,False,False,False,False,False,False
2018/12/16/17:22:08.385605,51999,1545002528,385087443,,-0.342084527016,0.0,-0.5625,2.28055548668,False,False,False,False,False,False,False
2018/12/16/17:22:08.405375,52000,1545002528,405111199,,-0.34033921361,0.0,-0.5625,2.28611111641,False,False,False,False,False,False,False
2018/12/16/17:22:08.425460,52001,1545002528,425166307,,-0.336848556995,0.0,-0.5625,2.294444561,False,False,False,False,False,False,False
2018/12/16/17:22:08.445787,52002,1545002528,445229164,,-0.333357900381,0.0,-0.5625,2.29722213745,False,False,False,False,False,False,False
2018/12/16/17:22:08.465715,52003,1545002528,465228778,,-0.329867213964,0.0,-0.5,2.30277776718,False,False,False,False,False,False,False
2018/12/16/17:22:08.485604,52004,1545002528,485269115,,-0.32637655735,0.0,-0.5,2.30833339691,False,False,False,False,False,False,False
2018/12/16/17:22:08.505684,52005,1545002528,505295002,,-0.322885900736,0.0,-0.5,2.31388878822,False,False,False,False,False,False,False
2018/12/16/17:22:08.525742,52006,1545002528,525311678,,-0.317649930716,0.0,-0.4375,2.31944441795,False,False,False,False,False,False,False
2018/12/16/17:22:08.545681,52007,1545002528,545348674,,-0.312413930893,0.0,-0.4375,2.32500004768,False,False,False,False,False,False,False
2018/12/16/17:22:08.566572,52008,1545002528,565369080,,-0.307177960873,0.0,-0.375,2.33333325386,False,False,False,False,False,False,False
2018/12/16/17:22:08.585902,52009,1545002528,585401167,,-0.30194196105,0.0,-0.5,2.33888888359,False,False,False,False,False,False,False
2018/12/16/17:22:08.605793,52010,1545002528,605470808,,-0.296705961227,0.0,-0.375,2.34444451332,False,False,False,False,False,False,False
2018/12/16/17:22:08.625772,52011,1545002528,625471266,,-0.293215304613,0.0,-0.4375,2.34999990463,False,False,False,False,False,False,False
2018/12/16/17:22:08.645827,52012,1545002528,645520077,,-0.289724647999,0.0,-0.375,2.35833334923,False,False,False,False,False,False,False
2018/12/16/17:22:08.665860,52013,1545002528,665555909,,-0.286233991385,0.0,-0.375,2.36388897896,False,False,False,False,False,False,False
2018/12/16/17:22:08.685989,52014,1545002528,685585348,,-0.280998021364,0.0,-0.375,2.3666665554,False,False,False,False,False,False,False
2018/12/16/17:22:08.706023,52015,1545002528,705627026,,-0.27750736475,0.0,-0.375,2.37222218513,False,False,False,False,False,False,False
2018/12/16/17:22:08.725965,52016,1545002528,725666932,,-0.274016678333,0.0,-0.375,2.38055562973,False,False,False,False,False,False,False
2018/12/16/17:22:08.745950,52017,1545002528,745686136,,-0.270526021719,0.0,-0.375,2.38888883591,False,False,False,False,False,False,False
2018/12/16/17:22:08.766102,52018,1545002528,765714029,,-0.267035365105,0.0,-0.375,2.39166665077,False,False,False,False,False,False,False
2018/12/16/17:22:08.786036,52019,1545002528,785736485,,-0.261799395084,0.0,-0.375,2.39444446564,False,False,False,False,False,False,False
2018/12/16/17:22:08.806217,52020,1545002528,805891330,,-0.256563395262,0.0,-0.3125,2.40277767181,False,False,False,False,False,False,False
2018/12/16/17:22:08.826159,52021,1545002528,825795560,,-0.249582082033,0.0,-0.3125,2.41111111641,False,False,False,False,False,False,False
2018/12/16/17:22:08.846153,52022,1545002528,845841500,,-0.240855440497,0.0,-0.3125,2.419444561,False,False,False,False,False,False,False
2018/12/16/17:22:08.866410,52023,1545002528,865928487,,-0.233874112368,0.0,-0.3125,2.42777776718,False,False,False,False,False,False,False
2018/12/16/17:22:08.886259,52024,1545002528,885925221,,-0.225147470832,0.0,-0.25,2.43333339691,False,False,False,False,False,False,False
2018/12/16/17:22:08.906300,52025,1545002528,905980386,,-0.216420829296,0.0,-0.25,2.44166660309,False,False,False,False,False,False,False
2018/12/16/17:22:08.926378,52026,1545002528,925990500,,-0.20769418776,0.0,-0.25,2.44722223282,False,False,False,False,False,False,False
2018/12/16/17:22:08.946220,52027,1545002528,945991289,,-0.198967531323,0.0,-0.1875,2.45277786255,False,False,False,False,False,False,False
2018/12/16/17:22:08.966334,52028,1545002528,966046883,,-0.188495561481,0.0,-0.1875,2.46388888359,False,False,False,False,False,False,False
2018/12/16/17:22:08.986383,52029,1545002528,986071442,,-0.181514248252,0.0,-0.3125,2.47222232819,False,False,False,False,False,False,False
2018/12/16/17:22:09.006351,52030,1545002529,6115611,,-0.176278248429,0.0,-0.375,2.48333334923,False,False,False,False,False,False,False
2018/12/16/17:22:09.026387,52031,1545002529,26124043,,-0.171042263508,0.0,-0.4375,2.48888897896,False,False,False,False,False,False,False
2018/12/16/17:22:09.046461,52032,1545002529,46175487,,-0.171042263508,0.0,-0.5,2.49722218513,False,False,False,False,False,False,False
2018/12/16/17:22:09.066786,52033,1545002529,66225430,,-0.171042263508,0.0,-0.5,2.50555562973,False,False,False,False,False,False,False
2018/12/16/17:22:09.086514,52034,1545002529,86244932,,-0.171042263508,0.0,-0.625,2.51388883591,False,False,False,False,False,False,False
2018/12/16/17:22:09.106577,52035,1545002529,106277313,,-0.171042263508,0.0,-0.6875,2.5222222805,False,False,False,False,False,False,False
2018/12/16/17:22:09.126597,52036,1545002529,126305806,,-0.171042263508,0.0,-0.75,2.53055548668,False,False,False,False,False,False,False
2018/12/16/17:22:09.146567,52037,1545002529,146339717,,-0.171042263508,0.0,-0.75,2.53888893127,False,False,False,False,False,False,False
2018/12/16/17:22:09.166665,52038,1545002529,166368874,,-0.171042263508,0.0,-0.6875,2.54999995232,False,False,False,False,False,False,False
2018/12/16/17:22:09.186718,52039,1545002529,186392941,,-0.169296935201,0.0,-0.6875,2.55555558205,False,False,False,False,False,False,False
2018/12/16/17:22:09.206728,52040,1545002529,206451835,,-0.169296935201,0.0,-0.8125,2.55833339691,False,False,False,False,False,False,False
2018/12/16/17:22:09.226784,52041,1545002529,226473221,,-0.169296935201,0.0,-0.625,2.56388878822,False,False,False,False,False,False,False
2018/12/16/17:22:09.246952,52042,1545002529,246500371,,-0.169296935201,0.0,-0.5625,2.57500004768,False,False,False,False,False,False,False
2018/12/16/17:22:09.266872,52043,1545002529,266555774,,-0.167551606894,0.0,-0.5,2.58611106873,False,False,False,False,False,False,False
2018/12/16/17:22:09.286855,52044,1545002529,286577693,,-0.165806278586,0.0,-0.375,2.59166669846,False,False,False,False,False,False,False
2018/12/16/17:22:09.306992,52045,1545002529,306603159,,-0.162315621972,0.0,-0.3125,2.59722232819,False,False,False,False,False,False,False
2018/12/16/17:22:09.327051,52046,1545002529,326629493,,-0.158824965358,0.0,-0.3125,2.60555553436,False,False,False,False,False,False,False
2018/12/16/17:22:09.346978,52047,1545002529,346692235,,-0.153588980436,0.0,-0.3125,2.61388897896,False,False,False,False,False,False,False
2018/12/16/17:22:09.367002,52048,1545002529,366724176,,-0.146607652307,0.0,-0.3125,2.61944437027,False,False,False,False,False,False,False
2018/12/16/17:22:09.387004,52049,1545002529,386783216,,-0.141371667385,0.0,-0.25,2.62222218513,False,False,False,False,False,False,False
2018/12/16/17:22:09.407325,52050,1545002529,406794133,,-0.136135682464,0.0,-0.125,2.62777781487,False,False,False,False,False,False,False
2018/12/16/17:22:09.427084,52051,1545002529,426801415,,-0.130899697542,0.0,-0.125,2.63611102104,False,False,False,False,False,False,False
2018/12/16/17:22:09.447304,52052,1545002529,446926096,,-0.123918376863,0.0,-0.0625,2.64444446564,False,False,False,False,False,False,False
2018/12/16/17:22:09.467415,52053,1545002529,466923245,,-0.120427720249,0.0,0.0,2.6472222805,False,False,False,False,False,False,False
2018/12/16/17:22:09.487164,52054,1545002529,486922962,,-0.115191727877,0.0,0.0625,2.65277767181,False,False,False,False,False,False,False
2018/12/16/17:22:09.507224,52055,1545002529,506947864,,-0.111701071262,0.0,0.0,2.65833330154,False,False,False,False,False,False,False
2018/12/16/17:22:09.527228,52056,1545002529,526983915,,-0.108210414648,0.0,0.0,2.66111111641,False,False,False,False,False,False,False
2018/12/16/17:22:09.547282,52057,1545002529,547000614,,-0.102974422276,0.0,-0.0625,2.66666674614,False,False,False,False,False,False,False
2018/12/16/17:22:09.567312,52058,1545002529,567029416,,-0.101229093969,0.0,-0.125,2.669444561,False,False,False,False,False,False,False
2018/12/16/17:22:09.587416,52059,1545002529,587091369,,-0.0994837656617,0.0,-0.1875,2.67499995232,False,False,False,False,False,False,False
2018/12/16/17:22:09.607497,52060,1545002529,607117525,,-0.0994837656617,0.0,-0.25,2.67777776718,False,False,False,False,False,False,False
2018/12/16/17:22:09.627390,52061,1545002529,627133054,,-0.0977384373546,0.0,-0.3125,2.68333339691,False,False,False,False,False,False,False
2018/12/16/17:22:09.647499,52062,1545002529,647195715,,-0.0977384373546,0.0,-0.3125,2.68888878822,False,False,False,False,False,False,False
2018/12/16/17:22:09.667884,52063,1545002529,667213574,,-0.0977384373546,0.0,-0.3125,2.69444441795,False,False,False,False,False,False,False
2018/12/16/17:22:09.687524,52064,1545002529,687244526,,-0.0977384373546,0.0,-0.5,2.70000004768,False,False,False,False,False,False,False
2018/12/16/17:22:09.707654,52065,1545002529,707285357,,-0.0977384373546,0.0,-0.5,2.705555439,False,False,False,False,False,False,False
2018/12/16/17:22:09.727596,52066,1545002529,727312937,,-0.0942477807403,0.0,-0.4375,2.71111106873,False,False,False,False,False,False,False
2018/12/16/17:22:09.747606,52067,1545002529,747348712,,-0.0942477807403,0.0,-0.4375,2.71666669846,False,False,False,False,False,False,False
2018/12/16/17:22:09.767909,52068,1545002529,767379230,,-0.0925024524331,0.0,-0.375,2.72222232819,False,False,False,False,False,False,False
2018/12/16/17:22:09.787724,52069,1545002529,787430124,,-0.090757124126,0.0,-0.375,2.7277777195,False,False,False,False,False,False,False
2018/12/16/17:22:09.807827,52070,1545002529,807457210,,-0.0872664600611,0.0,-0.375,2.73611116409,False,False,False,False,False,False,False
2018/12/16/17:22:09.827748,52071,1545002529,827472870,,-0.0855211317539,0.0,-0.3125,2.7416665554,False,False,False,False,False,False,False
2018/12/16/17:22:09.847800,52072,1545002529,847498954,,-0.0837758034468,0.0,-0.3125,2.74722218513,False,False,False,False,False,False,False
2018/12/16/17:22:09.868028,52073,1545002529,867565759,,-0.0820304751396,0.0,-0.3125,2.75555562973,False,False,False,False,False,False,False
2018/12/16/17:22:09.887807,52074,1545002529,887570440,,-0.0785398185253,0.0,-0.3125,2.76388883591,False,False,False,False,False,False,False
2018/12/16/17:22:09.907892,52075,1545002529,907609275,,-0.0767944902182,0.0,-0.375,2.76666665077,False,False,False,False,False,False,False
2018/12/16/17:22:09.928028,52076,1545002529,927648957,,-0.0733038261533,0.0,-0.375,2.7722222805,False,False,False,False,False,False,False
2018/12/16/17:22:09.947982,52077,1545002529,947679967,,-0.0715584978461,0.0,-0.375,2.77777767181,False,False,False,False,False,False,False
2018/12/16/17:22:09.968018,52078,1545002529,967704241,,-0.0715584978461,0.0,-0.3125,2.78611111641,False,False,False,False,False,False,False
2018/12/16/17:22:09.988117,52079,1545002529,987760261,,-0.069813169539,0.0,-0.3125,2.79166674614,False,False,False,False,False,False,False
2018/12/16/17:22:10.008037,52080,1545002530,7764984,,-0.0663225129247,0.0,-0.3125,2.79722213745,False,False,False,False,False,False,False
2018/12/16/17:22:10.028048,52081,1545002530,27801080,,-0.0663225129247,0.0,-0.3125,2.80277776718,False,False,False,False,False,False,False
2018/12/16/17:22:10.048126,52082,1545002530,47833305,,-0.0663225129247,0.0,-0.3125,2.80833339691,False,False,False,False,False,False,False
2018/12/16/17:22:10.068301,52083,1545002530,67936721,,-0.0645771846175,0.0,-0.375,2.81666660309,False,False,False,False,False,False,False
2018/12/16/17:22:10.088300,52084,1545002530,87925918,,-0.0645771846175,0.0,-0.375,2.82222223282,False,False,False,False,False,False,False
2018/12/16/17:22:10.108277,52085,1545002530,107968970,,-0.0628318563104,0.0,-0.375,2.82777786255,False,False,False,False,False,False,False
2018/12/16/17:22:10.128212,52086,1545002530,127979088,,-0.0610865242779,0.0,-0.375,2.83611106873,False,False,False,False,False,False,False
2018/12/16/17:22:10.148333,52087,1545002530,148021874,,-0.0610865242779,0.0,-0.3125,2.84444451332,False,False,False,False,False,False,False
2018/12/16/17:22:10.168365,52088,1545002530,168070446,,-0.0610865242779,0.0,-0.3125,2.8527777195,False,False,False,False,False,False,False
2018/12/16/17:22:10.188387,52089,1545002530,188078697,,-0.0610865242779,0.0,-0.3125,2.86388897896,False,False,False,False,False,False,False
2018/12/16/17:22:10.208368,52090,1545002530,208109477,,-0.0610865242779,0.0,-0.3125,2.87222218513,False,False,False,False,False,False,False
2018/12/16/17:22:10.228581,52091,1545002530,228130965,,-0.0610865242779,0.0,-0.3125,2.87777781487,False,False,False,False,False,False,False
2018/12/16/17:22:10.248628,52092,1545002530,248194505,,-0.0610865242779,0.0,-0.25,2.88611102104,False,False,False,False,False,False,False
2018/12/16/17:22:10.268471,52093,1545002530,268218651,,-0.0610865242779,0.0,-0.25,2.89444446564,False,False,False,False,False,False,False
2018/12/16/17:22:10.288895,52094,1545002530,288259213,,-0.0610865242779,0.0,-0.1875,2.90277767181,False,False,False,False,False,False,False
2018/12/16/17:22:10.308547,52095,1545002530,308275046,,-0.0593411959708,0.0,-0.125,2.90555548668,False,False,False,False,False,False,False
2018/12/16/17:22:10.328745,52096,1545002530,328309621,,-0.0593411959708,0.0,-0.1875,2.91111111641,False,False,False,False,False,False,False
2018/12/16/17:22:10.348650,52097,1545002530,348341587,,-0.0558505356312,0.0,-0.1875,2.91666674614,False,False,False,False,False,False,False
2018/12/16/17:22:10.368659,52098,1545002530,368394373,,-0.054105207324,0.0,-0.25,2.92222213745,False,False,False,False,False,False,False
2018/12/16/17:22:10.388742,52099,1545002530,388416693,,-0.0506145469844,0.0,-0.25,2.93055558205,False,False,False,False,False,False,False
2018/12/16/17:22:10.408690,52100,1545002530,408441487,,-0.0488692186773,0.0,-0.25,2.93888878822,False,False,False,False,False,False,False
2018/12/16/17:22:10.428792,52101,1545002530,428470456,,-0.0436332300305,0.0,-0.25,2.94444441795,False,False,False,False,False,False,False
2018/12/16/17:22:10.448990,52102,1545002530,448752882,,-0.0401425734162,0.0,-0.25,2.95277786255,False,False,False,False,False,False,False
2018/12/16/17:22:10.469038,52103,1545002530,468784634,,-0.0366519130766,0.0,-0.125,2.95833325386,False,False,False,False,False,False,False
2018/12/16/17:22:10.489116,52104,1545002530,488807304,,-0.0331612564623,0.0,-0.125,2.96388888359,False,False,False,False,False,False,False
2018/12/16/17:22:10.509093,52105,1545002530,508852848,,-0.0296705979854,0.0,-0.375,2.98055553436,False,False,False,False,False,False,False
2018/12/16/17:22:10.529203,52106,1545002530,528922538,,-0.0279252678156,0.0,-0.4375,2.98888897896,False,False,False,False,False,False,False
2018/12/16/17:22:10.549216,52107,1545002530,548922642,,-0.0261799395084,0.0,-0.625,2.9916665554,False,False,False,False,False,False,False
2018/12/16/17:22:10.569213,52108,1545002530,568922479,,-0.0279252678156,0.0,-0.75,3.00277781487,False,False,False,False,False,False,False
2018/12/16/17:22:10.589205,52109,1545002530,588973464,,-0.0296705979854,0.0,-0.875,3.01111102104,False,False,False,False,False,False,False
2018/12/16/17:22:10.609218,52110,1545002530,609004757,,-0.0349065847695,0.0,-0.9375,3.01944446564,False,False,False,False,False,False,False
2018/12/16/17:22:10.629385,52111,1545002530,629053198,,-0.0401425734162,0.0,-1.0,3.02777767181,False,False,False,False,False,False,False
2018/12/16/17:22:10.649661,52112,1545002530,649312324,,-0.0471238903701,0.0,-0.9375,3.03333330154,False,False,False,False,False,False,False
2018/12/16/17:22:10.669405,52113,1545002530,669102900,,-0.0506145469844,0.0,-0.9375,3.04166674614,False,False,False,False,False,False,False
2018/12/16/17:22:10.689455,52114,1545002530,689131369,,-0.0558505356312,0.0,-0.875,3.04999995232,False,False,False,False,False,False,False
2018/12/16/17:22:10.709528,52115,1545002530,709153407,,-0.0593411959708,0.0,-0.8125,3.05555558205,False,False,False,False,False,False,False
2018/12/16/17:22:10.729463,52116,1545002530,729195102,,-0.0593411959708,0.0,-0.75,3.06111121178,False,False,False,False,False,False,False
2018/12/16/17:22:10.749477,52117,1545002530,749218775,,-0.0593411959708,0.0,-0.6875,3.07500004768,False,False,False,False,False,False,False
2018/12/16/17:22:10.769456,52118,1545002530,769234723,,-0.0593411959708,0.0,-0.625,3.08333325386,False,False,False,False,False,False,False
2018/12/16/17:22:10.789564,52119,1545002530,789278789,,-0.0575958639383,0.0,-0.625,3.08888888359,False,False,False,False,False,False,False
2018/12/16/17:22:10.809612,52120,1545002530,809304271,,-0.0575958639383,0.0,-0.625,3.09444451332,False,False,False,False,False,False,False
2018/12/16/17:22:10.829619,52121,1545002530,829358679,,-0.0575958639383,0.0,-0.625,3.10555553436,False,False,False,False,False,False,False
2018/12/16/17:22:10.849761,52122,1545002530,849396973,,-0.0575958639383,0.0,-0.75,3.11388897896,False,False,False,False,False,False,False
2018/12/16/17:22:10.869708,52123,1545002530,869415538,,-0.0593411959708,0.0,-0.875,3.12222218513,False,False,False,False,False,False,False
2018/12/16/17:22:10.889723,52124,1545002530,889447082,,-0.0645771846175,0.0,-1.0625,3.1333334446,False,False,False,False,False,False,False
2018/12/16/17:22:10.909695,52125,1545002530,909476746,,-0.069813169539,0.0,-1.125,3.14166665077,False,False,False,False,False,False,False
2018/12/16/17:22:10.929735,52126,1545002530,929522035,,-0.0785398185253,0.0,-1.1875,3.1472222805,False,False,False,False,False,False,False
2018/12/16/17:22:10.949762,52127,1545002530,949545953,,-0.0890117883682,0.0,-1.25,3.15555548668,False,False,False,False,False,False,False
2018/12/16/17:22:10.969886,52128,1545002530,969581285,,-0.102974422276,0.0,-1.375,3.16388893127,False,False,False,False,False,False,False
2018/12/16/17:22:10.989870,52129,1545002530,989601923,,-0.118682391942,0.0,-1.375,3.17222213745,False,False,False,False,False,False,False
2018/12/16/17:22:11.009882,52130,1545002531,9636773,,-0.134390354156,0.0,-1.375,3.17777776718,False,False,False,False,False,False,False
2018/12/16/17:22:11.029975,52131,1545002531,29677867,,-0.150098308921,0.0,-1.4375,3.18888878822,False,False,False,False,False,False,False
2018/12/16/17:22:11.049958,52132,1545002531,49706078,,-0.165806278586,0.0,-1.4375,3.19722223282,False,False,False,False,False,False,False
2018/12/16/17:22:11.070011,52133,1545002531,69761882,,-0.179768919945,0.0,-1.5,3.20277786255,False,False,False,False,False,False,False
2018/12/16/17:22:11.090034,52134,1545002531,89760514,,-0.191986218095,0.0,-1.4375,3.21388888359,False,False,False,False,False,False,False
2018/12/16/17:22:11.110026,52135,1545002531,109797265,,-0.200712859631,0.0,-1.375,3.22222232819,False,False,False,False,False,False,False
2018/12/16/17:22:11.130284,52136,1545002531,129979605,,-0.209439516068,0.0,-1.3125,3.23055553436,False,False,False,False,False,False,False
2018/12/16/17:22:11.150218,52137,1545002531,149977244,,-0.216420829296,0.0,-1.3125,3.2416665554,False,False,False,False,False,False,False
2018/12/16/17:22:11.170214,52138,1545002531,169932509,,-0.221656814218,0.0,-1.1875,3.25,False,False,False,False,False,False,False
2018/12/16/17:22:11.190221,52139,1545002531,189924825,,-0.225147470832,0.0,-1.125,3.2583334446,False,False,False,False,False,False,False
2018/12/16/17:22:11.210258,52140,1545002531,209992944,,-0.225147470832,0.0,-0.75,3.26388883591,False,False,False,False,False,False,False
2018/12/16/17:22:11.230241,52141,1545002531,229995288,,-0.221656814218,0.0,-0.5625,3.27500009537,False,False,False,False,False,False,False
2018/12/16/17:22:11.250674,52142,1545002531,250028054,,-0.211184844375,0.0,-0.3125,3.28888893127,False,False,False,False,False,False,False
2018/12/16/17:22:11.270484,52143,1545002531,270071493,,-0.195476874709,0.0,0.0625,3.28333330154,False,False,False,False,False,False,False
2018/12/16/17:22:11.290485,52144,1545002531,290092866,,-0.176278248429,0.0,-0.5,3.28611111641,False,False,False,False,False,False,False
2018/12/16/17:22:11.310457,52145,1545002531,310142935,,-0.164060950279,0.0,-0.0625,3.30833339691,False,False,False,False,False,False,False
2018/12/16/17:22:11.330398,52146,1545002531,330135121,,-0.150098308921,0.0,0.0,3.31944441795,False,False,False,False,False,False,False
2018/12/16/17:22:11.350441,52147,1545002531,350200773,,-0.137881010771,0.0,-0.3125,3.32222223282,False,False,False,False,False,False,False
2018/12/16/17:22:11.370470,52148,1545002531,370216634,,-0.129154369235,0.0,-0.1875,3.330555439,False,False,False,False,False,False,False
2018/12/16/17:22:11.390749,52149,1545002531,390494502,,-0.123918376863,0.0,-0.125,3.33888888359,False,False,False,False,False,False,False
2018/12/16/17:22:11.410805,52150,1545002531,410550399,,-0.120427720249,0.0,-0.375,3.34722232819,False,False,False,False,False,False,False
2018/12/16/17:22:11.430858,52151,1545002531,430572867,,-0.120427720249,0.0,-0.375,3.35555553436,False,False,False,False,False,False,False
2018/12/16/17:22:11.451116,52152,1545002531,450549517,,-0.120427720249,0.0,-0.4375,3.36388897896,False,False,False,False,False,False,False
2018/12/16/17:22:11.470800,52153,1545002531,470544925,,-0.122173048556,0.0,-0.5,3.375,False,False,False,False,False,False,False
2018/12/16/17:22:11.490878,52154,1545002531,490591075,,-0.122173048556,0.0,-0.625,3.3833334446,False,False,False,False,False,False,False
2018/12/16/17:22:11.510795,52155,1545002531,510550401,,-0.122173048556,0.0,-0.6875,3.39444446564,False,False,False,False,False,False,False
2018/12/16/17:22:11.530935,52156,1545002531,530547422,,-0.122173048556,0.0,-0.75,3.40000009537,False,False,False,False,False,False,False
2018/12/16/17:22:11.550827,52157,1545002531,550553989,,-0.123918376863,0.0,-0.8125,3.40833330154,False,False,False,False,False,False,False
2018/12/16/17:22:11.570859,52158,1545002531,570567221,,-0.127409040928,0.0,-0.875,3.41666674614,False,False,False,False,False,False,False
2018/12/16/17:22:11.590919,52159,1545002531,590541842,,-0.129154369235,0.0,-0.9375,3.42499995232,False,False,False,False,False,False,False
2018/12/16/17:22:11.610945,52160,1545002531,610603170,,-0.132645025849,0.0,-1.0,3.43333339691,False,False,False,False,False,False,False
2018/12/16/17:22:11.630975,52161,1545002531,630623834,,-0.136135682464,0.0,-1.125,3.43888878822,False,False,False,False,False,False,False
2018/12/16/17:22:11.651038,52162,1545002531,650660915,,-0.139626339078,0.0,-1.125,3.45000004768,False,False,False,False,False,False,False
2018/12/16/17:22:11.670955,52163,1545002531,670687363,,-0.143116995692,0.0,-1.1875,3.45833325386,False,False,False,False,False,False,False
2018/12/16/17:22:11.690945,52164,1545002531,690710304,,-0.146607652307,0.0,-1.25,3.46666669846,False,False,False,False,False,False,False
2018/12/16/17:22:11.711015,52165,1545002531,710769227,,-0.150098308921,0.0,-1.1875,3.47499990463,False,False,False,False,False,False,False
2018/12/16/17:22:11.730997,52166,1545002531,730765699,,-0.155334308743,0.0,-1.25,3.48611116409,False,False,False,False,False,False,False
2018/12/16/17:22:11.751226,52167,1545002531,750826769,,-0.160570293665,0.0,-1.25,3.49444437027,False,False,False,False,False,False,False
2018/12/16/17:22:11.771289,52168,1545002531,770847917,,-0.165806278586,0.0,-1.1875,3.50277781487,False,False,False,False,False,False,False
2018/12/16/17:22:11.791191,52169,1545002531,790920974,,-0.171042263508,0.0,-1.1875,3.51111102104,False,False,False,False,False,False,False
2018/12/16/17:22:11.811216,52170,1545002531,810937234,,-0.176278248429,0.0,-1.1875,3.51666665077,False,False,False,False,False,False,False
2018/12/16/17:22:11.831313,52171,1545002531,830925868,,-0.179768919945,0.0,-1.125,3.52777767181,False,False,False,False,False,False,False
2018/12/16/17:22:11.851393,52172,1545002531,851007133,,-0.183259576559,0.0,-1.125,3.53888893127,False,False,False,False,False,False,False
2018/12/16/17:22:11.871658,52173,1545002531,871015813,,-0.185004904866,0.0,-1.125,3.544444561,False,False,False,False,False,False,False
2018/12/16/17:22:11.891294,52174,1545002531,891051992,,-0.186750233173,0.0,-1.0625,3.55277776718,False,False,False,False,False,False,False
2018/12/16/17:22:11.911513,52175,1545002531,911079481,,-0.186750233173,0.0,-1.125,3.56111121178,False,False,False,False,False,False,False
2018/12/16/17:22:11.931501,52176,1545002531,931114727,,-0.186750233173,0.0,-1.125,3.56944441795,False,False,False,False,False,False,False
2018/12/16/17:22:11.951447,52177,1545002531,951145388,,-0.186750233173,0.0,-1.0,3.57500004768,False,False,False,False,False,False,False
2018/12/16/17:22:11.971465,52178,1545002531,971173798,,-0.186750233173,0.0,-0.8125,3.58333325386,False,False,False,False,False,False,False
2018/12/16/17:22:11.991708,52179,1545002531,991456467,,-0.186750233173,0.0,-0.8125,3.59166669846,False,False,False,False,False,False,False
2018/12/16/17:22:12.011814,52180,1545002532,11488832,,-0.186750233173,0.0,-0.8125,3.59722232819,False,False,False,False,False,False,False
2018/12/16/17:22:12.031940,52181,1545002532,31505648,,-0.186750233173,0.0,-0.8125,3.60833334923,False,False,False,False,False,False,False
2018/12/16/17:22:12.051903,52182,1545002532,51518183,,-0.185004904866,0.0,-0.8125,3.6166665554,False,False,False,False,False,False,False
2018/12/16/17:22:12.071709,52183,1545002532,71490433,,-0.185004904866,0.0,-0.8125,3.625,False,False,False,False,False,False,False
2018/12/16/17:22:12.091625,52184,1545002532,91349885,,-0.186750233173,0.0,-0.8125,3.63611102104,False,False,False,False,False,False,False
2018/12/16/17:22:12.111760,52185,1545002532,111485319,,-0.186750233173,0.0,-0.875,3.6472222805,False,False,False,False,False,False,False
2018/12/16/17:22:12.131744,52186,1545002532,131479046,,-0.186750233173,0.0,-0.8125,3.65000009537,False,False,False,False,False,False,False
2018/12/16/17:22:12.151761,52187,1545002532,151505023,,-0.186750233173,0.0,-0.6875,3.65833330154,False,False,False,False,False,False,False
2018/12/16/17:22:12.171719,52188,1545002532,171483034,,-0.185004904866,0.0,-0.6875,3.669444561,False,False,False,False,False,False,False
2018/12/16/17:22:12.191757,52189,1545002532,191525669,,-0.185004904866,0.0,-0.625,3.67499995232,False,False,False,False,False,False,False
2018/12/16/17:22:12.211729,52190,1545002532,211539471,,-0.183259576559,0.0,-0.625,3.68333339691,False,False,False,False,False,False,False
2018/12/16/17:22:12.231817,52191,1545002532,231603083,,-0.181514248252,0.0,-0.625,3.69166660309,False,False,False,False,False,False,False
2018/12/16/17:22:12.251954,52192,1545002532,251606948,,-0.179768919945,0.0,-0.625,3.70000004768,False,False,False,False,False,False,False
2018/12/16/17:22:12.271908,52193,1545002532,271636403,,-0.178023576736,0.0,-0.6875,3.70833325386,False,False,False,False,False,False,False
2018/12/16/17:22:12.292027,52194,1545002532,291679394,,-0.176278248429,0.0,-0.625,3.71944451332,False,False,False,False,False,False,False
2018/12/16/17:22:12.312382,52195,1545002532,311701265,,-0.176278248429,0.0,-0.625,3.7277777195,False,False,False,False,False,False,False
2018/12/16/17:22:12.332282,52196,1545002532,332006446,,-0.172787591815,0.0,-0.625,3.73611116409,False,False,False,False,False,False,False
2018/12/16/17:22:12.352149,52197,1545002532,351762304,,-0.171042263508,0.0,-0.6875,3.74444437027,False,False,False,False,False,False,False
2018/12/16/17:22:12.372279,52198,1545002532,372029487,,-0.169296935201,0.0,-0.625,3.75555562973,False,False,False,False,False,False,False
2018/12/16/17:22:12.392136,52199,1545002532,391837659,,-0.167551606894,0.0,-0.625,3.76388883591,False,False,False,False,False,False,False
2018/12/16/17:22:12.412257,52200,1545002532,411924336,,-0.165806278586,0.0,-0.5625,3.76944446564,False,False,False,False,False,False,False
2018/12/16/17:22:12.432291,52201,1545002532,432033289,,-0.164060950279,0.0,-0.375,3.77500009537,False,False,False,False,False,False,False
2018/12/16/17:22:12.452470,52202,1545002532,452192839,,-0.158824965358,0.0,-0.3125,3.78333330154,False,False,False,False,False,False,False
2018/12/16/17:22:12.472239,52203,1545002532,472012340,,-0.153588980436,0.0,-0.125,3.79166674614,False,False,False,False,False,False,False
2018/12/16/17:22:12.492550,52204,1545002532,492269989,,-0.146607652307,0.0,-0.1875,3.79722213745,False,False,False,False,False,False,False
2018/12/16/17:22:12.512527,52205,1545002532,512243228,,-0.137881010771,0.0,-0.1875,3.80555558205,False,False,False,False,False,False,False
2018/12/16/17:22:12.532413,52206,1545002532,532054503,,-0.129154369235,0.0,-0.0625,3.81388878822,False,False,False,False,False,False,False
2018/12/16/17:22:12.552516,52207,1545002532,552262939,,-0.120427720249,0.0,-0.125,3.82500004768,False,False,False,False,False,False,False
2018/12/16/17:22:12.572370,52208,1545002532,572119199,,-0.11344639957,0.0,-0.0625,3.83333325386,False,False,False,False,False,False,False
2018/12/16/17:22:12.592495,52209,1545002532,592234709,,-0.106465086341,0.0,-0.0625,3.84444451332,False,False,False,False,False,False,False
2018/12/16/17:22:12.612503,52210,1545002532,612274577,,-0.101229093969,0.0,-0.125,3.8527777195,False,False,False,False,False,False,False
2018/12/16/17:22:12.632537,52211,1545002532,632221152,,-0.0977384373546,0.0,-0.125,3.86111116409,False,False,False,False,False,False,False
2018/12/16/17:22:12.652460,52212,1545002532,652250652,,-0.0925024524331,0.0,-0.125,3.875,False,False,False,False,False,False,False
2018/12/16/17:22:12.672568,52213,1545002532,672282745,,-0.090757124126,0.0,-0.125,3.8833334446,False,False,False,False,False,False,False
2018/12/16/17:22:12.692542,52214,1545002532,692302568,,-0.0855211317539,0.0,-0.125,3.89166665077,False,False,False,False,False,False,False
2018/12/16/17:22:12.712704,52215,1545002532,712358525,,-0.0837758034468,0.0,-0.1875,3.8972222805,False,False,False,False,False,False,False
2018/12/16/17:22:12.732819,52216,1545002532,732360588,,-0.0802851468325,0.0,-0.3125,3.90000009537,False,False,False,False,False,False,False
2018/12/16/17:22:12.753077,52217,1545002532,752699244,,-0.0767944902182,0.0,-0.25,3.90833330154,False,False,False,False,False,False,False
2018/12/16/17:22:12.772713,52218,1545002532,772466446,,-0.0715584978461,0.0,-0.1875,3.91388893127,False,False,False,False,False,False,False
2018/12/16/17:22:12.792794,52219,1545002532,792478633,,-0.0663225129247,0.0,-0.25,3.919444561,False,False,False,False,False,False,False
2018/12/16/17:22:12.812787,52220,1545002532,812509728,,-0.0610865242779,0.0,-0.1875,3.92499995232,False,False,False,False,False,False,False
2018/12/16/17:22:12.832983,52221,1545002532,832521879,,-0.054105207324,0.0,-0.125,3.93333339691,False,False,False,False,False,False,False
2018/12/16/17:22:12.852812,52222,1545002532,852569471,,-0.0471238903701,0.0,-0.125,3.94166660309,False,False,False,False,False,False,False
2018/12/16/17:22:12.872836,52223,1545002532,872606658,,-0.0418879017234,0.0,-0.0625,3.95277786255,False,False,False,False,False,False,False
2018/12/16/17:22:12.892908,52224,1545002532,892632515,,-0.0366519130766,0.0,-0.25,3.95833325386,False,False,False,False,False,False,False
2018/12/16/17:22:12.912916,52225,1545002532,912654443,,-0.0331612564623,0.0,-0.125,3.96388888359,False,False,False,False,False,False,False
2018/12/16/17:22:12.933006,52226,1545002532,932699807,,-0.0296705979854,0.0,-0.4375,3.9777777195,False,False,False,False,False,False,False
2018/12/16/17:22:12.952993,52227,1545002532,952747883,,-0.0296705979854,0.0,-0.625,3.98888897896,False,False,False,False,False,False,False
2018/12/16/17:22:12.973032,52228,1545002532,972750241,,-0.0296705979854,0.0,-0.75,3.9916665554,False,False,False,False,False,False,False
2018/12/16/17:22:12.993010,52229,1545002532,992791267,,-0.0331612564623,0.0,-0.625,4.0,False,False,False,False,False,False,False
2018/12/16/17:22:13.013054,52230,1545002533,12835759,,-0.0366519130766,0.0,-0.4375,4.00555562973,False,False,False,False,False,False,False
2018/12/16/17:22:13.033129,52231,1545002533,32836443,,-0.0349065847695,0.0,-0.4375,4.00555562973,False,False,False,False,False,False,False
2018/12/16/17:22:13.053370,52232,1545002533,52945058,,-0.0314159281552,0.0,-0.4375,4.01666688919,False,False,False,False,False,False,False
2018/12/16/17:22:13.073207,52233,1545002533,72961197,,-0.0296705979854,0.0,-0.4375,4.01944446564,False,False,False,False,False,False,False
2018/12/16/17:22:13.093363,52234,1545002533,92963657,,-0.0279252678156,0.0,-0.5625,4.01944446564,False,False,False,False,False,False,False
2018/12/16/17:22:13.113190,52235,1545002533,112986106,,-0.0279252678156,0.0,-0.4375,4.02500009537,False,False,False,False,False,False,False
2018/12/16/17:22:13.133289,52236,1545002533,133004218,,-0.0279252678156,0.0,-0.625,4.03333330154,False,False,False,False,False,False,False
2018/12/16/17:22:13.153260,52237,1545002533,153040698,,-0.0279252678156,0.0,-0.625,4.044444561,False,False,False,False,False,False,False
2018/12/16/17:22:13.173345,52238,1545002533,173091738,,-0.0296705979854,0.0,-0.6875,4.05000019073,False,False,False,False,False,False,False
2018/12/16/17:22:13.193384,52239,1545002533,193113311,,-0.0296705979854,0.0,-0.75,4.05555534363,False,False,False,False,False,False,False
2018/12/16/17:22:13.213414,52240,1545002533,213135806,,-0.0331612564623,0.0,-0.625,4.06388902664,False,False,False,False,False,False,False
2018/12/16/17:22:13.233485,52241,1545002533,233166046,,-0.0349065847695,0.0,-0.75,4.06944465637,False,False,False,False,False,False,False
2018/12/16/17:22:13.253749,52242,1545002533,253220504,,-0.0366519130766,0.0,-0.6875,4.07499980927,False,False,False,False,False,False,False
2018/12/16/17:22:13.273805,52243,1545002533,273440533,,-0.0383972451091,0.0,-0.75,4.07499980927,False,False,False,False,False,False,False
2018/12/16/17:22:13.293682,52244,1545002533,293437249,,-0.0401425734162,0.0,-0.8125,4.080555439,False,False,False,False,False,False,False
2018/12/16/17:22:13.313612,52245,1545002533,313303794,,-0.0418879017234,0.0,-0.8125,4.08611106873,False,False,False,False,False,False,False
2018/12/16/17:22:13.333755,52246,1545002533,333333718,,-0.0418879017234,0.0,-0.875,4.08888912201,False,False,False,False,False,False,False
2018/12/16/17:22:13.353802,52247,1545002533,353559458,,-0.0418879017234,0.0,-0.875,4.09166669846,False,False,False,False,False,False,False
2018/12/16/17:22:13.374232,52248,1545002533,373542921,,-0.0418879017234,0.0,-0.875,4.0944442749,False,False,False,False,False,False,False
2018/12/16/17:22:13.393885,52249,1545002533,393523705,,-0.0418879017234,0.0,-0.8125,4.09999990463,False,False,False,False,False,False,False
2018/12/16/17:22:13.413685,52250,1545002533,413465652,,-0.0418879017234,0.0,-0.6875,4.10277795792,False,False,False,False,False,False,False
2018/12/16/17:22:13.434087,52251,1545002533,433601276,,-0.0418879017234,0.0,-0.625,4.10833311081,False,False,False,False,False,False,False
2018/12/16/17:22:13.454342,52252,1545002533,453578434,,-0.0401425734162,0.0,-0.5,4.11388874054,False,False,False,False,False,False,False
2018/12/16/17:22:13.473940,52253,1545002533,473574771,,-0.0383972451091,0.0,-0.4375,4.11666679382,False,False,False,False,False,False,False
2018/12/16/17:22:13.493963,52254,1545002533,493588969,,-0.0366519130766,0.0,-0.375,4.11944437027,False,False,False,False,False,False,False
2018/12/16/17:22:13.513911,52255,1545002533,513634859,,-0.0314159281552,0.0,-0.375,4.125,False,False,False,False,False,False,False
2018/12/16/17:22:13.534084,52256,1545002533,533698637,,-0.0296705979854,0.0,-0.375,4.125,False,False,False,False,False,False,False
2018/12/16/17:22:13.554229,52257,1545002533,553929275,,-0.0261799395084,0.0,-0.25,4.13055562973,False,False,False,False,False,False,False
2018/12/16/17:22:13.574192,52258,1545002533,573952847,,-0.0226892810315,0.0,-0.3125,4.13333320618,False,False,False,False,False,False,False
2018/12/16/17:22:13.594269,52259,1545002533,593989249,,-0.0209439508617,0.0,-0.3125,4.13611125946,False,False,False,False,False,False,False
2018/12/16/17:22:13.614016,52260,1545002533,613786232,,-0.0209439508617,0.0,-0.3125,4.14166688919,False,False,False,False,False,False,False
2018/12/16/17:22:13.634258,52261,1545002533,633994373,,-0.0191986225545,0.0,-0.375,4.14444446564,False,False,False,False,False,False,False
2018/12/16/17:22:13.654296,52262,1545002533,654065905,,-0.0191986225545,0.0,-0.375,4.14722204208,False,False,False,False,False,False,False
2018/12/16/17:22:13.674242,52263,1545002533,674036099,,-0.0209439508617,0.0,-0.5625,4.15000009537,False,False,False,False,False,False,False
2018/12/16/17:22:13.694175,52264,1545002533,693962342,,-0.0209439508617,0.0,-0.4375,4.15277767181,False,False,False,False,False,False,False
2018/12/16/17:22:13.714242,52265,1545002533,713953399,,-0.0209439508617,0.0,-0.625,4.15833330154,False,False,False,False,False,False,False
2018/12/16/17:22:13.734372,52266,1545002533,733980775,,-0.0209439508617,0.0,-0.5625,4.15833330154,False,False,False,False,False,False,False
2018/12/16/17:22:13.754262,52267,1545002533,754006620,,-0.0209439508617,0.0,-0.4375,4.16111087799,False,False,False,False,False,False,False
2018/12/16/17:22:13.774321,52268,1545002533,774057118,,-0.0174532923847,0.0,-0.4375,4.169444561,False,False,False,False,False,False,False
2018/12/16/17:22:13.794343,52269,1545002533,794062486,,-0.0174532923847,0.0,-0.4375,4.17222213745,False,False,False,False,False,False,False
2018/12/16/17:22:13.814619,52270,1545002533,814326708,,-0.0157079640776,0.0,-0.3125,4.17777776718,False,False,False,False,False,False,False
2018/12/16/17:22:13.834406,52271,1545002533,834136195,,-0.0122173046693,0.0,-0.1875,4.17777776718,False,False,False,False,False,False,False
2018/12/16/17:22:13.854551,52272,1545002533,854167151,,-0.0069813169539,0.0,-0.125,4.18055534363,False,False,False,False,False,False,False
2018/12/16/17:22:13.874579,52273,1545002533,874222527,,-0.00174532923847,0.0,0.0,4.18888902664,False,False,False,False,False,False,False
2018/12/16/17:22:13.894518,52274,1545002533,894249593,,0.0,0.0,0.0,4.19166660309,False,False,False,False,False,False,False
2018/12/16/17:22:13.914643,52275,1545002533,914391112,,0.0069813169539,0.0,0.125,4.18888902664,False,False,False,False,False,False,False
2018/12/16/17:22:13.934648,52276,1545002533,934306941,,0.0122173046693,0.0,0.125,4.19166660309,False,False,False,False,False,False,False
2018/12/16/17:22:13.954565,52277,1545002533,954358464,,0.0157079640776,0.0,0.0625,4.19444465637,False,False,False,False,False,False,False
2018/12/16/17:22:13.974586,52278,1545002533,974358966,,0.0191986225545,0.0,-0.0625,4.19166660309,False,False,False,False,False,False,False
2018/12/16/17:22:13.994837,52279,1545002533,994416143,,0.0226892810315,0.0,0.0,4.19722223282,False,False,False,False,False,False,False
2018/12/16/17:22:14.014658,52280,1545002534,14438171,,0.0226892810315,0.0,-0.0625,4.19722223282,False,False,False,False,False,False,False
2018/12/16/17:22:14.034999,52281,1545002534,34472976,,0.0244346093386,0.0,-0.1875,4.19722223282,False,False,False,False,False,False,False
2018/12/16/17:22:14.054887,52282,1545002534,54502334,,0.0226892810315,0.0,-0.25,4.19999980927,False,False,False,False,False,False,False
2018/12/16/17:22:14.074744,52283,1545002534,74533069,,0.0226892810315,0.0,-0.3125,4.20277786255,False,False,False,False,False,False,False
2018/12/16/17:22:14.094982,52284,1545002534,94574376,,0.0226892810315,0.0,-0.25,4.20277786255,False,False,False,False,False,False,False
2018/12/16/17:22:14.115428,52285,1545002534,114733481,,0.0244346093386,0.0,-0.125,4.20833349228,False,False,False,False,False,False,False
2018/12/16/17:22:14.135045,52286,1545002534,134656782,,0.0244346093386,0.0,-0.0625,4.21111106873,False,False,False,False,False,False,False
2018/12/16/17:22:14.155114,52287,1545002534,154682688,,0.0244346093386,0.0,-0.25,4.21388912201,False,False,False,False,False,False,False
2018/12/16/17:22:14.175390,52288,1545002534,174738351,,0.0244346093386,0.0,-0.25,4.21388912201,False,False,False,False,False,False,False
2018/12/16/17:22:14.195097,52289,1545002534,194784879,,0.0244346093386,0.0,-0.3125,4.21666669846,False,False,False,False,False,False,False
2018/12/16/17:22:14.215749,52290,1545002534,214794597,,0.0244346093386,0.0,-0.375,4.2194442749,False,False,False,False,False,False,False
2018/12/16/17:22:14.235068,52291,1545002534,234830422,,0.0244346093386,0.0,-0.5,4.2194442749,False,False,False,False,False,False,False
2018/12/16/17:22:14.255651,52292,1545002534,254845706,,0.0226892810315,0.0,-0.5625,4.2194442749,False,False,False,False,False,False,False
2018/12/16/17:22:14.275227,52293,1545002534,274936156,,0.0226892810315,0.0,-0.625,4.22222232819,False,False,False,False,False,False,False
2018/12/16/17:22:14.295198,52294,1545002534,294929620,,0.0226892810315,0.0,-0.625,4.22222232819,False,False,False,False,False,False,False
2018/12/16/17:22:14.315892,52295,1545002534,314956327,,0.0226892810315,0.0,-0.6875,4.22222232819,False,False,False,False,False,False,False
2018/12/16/17:22:14.335210,52296,1545002534,334979999,,0.0209439508617,0.0,-0.6875,4.22499990463,False,False,False,False,False,False,False
2018/12/16/17:22:14.355321,52297,1545002534,355043814,,0.0209439508617,0.0,-0.6875,4.22777795792,False,False,False,False,False,False,False
2018/12/16/17:22:14.375275,52298,1545002534,375033606,,0.0191986225545,0.0,-0.75,4.23611116409,False,False,False,False,False,False,False
2018/12/16/17:22:14.395506,52299,1545002534,395091878,,0.0174532923847,0.0,-0.6875,4.23611116409,False,False,False,False,False,False,False
2018/12/16/17:22:14.415412,52300,1545002534,415130320,,0.0157079640776,0.0,-0.75,4.23888874054,False,False,False,False,False,False,False
2018/12/16/17:22:14.435565,52301,1545002534,435134595,,0.0139626339078,0.0,-0.75,4.24444437027,False,False,False,False,False,False,False
2018/12/16/17:22:14.455519,52302,1545002534,455172184,,0.0122173046693,0.0,-0.8125,4.24166679382,False,False,False,False,False,False,False
2018/12/16/17:22:14.475673,52303,1545002534,475401822,,0.0122173046693,0.0,-0.75,4.24444437027,False,False,False,False,False,False,False
2018/12/16/17:22:14.495676,52304,1545002534,495249890,,0.0122173046693,0.0,-0.75,4.24722242355,False,False,False,False,False,False,False
2018/12/16/17:22:14.516096,52305,1545002534,515286662,,0.0104719754308,0.0,-0.8125,4.24444437027,False,False,False,False,False,False,False
2018/12/16/17:22:14.535678,52306,1545002534,535316842,,0.00872664619237,0.0,-0.75,4.24722242355,False,False,False,False,False,False,False
2018/12/16/17:22:14.555745,52307,1545002534,555352533,,0.0069813169539,0.0,-0.8125,4.24722242355,False,False,False,False,False,False,False
2018/12/16/17:22:14.576029,52308,1545002534,575399236,,0.00523598771542,0.0,-0.75,4.25,False,False,False,False,False,False,False
2018/12/16/17:22:14.595846,52309,1545002534,595430785,,0.00349065847695,0.0,-0.8125,4.25,False,False,False,False,False,False,False
2018/12/16/17:22:14.615741,52310,1545002534,615445178,,0.0,0.0,-0.8125,4.25,False,False,False,False,False,False,False
2018/12/16/17:22:14.635857,52311,1545002534,635496732,,-0.00523598771542,0.0,-0.8125,4.25555562973,False,False,False,False,False,False,False
2018/12/16/17:22:14.656205,52312,1545002534,655508650,,-0.0122173046693,0.0,-0.8125,4.25555562973,False,False,False,False,False,False,False
2018/12/16/17:22:14.675920,52313,1545002534,675544659,,-0.0191986225545,0.0,-0.9375,4.25833320618,False,False,False,False,False,False,False
2018/12/16/17:22:14.695875,52314,1545002534,695593746,,-0.0279252678156,0.0,-0.9375,4.26111125946,False,False,False,False,False,False,False
2018/12/16/17:22:14.716057,52315,1545002534,715613088,,-0.0366519130766,0.0,-1.0,4.26111125946,False,False,False,False,False,False,False
2018/12/16/17:22:14.735898,52316,1545002534,735626811,,-0.045378562063,0.0,-1.0,4.26111125946,False,False,False,False,False,False,False
2018/12/16/17:22:14.755952,52317,1545002534,755691191,,-0.0523598790169,0.0,-1.0625,4.26388883591,False,False,False,False,False,False,False
2018/12/16/17:22:14.776100,52318,1545002534,775706151,,-0.0593411959708,0.0,-1.0,4.26666688919,False,False,False,False,False,False,False
2018/12/16/17:22:14.795977,52319,1545002534,795742814,,-0.0645771846175,0.0,-0.9375,4.26666688919,False,False,False,False,False,False,False
2018/12/16/17:22:14.816037,52320,1545002534,815782623,,-0.0663225129247,0.0,-0.9375,4.27222204208,False,False,False,False,False,False,False
2018/12/16/17:22:14.836032,52321,1545002534,835804349,,-0.069813169539,0.0,-0.875,4.27500009537,False,False,False,False,False,False,False
2018/12/16/17:22:14.856065,52322,1545002534,855837437,,-0.0715584978461,0.0,-0.8125,4.27777767181,False,False,False,False,False,False,False
2018/12/16/17:22:14.876186,52323,1545002534,875925128,,-0.0715584978461,0.0,-0.6875,4.2805557251,False,False,False,False,False,False,False
2018/12/16/17:22:14.896290,52324,1545002534,895927379,,-0.069813169539,0.0,-0.5,4.28611087799,False,False,False,False,False,False,False
2018/12/16/17:22:14.916235,52325,1545002534,915957073,,-0.0663225129247,0.0,-0.375,4.28611087799,False,False,False,False,False,False,False
2018/12/16/17:22:14.936402,52326,1545002534,935985750,,-0.0610865242779,0.0,-0.25,4.28611087799,False,False,False,False,False,False,False
2018/12/16/17:22:14.956411,52327,1545002534,956007042,,-0.0575958639383,0.0,-0.1875,4.28888893127,False,False,False,False,False,False,False
2018/12/16/17:22:14.976313,52328,1545002534,976034344,,-0.0506145469844,0.0,-0.125,4.28888893127,False,False,False,False,False,False,False
2018/12/16/17:22:14.996539,52329,1545002534,996086390,,-0.045378562063,0.0,-0.125,4.28888893127,False,False,False,False,False,False,False
2018/12/16/17:22:15.016505,52330,1545002535,16114549,,-0.0383972451091,0.0,-0.0625,4.28888893127,False,False,False,False,False,False,False
2018/12/16/17:22:15.036502,52331,1545002535,36138428,,-0.0314159281552,0.0,0.0625,4.28888893127,False,False,False,False,False,False,False
2018/12/16/17:22:15.056592,52332,1545002535,56166794,,-0.0244346093386,0.0,0.125,4.28888893127,False,False,False,False,False,False,False
2018/12/16/17:22:15.076481,52333,1545002535,76217207,,-0.0191986225545,0.0,0.0,4.29166650772,False,False,False,False,False,False,False
2018/12/16/17:22:15.096524,52334,1545002535,96245152,,-0.0139626339078,0.0,0.125,4.294444561,False,False,False,False,False,False,False
2018/12/16/17:22:15.116533,52335,1545002535,116281904,,-0.00872664619237,0.0,0.0625,4.294444561,False,False,False,False,False,False,False
2018/12/16/17:22:15.136625,52336,1545002535,136323827,,-0.00523598771542,0.0,-0.0625,4.29722213745,False,False,False,False,False,False,False
2018/12/16/17:22:15.156588,52337,1545002535,156357522,,-0.00174532923847,0.0,0.0,4.29722213745,False,False,False,False,False,False,False
2018/12/16/17:22:15.176687,52338,1545002535,176383045,,0.0,0.0,-0.1875,4.30000019073,False,False,False,False,False,False,False
2018/12/16/17:22:15.196876,52339,1545002535,196551540,,0.0,0.0,-0.1875,4.30000019073,False,False,False,False,False,False,False
2018/12/16/17:22:15.217186,52340,1545002535,216495157,,0.0,0.0,-0.25,4.30277776718,False,False,False,False,False,False,False
2018/12/16/17:22:15.236810,52341,1545002535,236455235,,0.0,0.0,-0.3125,4.30277776718,False,False,False,False,False,False,False
