time,.header.seq,.header.stamp.secs,.header.stamp.nsecs,.header.frame_id,.roll,.pitch,.yaw
2018/12/16/17:22:06.353077,103682,2350,86300000,mti/data,-6.14847803116,0.360262662172,90.1717758179
2018/12/16/17:22:06.353675,103683,2350,96300000,mti/data,-6.14918899536,0.35813242197,90.1727905273
2018/12/16/17:22:06.353703,103684,2350,106300000,mti/data,-6.14916324615,0.355402827263,90.1724853516
2018/12/16/17:22:06.353846,103685,2350,116300000,mti/data,-6.14927530289,0.352664977312,90.1727905273
2018/12/16/17:22:06.354002,103686,2350,126300000,mti/data,-6.14872741699,0.348256826401,90.1736068726
2018/12/16/17:22:06.354041,103687,2350,136300000,mti/data,-6.14707136154,0.346263259649,90.1718826294
2018/12/16/17:22:06.354066,103688,2350,146300000,mti/data,-6.14614534378,0.34440690279,90.1723556519
2018/12/16/17:22:06.354080,103689,2350,156300000,mti/data,-6.14547586441,0.341905117035,90.1736221313
2018/12/16/17:22:06.354092,103690,2350,166300000,mti/data,-6.14628458023,0.338454097509,90.1728744507
2018/12/16/17:22:06.354109,103691,2350,176300000,mti/data,-6.14401388168,0.336197704077,90.1729507446
2018/12/16/17:22:06.354120,103692,2350,186300000,mti/data,-6.14223814011,0.33368909359,90.1718521118
2018/12/16/17:22:06.354134,103693,2350,196300000,mti/data,-6.14220237732,0.332060694695,90.1714859009
2018/12/16/17:22:06.354148,103694,2350,206300000,mti/data,-6.14391279221,0.328162103891,90.1711730957
2018/12/16/17:22:06.358271,103695,2350,216300000,mti/data,-6.14363527298,0.325455784798,90.1692886353
2018/12/16/17:22:06.365976,103696,2350,226300000,mti/data,-6.14400339127,0.323624223471,90.1688995361
2018/12/16/17:22:06.375619,103697,2350,236300000,mti/data,-6.14507722855,0.320601165295,90.1675338745
2018/12/16/17:22:06.385783,103698,2350,246300000,mti/data,-6.14538240433,0.317598342896,90.165473938
2018/12/16/17:22:06.397142,103699,2350,256300000,mti/data,-6.14558553696,0.308404356241,90.1660766602
2018/12/16/17:22:06.405618,103700,2350,266300000,mti/data,-6.14341068268,0.30597320199,90.1639251709
2018/12/16/17:22:06.416278,103701,2350,276300000,mti/data,-6.14338588715,0.306861817837,90.1656036377
2018/12/16/17:22:06.425626,103702,2350,286300000,mti/data,-6.14355802536,0.304406762123,90.1634902954
2018/12/16/17:22:06.435438,103703,2350,296300000,mti/data,-6.14353752136,0.302255392075,90.1632461548
2018/12/16/17:22:06.445376,103704,2350,306300000,mti/data,-6.14310646057,0.30080229044,90.161277771
2018/12/16/17:22:06.455572,103705,2350,316300000,mti/data,-6.14142036438,0.298018306494,90.1595993042
2018/12/16/17:22:06.465594,103706,2350,326300000,mti/data,-6.14097261429,0.296428322792,90.158744812
2018/12/16/17:22:06.475538,103707,2350,336300000,mti/data,-6.13870620728,0.294071286917,90.1589202881
2018/12/16/17:22:06.485359,103708,2350,346300000,mti/data,-6.13767623901,0.293520122766,90.1585083008
2018/12/16/17:22:06.495334,103709,2350,356300000,mti/data,-6.13651275635,0.294886380434,90.1572647095
2018/12/16/17:22:06.505583,103710,2350,366300000,mti/data,-6.13618469238,0.293620884418,90.1583023071
2018/12/16/17:22:06.515547,103711,2350,376300000,mti/data,-6.13452100754,0.291996330023,90.1574325562
2018/12/16/17:22:06.525458,103712,2350,386300000,mti/data,-6.13414573669,0.291151076555,90.1571350098
2018/12/16/17:22:06.535667,103713,2350,396300000,mti/data,-6.13389444351,0.291920781136,90.1564941406
2018/12/16/17:22:06.545385,103714,2350,406300000,mti/data,-6.13445186615,0.292079806328,90.1555480957
2018/12/16/17:22:06.555492,103715,2350,416300000,mti/data,-6.13257884979,0.29132694006,90.1544189453
2018/12/16/17:22:06.565581,103716,2350,426300000,mti/data,-6.13225269318,0.290794432163,90.1521453857
2018/12/16/17:22:06.577943,103717,2350,436300000,mti/data,-6.13011169434,0.291426211596,90.1513442993
2018/12/16/17:22:06.589527,103718,2350,446300000,mti/data,-6.12708616257,0.291890472174,90.1493301392
2018/12/16/17:22:06.595797,103719,2350,456300000,mti/data,-6.12501716614,0.291090250015,90.1475830078
2018/12/16/17:22:06.605838,103720,2350,466300000,mti/data,-6.12313508987,0.292592048645,90.1476898193
2018/12/16/17:22:06.615390,103721,2350,476300000,mti/data,-6.12469244003,0.292069554329,90.1448669434
2018/12/16/17:22:06.625452,103722,2350,486300000,mti/data,-6.12493085861,0.290293693542,90.1441650391
2018/12/16/17:22:06.635444,103723,2350,496300000,mti/data,-6.1231637001,0.291140407324,90.1418838501
2018/12/16/17:22:06.645513,103724,2350,506300000,mti/data,-6.1207280159,0.283866792917,90.1399765015
2018/12/16/17:22:06.655435,103725,2350,516300000,mti/data,-6.11974430084,0.282902926207,90.1397705078
2018/12/16/17:22:06.665498,103726,2350,526300000,mti/data,-6.12044715881,0.282877057791,90.1387329102
2018/12/16/17:22:06.675639,103727,2350,536300000,mti/data,-6.12233257294,0.285089433193,90.1366424561
2018/12/16/17:22:06.685480,103728,2350,546300000,mti/data,-6.1226644516,0.284056991339,90.1355743408
2018/12/16/17:22:06.695613,103729,2350,556300000,mti/data,-6.12478256226,0.284215152264,90.1335906982
2018/12/16/17:22:06.705665,103730,2350,566300000,mti/data,-6.12516212463,0.283377200365,90.1323928833
2018/12/16/17:22:06.715754,103731,2350,576300000,mti/data,-6.12714004517,0.282411336899,90.1321563721
2018/12/16/17:22:06.725462,103732,2350,586300000,mti/data,-6.12920856476,0.283378690481,90.1314926147
2018/12/16/17:22:06.735446,103733,2350,596300000,mti/data,-6.1305103302,0.28111615777,90.1321258545
2018/12/16/17:22:06.745331,103734,2350,606300000,mti/data,-6.13175630569,0.279552429914,90.1309738159
2018/12/16/17:22:06.755626,103735,2350,616300000,mti/data,-6.13119363785,0.278588294983,90.1295852661
2018/12/16/17:22:06.765678,103736,2350,626300000,mti/data,-6.13225507736,0.276657491922,90.1278839111
2018/12/16/17:22:06.775596,103737,2350,636300000,mti/data,-6.13463306427,0.277278780937,90.1269226074
2018/12/16/17:22:06.785424,103738,2350,646300000,mti/data,-6.13448095322,0.274220108986,90.1259994507
2018/12/16/17:22:06.795562,103739,2350,656300000,mti/data,-6.13533210754,0.271793693304,90.1259078979
2018/12/16/17:22:06.805459,103740,2350,666300000,mti/data,-6.13629817963,0.268787026405,90.1249313354
2018/12/16/17:22:06.815519,103741,2350,676300000,mti/data,-6.13712263107,0.271158874035,90.1234588623
2018/12/16/17:22:06.825388,103742,2350,686300000,mti/data,-6.13995409012,0.269708305597,90.1213760376
2018/12/16/17:22:06.835539,103743,2350,696300000,mti/data,-6.14246273041,0.26505947113,90.1188049316
2018/12/16/17:22:06.845434,103744,2350,706300000,mti/data,-6.14699745178,0.263540565968,90.1171264648
2018/12/16/17:22:06.855378,103745,2350,716300000,mti/data,-6.14893913269,0.262059479952,90.1153945923
2018/12/16/17:22:06.865647,103746,2350,726300000,mti/data,-6.14917755127,0.260483622551,90.1131820679
2018/12/16/17:22:06.875596,103747,2350,736300000,mti/data,-6.15066051483,0.258532524109,90.109161377
2018/12/16/17:22:06.885417,103748,2350,746300000,mti/data,-6.15221261978,0.258653968573,90.1074905396
2018/12/16/17:22:06.895669,103749,2350,756300000,mti/data,-6.15580511093,0.248652532697,90.1021652222
2018/12/16/17:22:06.905489,103750,2350,766300000,mti/data,-6.15881586075,0.247947767377,90.1001434326
2018/12/16/17:22:06.916142,103751,2350,776300000,mti/data,-6.16037416458,0.24715949595,90.0975875854
2018/12/16/17:22:06.925562,103752,2350,786300000,mti/data,-6.16293382645,0.245675399899,90.0960540771
2018/12/16/17:22:06.935530,103753,2350,796300000,mti/data,-6.16612291336,0.245835259557,90.0938720703
2018/12/16/17:22:06.945596,103754,2350,806300000,mti/data,-6.16830968857,0.243378326297,90.091796875
2018/12/16/17:22:06.956082,103755,2350,816300000,mti/data,-6.1697845459,0.242298319936,90.0899276733
2018/12/16/17:22:06.965846,103756,2350,826300000,mti/data,-6.17251300812,0.241586655378,90.0880355835
2018/12/16/17:22:06.975543,103757,2350,836300000,mti/data,-6.17566680908,0.240070536733,90.0855789185
2018/12/16/17:22:06.985506,103758,2350,846300000,mti/data,-6.17860031128,0.238335028291,90.0828094482
2018/12/16/17:22:06.995496,103759,2350,856300000,mti/data,-6.17931699753,0.23974481225,90.079536438
2018/12/16/17:22:07.005807,103760,2350,866300000,mti/data,-6.17906522751,0.240271195769,90.0773849487
2018/12/16/17:22:07.015528,103761,2350,876300000,mti/data,-6.17890071869,0.238576859236,90.0771865845
2018/12/16/17:22:07.025466,103762,2350,886300000,mti/data,-6.17969799042,0.237574920058,90.0762023926
2018/12/16/17:22:07.035635,103763,2350,896300000,mti/data,-6.18018436432,0.238288924098,90.0738449097
2018/12/16/17:22:07.045480,103764,2350,906300000,mti/data,-6.17908716202,0.237616151571,90.072227478
2018/12/16/17:22:07.055629,103765,2350,916300000,mti/data,-6.18271493912,0.237280189991,90.0695495605
2018/12/16/17:22:07.065746,103766,2350,926300000,mti/data,-6.18538379669,0.236903220415,90.0679855347
2018/12/16/17:22:07.075452,103767,2350,936300000,mti/data,-6.18535327911,0.237255647779,90.065071106
2018/12/16/17:22:07.085907,103768,2350,946300000,mti/data,-6.18554973602,0.238093808293,90.063041687
2018/12/16/17:22:07.095713,103769,2350,956300000,mti/data,-6.18635988235,0.238606765866,90.0599212646
2018/12/16/17:22:07.105436,103770,2350,966300000,mti/data,-6.1894569397,0.240292966366,90.0589065552
2018/12/16/17:22:07.116137,103771,2350,976300000,mti/data,-6.19193744659,0.24239730835,90.0575027466
2018/12/16/17:22:07.125608,103772,2350,986300000,mti/data,-6.1936044693,0.243018209934,90.0546951294
2018/12/16/17:22:07.135587,103773,2350,996300000,mti/data,-6.19394779205,0.244520664215,90.0508499146
2018/12/16/17:22:07.145508,103774,2351,6300000,mti/data,-6.19412326813,0.239381566644,90.0498580933
2018/12/16/17:22:07.155544,103775,2351,16300000,mti/data,-6.19574642181,0.237254574895,90.0477218628
2018/12/16/17:22:07.165663,103776,2351,26300000,mti/data,-6.19691085815,0.236292347312,90.0447235107
2018/12/16/17:22:07.175473,103777,2351,36300000,mti/data,-6.19697332382,0.239254131913,90.0401916504
2018/12/16/17:22:07.185461,103778,2351,46300000,mti/data,-6.19534683228,0.24023064971,90.0371322632
2018/12/16/17:22:07.195574,103779,2351,56300000,mti/data,-6.19601249695,0.242307692766,90.032875061
2018/12/16/17:22:07.205644,103780,2351,66300000,mti/data,-6.19719743729,0.241950139403,90.0290756226
2018/12/16/17:22:07.215894,103781,2351,76300000,mti/data,-6.19715690613,0.241462856531,90.0247421265
2018/12/16/17:22:07.225636,103782,2351,86300000,mti/data,-6.19520616531,0.240915775299,90.0206451416
2018/12/16/17:22:07.235646,103783,2351,96300000,mti/data,-6.19559574127,0.242526873946,90.0171737671
2018/12/16/17:22:07.245464,103784,2351,106300000,mti/data,-6.19703388214,0.239917069674,90.0130844116
2018/12/16/17:22:07.255690,103785,2351,116300000,mti/data,-6.19631004333,0.236711993814,90.0084991455
2018/12/16/17:22:07.265556,103786,2351,126300000,mti/data,-6.19565868378,0.236368566751,90.0038528442
2018/12/16/17:22:07.275517,103787,2351,136300000,mti/data,-6.19551801682,0.238722205162,89.9997634888
2018/12/16/17:22:07.285681,103788,2351,146300000,mti/data,-6.19629430771,0.235637947917,89.9945144653
2018/12/16/17:22:07.295677,103789,2351,156300000,mti/data,-6.1982293129,0.231979697943,89.9917831421
2018/12/16/17:22:07.305552,103790,2351,166300000,mti/data,-6.19978475571,0.23125270009,89.9867630005
2018/12/16/17:22:07.315844,103791,2351,176300000,mti/data,-6.19984197617,0.231268689036,89.9825897217
2018/12/16/17:22:07.325478,103792,2351,186300000,mti/data,-6.19883680344,0.230358585715,89.977935791
2018/12/16/17:22:07.335464,103793,2351,196300000,mti/data,-6.19831466675,0.227342575788,89.9727020264
2018/12/16/17:22:07.345411,103794,2351,206300000,mti/data,-6.19908237457,0.222443163395,89.967590332
2018/12/16/17:22:07.355743,103795,2351,216300000,mti/data,-6.19776344299,0.223917454481,89.9627380371
2018/12/16/17:22:07.365794,103796,2351,226300000,mti/data,-6.19750547409,0.223057284951,89.95703125
2018/12/16/17:22:07.375524,103797,2351,236300000,mti/data,-6.19912290573,0.218802019954,89.9507064819
2018/12/16/17:22:07.385478,103798,2351,246300000,mti/data,-6.19738864899,0.218014404178,89.9452972412
2018/12/16/17:22:07.395547,103799,2351,256300000,mti/data,-6.19419956207,0.213433668017,89.9412231445
2018/12/16/17:22:07.405477,103800,2351,266300000,mti/data,-6.19002580643,0.214801847935,89.9348754883
2018/12/16/17:22:07.417024,103801,2351,276300000,mti/data,-6.18810558319,0.21222256124,89.9295196533
2018/12/16/17:22:07.425491,103802,2351,286300000,mti/data,-6.18686771393,0.212018325925,89.9237823486
2018/12/16/17:22:07.435544,103803,2351,296300000,mti/data,-6.18433141708,0.213268652558,89.9173583984
2018/12/16/17:22:07.445483,103804,2351,306300000,mti/data,-6.18304443359,0.214985623956,89.9121627808
2018/12/16/17:22:07.455675,103805,2351,316300000,mti/data,-6.18230772018,0.216004401445,89.9053421021
2018/12/16/17:22:07.465595,103806,2351,326300000,mti/data,-6.18234062195,0.219974905252,89.8978881836
2018/12/16/17:22:07.475846,103807,2351,336300000,mti/data,-6.18061876297,0.222473487258,89.8911743164
2018/12/16/17:22:07.485465,103808,2351,346300000,mti/data,-6.18051767349,0.221967190504,89.884979248
2018/12/16/17:22:07.495523,103809,2351,356300000,mti/data,-6.17995405197,0.222003057599,89.8783721924
2018/12/16/17:22:07.505674,103810,2351,366300000,mti/data,-6.17971944809,0.227163717151,89.8714675903
2018/12/16/17:22:07.515711,103811,2351,376300000,mti/data,-6.1776804924,0.229808732867,89.8653793335
2018/12/16/17:22:07.525640,103812,2351,386300000,mti/data,-6.17957401276,0.229874238372,89.8577041626
2018/12/16/17:22:07.535865,103813,2351,396300000,mti/data,-6.17820167542,0.232290282845,89.8505630493
2018/12/16/17:22:07.545499,103814,2351,406300000,mti/data,-6.17552423477,0.236265659332,89.8444900513
2018/12/16/17:22:07.555550,103815,2351,416300000,mti/data,-6.1758108139,0.237719461322,89.837928772
2018/12/16/17:22:07.565731,103816,2351,426300000,mti/data,-6.17401409149,0.23073592782,89.8322372437
2018/12/16/17:22:07.575648,103817,2351,436300000,mti/data,-6.17287492752,0.229604259133,89.8266296387
2018/12/16/17:22:07.585588,103818,2351,446300000,mti/data,-6.16841268539,0.234839841723,89.8186645508
2018/12/16/17:22:07.595528,103819,2351,456300000,mti/data,-6.16673135757,0.233257576823,89.8117828369
2018/12/16/17:22:07.605474,103820,2351,466300000,mti/data,-6.16770601273,0.227244004607,89.8063735962
2018/12/16/17:22:07.615790,103821,2351,476300000,mti/data,-6.16999816895,0.226516976953,89.8008117676
2018/12/16/17:22:07.625508,103822,2351,486300000,mti/data,-6.1669511795,0.227165207267,89.7930526733
2018/12/16/17:22:07.635758,103823,2351,496300000,mti/data,-6.16426420212,0.227167770267,89.7875061035
2018/12/16/17:22:07.645490,103824,2351,506300000,mti/data,-6.16484642029,0.218221858144,89.7798690796
2018/12/16/17:22:07.655541,103825,2351,516300000,mti/data,-6.16875267029,0.21398948133,89.7730026245
2018/12/16/17:22:07.665572,103826,2351,526300000,mti/data,-6.17189359665,0.216006323695,89.766784668
2018/12/16/17:22:07.675526,103827,2351,536300000,mti/data,-6.17327165604,0.219782590866,89.7615509033
2018/12/16/17:22:07.685602,103828,2351,546300000,mti/data,-6.17604017258,0.21847076714,89.7542572021
2018/12/16/17:22:07.695735,103829,2351,556300000,mti/data,-6.17852306366,0.219007343054,89.7463150024
2018/12/16/17:22:07.705549,103830,2351,566300000,mti/data,-6.18330001831,0.223099946976,89.7387084961
2018/12/16/17:22:07.715611,103831,2351,576300000,mti/data,-6.18731784821,0.229808300734,89.7310714722
2018/12/16/17:22:07.725565,103832,2351,586300000,mti/data,-6.19065093994,0.231503710151,89.7219009399
2018/12/16/17:22:07.735589,103833,2351,596300000,mti/data,-6.19174861908,0.233960017562,89.7128295898
2018/12/16/17:22:07.745663,103834,2351,606300000,mti/data,-6.19416856766,0.239867553115,89.7042312622
2018/12/16/17:22:07.755827,103835,2351,616300000,mti/data,-6.1976480484,0.24389077723,89.6957626343
2018/12/16/17:22:07.765577,103836,2351,626300000,mti/data,-6.19944572449,0.244788751006,89.6862487793
2018/12/16/17:22:07.775564,103837,2351,636300000,mti/data,-6.197930336,0.250485599041,89.677116394
2018/12/16/17:22:07.785555,103838,2351,646300000,mti/data,-6.19679498672,0.253722518682,89.6691131592
2018/12/16/17:22:07.795502,103839,2351,656300000,mti/data,-6.19892930984,0.256201028824,89.660369873
2018/12/16/17:22:07.805524,103840,2351,666300000,mti/data,-6.20344209671,0.256018579006,89.6515197754
2018/12/16/17:22:07.815841,103841,2351,676300000,mti/data,-6.20628547668,0.255677014589,89.6428833008
2018/12/16/17:22:07.825499,103842,2351,686300000,mti/data,-6.2052230835,0.26077285409,89.633430481
2018/12/16/17:22:07.835584,103843,2351,696300000,mti/data,-6.2092423439,0.262507736683,89.6239624023
2018/12/16/17:22:07.845511,103844,2351,706300000,mti/data,-6.2178606987,0.261082947254,89.6150741577
2018/12/16/17:22:07.855624,103845,2351,716300000,mti/data,-6.2253704071,0.262548059225,89.6074829102
2018/12/16/17:22:07.865566,103846,2351,726300000,mti/data,-6.22795820236,0.26574331522,89.5987243652
2018/12/16/17:22:07.875510,103847,2351,736300000,mti/data,-6.22675275803,0.27144664526,89.5892791748
2018/12/16/17:22:07.885578,103848,2351,746300000,mti/data,-6.23031520844,0.276877343655,89.5819168091
2018/12/16/17:22:07.895602,103849,2351,756300000,mti/data,-6.23633909225,0.27599388361,89.5776062012
2018/12/16/17:22:07.905657,103850,2351,766300000,mti/data,-6.23568534851,0.27426430583,89.5717315674
2018/12/16/17:22:07.916495,103851,2351,776300000,mti/data,-6.23282384872,0.278973132372,89.5605239868
2018/12/16/17:22:07.925555,103852,2351,786300000,mti/data,-6.23040485382,0.286808997393,89.5512771606
2018/12/16/17:22:07.935596,103853,2351,796300000,mti/data,-6.22927618027,0.290021747351,89.541885376
2018/12/16/17:22:07.945705,103854,2351,806300000,mti/data,-6.22772550583,0.290364325047,89.5339508057
2018/12/16/17:22:07.955759,103855,2351,816300000,mti/data,-6.22665214539,0.29497346282,89.5241546631
2018/12/16/17:22:07.965709,103856,2351,826300000,mti/data,-6.22773838043,0.299265503883,89.5133590698
2018/12/16/17:22:07.975500,103857,2351,836300000,mti/data,-6.22366952896,0.298498749733,89.5049438477
2018/12/16/17:22:07.985522,103858,2351,846300000,mti/data,-6.22227430344,0.299438148737,89.4960632324
2018/12/16/17:22:07.995495,103859,2351,856300000,mti/data,-6.22256135941,0.307070761919,89.4867248535
2018/12/16/17:22:08.005538,103860,2351,866300000,mti/data,-6.22660160065,0.312924772501,89.4763946533
2018/12/16/17:22:08.015587,103861,2351,876300000,mti/data,-6.22545385361,0.310831308365,89.4673233032
2018/12/16/17:22:08.025996,103862,2351,886300000,mti/data,-6.22520589828,0.311296999454,89.4571075439
2018/12/16/17:22:08.035846,103863,2351,896300000,mti/data,-6.22279596329,0.316037267447,89.4467010498
2018/12/16/17:22:08.045508,103864,2351,906300000,mti/data,-6.21952152252,0.318206071854,89.4370574951
2018/12/16/17:22:08.055757,103865,2351,916300000,mti/data,-6.21739578247,0.318070113659,89.4279785156
2018/12/16/17:22:08.065852,103866,2351,926300000,mti/data,-6.21386098862,0.319327741861,89.4184570312
2018/12/16/17:22:08.075707,103867,2351,936300000,mti/data,-6.20950317383,0.322534114122,89.4075088501
2018/12/16/17:22:08.085597,103868,2351,946300000,mti/data,-6.20351743698,0.323964208364,89.3974075317
2018/12/16/17:22:08.095552,103869,2351,956300000,mti/data,-6.19813108444,0.322889953852,89.3885650635
2018/12/16/17:22:08.106600,103870,2351,966300000,mti/data,-6.19278526306,0.324811816216,89.3783493042
2018/12/16/17:22:08.115766,103871,2351,976300000,mti/data,-6.18864345551,0.329109370708,89.3694915771
2018/12/16/17:22:08.125568,103872,2351,986300000,mti/data,-6.18712949753,0.330349683762,89.3583068848
2018/12/16/17:22:08.135700,103873,2351,996300000,mti/data,-6.18333959579,0.330756336451,89.350944519
2018/12/16/17:22:08.145754,103874,2352,6300000,mti/data,-6.18201541901,0.340774029493,89.3473205566
2018/12/16/17:22:08.155526,103875,2352,16300000,mti/data,-6.18023633957,0.345430970192,89.3369598389
2018/12/16/17:22:08.165750,103876,2352,26300000,mti/data,-6.18162488937,0.344367623329,89.3272476196
2018/12/16/17:22:08.175581,103877,2352,36300000,mti/data,-6.18363428116,0.347849577665,89.3162918091
2018/12/16/17:22:08.185635,103878,2352,46300000,mti/data,-6.1838684082,0.354784280062,89.3053359985
2018/12/16/17:22:08.195513,103879,2352,56300000,mti/data,-6.18495178223,0.357000529766,89.2935333252
2018/12/16/17:22:08.205537,103880,2352,66300000,mti/data,-6.18482446671,0.358986437321,89.2844009399
2018/12/16/17:22:08.215820,103881,2352,76300000,mti/data,-6.18475723267,0.366369187832,89.2733764648
2018/12/16/17:22:08.225604,103882,2352,86300000,mti/data,-6.18608951569,0.36683383584,89.2621154785
2018/12/16/17:22:08.235781,103883,2352,96300000,mti/data,-6.18772411346,0.37055465579,89.2511291504
2018/12/16/17:22:08.246122,103884,2352,106300000,mti/data,-6.18467473984,0.371460288763,89.2410049438
2018/12/16/17:22:08.255605,103885,2352,116300000,mti/data,-6.18147468567,0.375789493322,89.2305297852
2018/12/16/17:22:08.266181,103886,2352,126300000,mti/data,-6.17905235291,0.378805100918,89.21824646
2018/12/16/17:22:08.275549,103887,2352,136300000,mti/data,-6.17758321762,0.38026291132,89.2083587646
2018/12/16/17:22:08.285702,103888,2352,146300000,mti/data,-6.1779499054,0.381854593754,89.19871521
2018/12/16/17:22:08.295726,103889,2352,156300000,mti/data,-6.17768764496,0.384093225002,89.1885986328
2018/12/16/17:22:08.305874,103890,2352,166300000,mti/data,-6.177754879,0.384500950575,89.1791229248
2018/12/16/17:22:08.315632,103891,2352,176300000,mti/data,-6.17731666565,0.384189724922,89.1704025269
2018/12/16/17:22:08.325608,103892,2352,186300000,mti/data,-6.17757987976,0.385178804398,89.1597976685
2018/12/16/17:22:08.335580,103893,2352,196300000,mti/data,-6.18182563782,0.384876400232,89.1510009766
2018/12/16/17:22:08.345721,103894,2352,206300000,mti/data,-6.18513870239,0.382079601288,89.1416778564
2018/12/16/17:22:08.355721,103895,2352,216300000,mti/data,-6.18812561035,0.378186881542,89.1339111328
2018/12/16/17:22:08.366045,103896,2352,226300000,mti/data,-6.19056558609,0.380807459354,89.1258773804
2018/12/16/17:22:08.375686,103897,2352,236300000,mti/data,-6.19292926788,0.380295097828,89.1174850464
2018/12/16/17:22:08.385900,103898,2352,246300000,mti/data,-6.19844102859,0.376759976149,89.1085891724
2018/12/16/17:22:08.395581,103899,2352,256300000,mti/data,-6.20392990112,0.379682332277,89.0990982056
2018/12/16/17:22:08.405947,103900,2352,266300000,mti/data,-6.20559692383,0.377954632044,89.0886230469
2018/12/16/17:22:08.415962,103901,2352,276300000,mti/data,-6.20752716064,0.378392279148,89.0788192749
2018/12/16/17:22:08.425792,103902,2352,286300000,mti/data,-6.21510314941,0.374980717897,89.0699157715
2018/12/16/17:22:08.435888,103903,2352,296300000,mti/data,-6.21903753281,0.372418910265,89.059677124
2018/12/16/17:22:08.446041,103904,2352,306300000,mti/data,-6.22019004822,0.369786858559,89.0478973389
2018/12/16/17:22:08.455509,103905,2352,316300000,mti/data,-6.22002601624,0.373085260391,89.038230896
2018/12/16/17:22:08.465739,103906,2352,326300000,mti/data,-6.22150802612,0.369188398123,89.0256576538
2018/12/16/17:22:08.475523,103907,2352,336300000,mti/data,-6.21994686127,0.363233834505,89.0166168213
2018/12/16/17:22:08.485976,103908,2352,346300000,mti/data,-6.21640253067,0.36477175355,89.0070419312
2018/12/16/17:22:08.495659,103909,2352,356300000,mti/data,-6.21505022049,0.367702156305,88.9962844849
2018/12/16/17:22:08.505788,103910,2352,366300000,mti/data,-6.21337842941,0.363155901432,88.9848556519
2018/12/16/17:22:08.515639,103911,2352,376300000,mti/data,-6.21102809906,0.35601118207,88.9764709473
2018/12/16/17:22:08.525761,103912,2352,386300000,mti/data,-6.20949935913,0.353427410126,88.9655075073
2018/12/16/17:22:08.535743,103913,2352,396300000,mti/data,-6.2105383873,0.354084610939,88.9561080933
2018/12/16/17:22:08.545569,103914,2352,406300000,mti/data,-6.21336603165,0.352193892002,88.9462509155
2018/12/16/17:22:08.555653,103915,2352,416300000,mti/data,-6.21677207947,0.345248311758,88.9384231567
2018/12/16/17:22:08.566087,103916,2352,426300000,mti/data,-6.22249221802,0.344678580761,88.9296798706
2018/12/16/17:22:08.575610,103917,2352,436300000,mti/data,-6.22420454025,0.346121937037,88.9201126099
2018/12/16/17:22:08.586014,103918,2352,446300000,mti/data,-6.22360515594,0.346403509378,88.9121627808
2018/12/16/17:22:08.595639,103919,2352,456300000,mti/data,-6.22653770447,0.343648761511,88.9038238525
2018/12/16/17:22:08.606060,103920,2352,466300000,mti/data,-6.22575998306,0.344238489866,88.8952102661
2018/12/16/17:22:08.615885,103921,2352,476300000,mti/data,-6.22151136398,0.347551822662,88.8870620728
2018/12/16/17:22:08.625684,103922,2352,486300000,mti/data,-6.21877861023,0.344806283712,88.87840271
2018/12/16/17:22:08.635987,103923,2352,496300000,mti/data,-6.21776533127,0.340171247721,88.8701705933
2018/12/16/17:22:08.645753,103924,2352,506300000,mti/data,-6.21842002869,0.345514893532,88.8662338257
2018/12/16/17:22:08.655802,103925,2352,516300000,mti/data,-6.21379232407,0.346904844046,88.8573913574
2018/12/16/17:22:08.666342,103926,2352,526300000,mti/data,-6.21286296844,0.343281626701,88.8498764038
2018/12/16/17:22:08.675580,103927,2352,536300000,mti/data,-6.21467733383,0.34304702282,88.8420181274
2018/12/16/17:22:08.686022,103928,2352,546300000,mti/data,-6.21902608871,0.339794099331,88.8352661133
2018/12/16/17:22:08.695781,103929,2352,556300000,mti/data,-6.21787834167,0.338984727859,88.8295974731
2018/12/16/17:22:08.705627,103930,2352,566300000,mti/data,-6.21794176102,0.339150369167,88.822807312
2018/12/16/17:22:08.715748,103931,2352,576300000,mti/data,-6.21569108963,0.341083526611,88.816444397
2018/12/16/17:22:08.725597,103932,2352,586300000,mti/data,-6.21583366394,0.338829547167,88.8094177246
2018/12/16/17:22:08.735749,103933,2352,596300000,mti/data,-6.21741390228,0.336021393538,88.8019866943
2018/12/16/17:22:08.745613,103934,2352,606300000,mti/data,-6.21666526794,0.332935214043,88.7959442139
2018/12/16/17:22:08.755617,103935,2352,616300000,mti/data,-6.21537780762,0.333293318748,88.7879486084
2018/12/16/17:22:08.766360,103936,2352,626300000,mti/data,-6.20959854126,0.333449393511,88.7804031372
2018/12/16/17:22:08.775595,103937,2352,636300000,mti/data,-6.2063331604,0.330837249756,88.7732009888
2018/12/16/17:22:08.785571,103938,2352,646300000,mti/data,-6.20631408691,0.33048543334,88.7662124634
2018/12/16/17:22:08.795596,103939,2352,656300000,mti/data,-6.20500898361,0.327502280474,88.7582321167
2018/12/16/17:22:08.805603,103940,2352,666300000,mti/data,-6.20131635666,0.32342761755,88.7504730225
2018/12/16/17:22:08.815796,103941,2352,676300000,mti/data,-6.19853878021,0.320897191763,88.7433776855
2018/12/16/17:22:08.825525,103942,2352,686300000,mti/data,-6.1973028183,0.319565713406,88.7363891602
2018/12/16/17:22:08.835938,103943,2352,696300000,mti/data,-6.19794273376,0.31828802824,88.7296600342
2018/12/16/17:22:08.845840,103944,2352,706300000,mti/data,-6.20301532745,0.31789124012,88.7222518921
2018/12/16/17:22:08.855613,103945,2352,716300000,mti/data,-6.20375776291,0.313940554857,88.7140960693
2018/12/16/17:22:08.865883,103946,2352,726300000,mti/data,-6.20655584335,0.313454955816,88.7059860229
2018/12/16/17:22:08.875801,103947,2352,736300000,mti/data,-6.21031332016,0.313132017851,88.6983795166
2018/12/16/17:22:08.885617,103948,2352,746300000,mti/data,-6.21355056763,0.309587270021,88.6930236816
2018/12/16/17:22:08.895650,103949,2352,756300000,mti/data,-6.21558618546,0.310526669025,88.6845550537
2018/12/16/17:22:08.905604,103950,2352,766300000,mti/data,-6.21419477463,0.310974061489,88.6787796021
2018/12/16/17:22:08.915883,103951,2352,776300000,mti/data,-6.21043777466,0.313602477312,88.6702957153
2018/12/16/17:22:08.925581,103952,2352,786300000,mti/data,-6.20569610596,0.310102134943,88.6640167236
2018/12/16/17:22:08.935593,103953,2352,796300000,mti/data,-6.2014040947,0.307889342308,88.658744812
2018/12/16/17:22:08.945603,103954,2352,806300000,mti/data,-6.19573926926,0.304645359516,88.6535110474
2018/12/16/17:22:08.955593,103955,2352,816300000,mti/data,-6.19392204285,0.307429134846,88.6483535767
2018/12/16/17:22:08.965788,103956,2352,826300000,mti/data,-6.19305706024,0.305333942175,88.64402771
2018/12/16/17:22:08.975635,103957,2352,836300000,mti/data,-6.19166898727,0.302946358919,88.6399383545
2018/12/16/17:22:08.985609,103958,2352,846300000,mti/data,-6.19517564774,0.304463744164,88.6349029541
2018/12/16/17:22:08.995551,103959,2352,856300000,mti/data,-6.20022773743,0.301851570606,88.6302108765
2018/12/16/17:22:09.005669,103960,2352,866300000,mti/data,-6.20425415039,0.30039948225,88.6280212402
2018/12/16/17:22:09.016200,103961,2352,876300000,mti/data,-6.20743370056,0.299634069204,88.6249160767
2018/12/16/17:22:09.025620,103962,2352,886300000,mti/data,-6.20894765854,0.297572433949,88.6199569702
2018/12/16/17:22:09.035761,103963,2352,896300000,mti/data,-6.21265029907,0.298643916845,88.6158676147
2018/12/16/17:22:09.045705,103964,2352,906300000,mti/data,-6.21554327011,0.298566043377,88.6114044189
2018/12/16/17:22:09.055686,103965,2352,916300000,mti/data,-6.21450901031,0.292554706335,88.6085662842
2018/12/16/17:22:09.065736,103966,2352,926300000,mti/data,-6.21050167084,0.294474452734,88.6034317017
2018/12/16/17:22:09.075598,103967,2352,936300000,mti/data,-6.20646047592,0.297308832407,88.5989303589
2018/12/16/17:22:09.085709,103968,2352,946300000,mti/data,-6.20141553879,0.298800557852,88.5960006714
2018/12/16/17:22:09.095579,103969,2352,956300000,mti/data,-6.19817733765,0.296469688416,88.5927429199
2018/12/16/17:22:09.105725,103970,2352,966300000,mti/data,-6.19252490997,0.295473575592,88.587272644
2018/12/16/17:22:09.115751,103971,2352,976300000,mti/data,-6.18840837479,0.299671858549,88.5797576904
2018/12/16/17:22:09.125752,103972,2352,986300000,mti/data,-6.18494033813,0.301573902369,88.5742034912
2018/12/16/17:22:09.135619,103973,2352,996300000,mti/data,-6.18233394623,0.298519909382,88.5695037842
2018/12/16/17:22:09.145591,103974,2353,6300000,mti/data,-6.17996120453,0.298980951309,88.5645980835
2018/12/16/17:22:09.155725,103975,2353,16300000,mti/data,-6.17899894714,0.303353637457,88.5598831177
2018/12/16/17:22:09.165996,103976,2353,26300000,mti/data,-6.17995929718,0.307599246502,88.5556488037
2018/12/16/17:22:09.175694,103977,2353,36300000,mti/data,-6.1840171814,0.306338697672,88.5509643555
2018/12/16/17:22:09.185752,103978,2353,46300000,mti/data,-6.18934011459,0.307151436806,88.5467758179
2018/12/16/17:22:09.195787,103979,2353,56300000,mti/data,-6.19177484512,0.310505777597,88.5412902832
2018/12/16/17:22:09.205917,103980,2353,66300000,mti/data,-6.19251394272,0.313832312822,88.536315918
2018/12/16/17:22:09.216394,103981,2353,76300000,mti/data,-6.19481134415,0.317616939545,88.5313644409
2018/12/16/17:22:09.225659,103982,2353,86300000,mti/data,-6.19752311707,0.315355241299,88.5255279541
2018/12/16/17:22:09.235756,103983,2353,96300000,mti/data,-6.19841146469,0.313055187464,88.519569397
2018/12/16/17:22:09.245761,103984,2353,106300000,mti/data,-6.19601392746,0.317006707191,88.5123977661
2018/12/16/17:22:09.255743,103985,2353,116300000,mti/data,-6.18882799149,0.315347582102,88.5087890625
2018/12/16/17:22:09.265832,103986,2353,126300000,mti/data,-6.1852440834,0.315108537674,88.5026168823
2018/12/16/17:22:09.275593,103987,2353,136300000,mti/data,-6.18194198608,0.311974287033,88.497795105
2018/12/16/17:22:09.285618,103988,2353,146300000,mti/data,-6.17228317261,0.306998193264,88.4936599731
2018/12/16/17:22:09.295643,103989,2353,156300000,mti/data,-6.15901184082,0.310327321291,88.4883041382
2018/12/16/17:22:09.305887,103990,2353,166300000,mti/data,-6.1493678093,0.314854353666,88.4819030762
2018/12/16/17:22:09.315651,103991,2353,176300000,mti/data,-6.1460313797,0.306615263224,88.4776992798
2018/12/16/17:22:09.325631,103992,2353,186300000,mti/data,-6.14482212067,0.299997597933,88.4735870361
2018/12/16/17:22:09.335629,103993,2353,196300000,mti/data,-6.13941669464,0.304111778736,88.4707565308
2018/12/16/17:22:09.345716,103994,2353,206300000,mti/data,-6.1312918663,0.310206055641,88.465675354
2018/12/16/17:22:09.355608,103995,2353,216300000,mti/data,-6.13142824173,0.306319445372,88.4616394043
2018/12/16/17:22:09.365761,103996,2353,226300000,mti/data,-6.13539886475,0.303046703339,88.4574966431
2018/12/16/17:22:09.376093,103997,2353,236300000,mti/data,-6.13380622864,0.305877387524,88.4542694092
2018/12/16/17:22:09.385824,103998,2353,246300000,mti/data,-6.13279438019,0.311787068844,88.4499053955
2018/12/16/17:22:09.395746,103999,2353,256300000,mti/data,-6.13469648361,0.317866683006,88.4457397461
2018/12/16/17:22:09.406048,104000,2353,266300000,mti/data,-6.1360502243,0.315079510212,88.442199707
2018/12/16/17:22:09.415733,104001,2353,276300000,mti/data,-6.13690900803,0.315655767918,88.4399032593
2018/12/16/17:22:09.425718,104002,2353,286300000,mti/data,-6.13489484787,0.31958001852,88.43384552
2018/12/16/17:22:09.435635,104003,2353,296300000,mti/data,-6.12792444229,0.32412686944,88.4301147461
2018/12/16/17:22:09.445890,104004,2353,306300000,mti/data,-6.12318611145,0.323146730661,88.4248580933
2018/12/16/17:22:09.455663,104005,2353,316300000,mti/data,-6.12198591232,0.320658564568,88.4213638306
2018/12/16/17:22:09.465749,104006,2353,326300000,mti/data,-6.1192111969,0.324444919825,88.4166946411
2018/12/16/17:22:09.475806,104007,2353,336300000,mti/data,-6.11524057388,0.328037649393,88.4130859375
2018/12/16/17:22:09.485883,104008,2353,346300000,mti/data,-6.11328840256,0.325916856527,88.4091644287
2018/12/16/17:22:09.495682,104009,2353,356300000,mti/data,-6.11175966263,0.324829310179,88.4045944214
2018/12/16/17:22:09.505855,104010,2353,366300000,mti/data,-6.11048030853,0.324843615294,88.4016036987
2018/12/16/17:22:09.516075,104011,2353,376300000,mti/data,-6.10788583755,0.32913261652,88.3980636597
2018/12/16/17:22:09.525748,104012,2353,386300000,mti/data,-6.10780525208,0.32937169075,88.395904541
2018/12/16/17:22:09.536154,104013,2353,396300000,mti/data,-6.1114192009,0.332419931889,88.3928222656
2018/12/16/17:22:09.545659,104014,2353,406300000,mti/data,-6.11371946335,0.332682877779,88.3892822266
2018/12/16/17:22:09.555706,104015,2353,416300000,mti/data,-6.11472702026,0.334035933018,88.3862686157
2018/12/16/17:22:09.566124,104016,2353,426300000,mti/data,-6.11772871017,0.341112524271,88.3840866089
2018/12/16/17:22:09.575647,104017,2353,436300000,mti/data,-6.12008190155,0.34302097559,88.3820800781
2018/12/16/17:22:09.585626,104018,2353,446300000,mti/data,-6.12046098709,0.342547565699,88.3812179565
2018/12/16/17:22:09.595774,104019,2353,456300000,mti/data,-6.12036705017,0.343115985394,88.3805923462
2018/12/16/17:22:09.605766,104020,2353,466300000,mti/data,-6.12044906616,0.346908926964,88.3792495728
2018/12/16/17:22:09.615695,104021,2353,476300000,mti/data,-6.11910533905,0.345877557993,88.3774337769
2018/12/16/17:22:09.625790,104022,2353,486300000,mti/data,-6.1177687645,0.349493771791,88.377746582
2018/12/16/17:22:09.635813,104023,2353,496300000,mti/data,-6.11997747421,0.352070093155,88.3763198853
2018/12/16/17:22:09.645708,104024,2353,506300000,mti/data,-6.12605285645,0.354008167982,88.3762435913
2018/12/16/17:22:09.655713,104025,2353,516300000,mti/data,-6.12733030319,0.353515148163,88.3748931885
2018/12/16/17:22:09.665817,104026,2353,526300000,mti/data,-6.12593317032,0.357134610415,88.3716583252
2018/12/16/17:22:09.675734,104027,2353,536300000,mti/data,-6.12451267242,0.358615458012,88.3694152832
2018/12/16/17:22:09.685680,104028,2353,546300000,mti/data,-6.12746953964,0.356171518564,88.3665924072
2018/12/16/17:22:09.695689,104029,2353,556300000,mti/data,-6.13078594208,0.354091882706,88.3634796143
2018/12/16/17:22:09.705645,104030,2353,566300000,mti/data,-6.13171768188,0.354992181063,88.3620605469
2018/12/16/17:22:09.715696,104031,2353,576300000,mti/data,-6.13239383698,0.354486733675,88.3606109619
2018/12/16/17:22:09.725694,104032,2353,586300000,mti/data,-6.13607740402,0.351850032806,88.3575515747
2018/12/16/17:22:09.735974,104033,2353,596300000,mti/data,-6.1407160759,0.35068655014,88.3559417725
2018/12/16/17:22:09.745646,104034,2353,606300000,mti/data,-6.1445183754,0.353455990553,88.3533401489
2018/12/16/17:22:09.755681,104035,2353,616300000,mti/data,-6.14485120773,0.35200086236,88.3507537842
2018/12/16/17:22:09.765818,104036,2353,626300000,mti/data,-6.14866876602,0.354319602251,88.348197937
2018/12/16/17:22:09.775672,104037,2353,636300000,mti/data,-6.15030002594,0.356249392033,88.3475112915
2018/12/16/17:22:09.785784,104038,2353,646300000,mti/data,-6.15425825119,0.351819753647,88.3458099365
2018/12/16/17:22:09.795711,104039,2353,656300000,mti/data,-6.15573596954,0.348793655634,88.34400177
2018/12/16/17:22:09.805728,104040,2353,666300000,mti/data,-6.15948295593,0.353273063898,88.3409576416
2018/12/16/17:22:09.815725,104041,2353,676300000,mti/data,-6.15843963623,0.352444678545,88.3375701904
2018/12/16/17:22:09.825667,104042,2353,686300000,mti/data,-6.15990257263,0.348661512136,88.3364257812
2018/12/16/17:22:09.835854,104043,2353,696300000,mti/data,-6.16224336624,0.351112365723,88.3346862793
2018/12/16/17:22:09.845666,104044,2353,706300000,mti/data,-6.16307926178,0.357461154461,88.3315963745
2018/12/16/17:22:09.855706,104045,2353,716300000,mti/data,-6.16276025772,0.354793041945,88.3322677612
2018/12/16/17:22:09.866084,104046,2353,726300000,mti/data,-6.1596531868,0.354859858751,88.3314208984
2018/12/16/17:22:09.875725,104047,2353,736300000,mti/data,-6.15548372269,0.354049384594,88.3307800293
2018/12/16/17:22:09.885805,104048,2353,746300000,mti/data,-6.15292406082,0.358486711979,88.3301315308
2018/12/16/17:22:09.895771,104049,2353,756300000,mti/data,-6.15682792664,0.366156995296,88.3323135376
2018/12/16/17:22:09.905705,104050,2353,766300000,mti/data,-6.15509843826,0.358848124743,88.3313446045
2018/12/16/17:22:09.915946,104051,2353,776300000,mti/data,-6.15023899078,0.357760578394,88.329788208
2018/12/16/17:22:09.925962,104052,2353,786300000,mti/data,-6.1498003006,0.3681409657,88.3287887573
2018/12/16/17:22:09.935823,104053,2353,796300000,mti/data,-6.14954328537,0.367670983076,88.3260574341
2018/12/16/17:22:09.945817,104054,2353,806300000,mti/data,-6.14905691147,0.355363577604,88.3254241943
2018/12/16/17:22:09.955680,104055,2353,816300000,mti/data,-6.14627742767,0.357502788305,88.3227767944
2018/12/16/17:22:09.965714,104056,2353,826300000,mti/data,-6.14295244217,0.36241671443,88.3191452026
2018/12/16/17:22:09.975634,104057,2353,836300000,mti/data,-6.1400384903,0.359790682793,88.319229126
2018/12/16/17:22:09.985678,104058,2353,846300000,mti/data,-6.13931703568,0.354865163565,88.3189849854
2018/12/16/17:22:09.995724,104059,2353,856300000,mti/data,-6.13864517212,0.352679073811,88.318359375
2018/12/16/17:22:10.005752,104060,2353,866300000,mti/data,-6.13407754898,0.358810156584,88.3152923584
2018/12/16/17:22:10.015901,104061,2353,876300000,mti/data,-6.13104248047,0.359033614397,88.3147888184
2018/12/16/17:22:10.025770,104062,2353,886300000,mti/data,-6.13017702103,0.352700203657,88.3123779297
2018/12/16/17:22:10.035795,104063,2353,896300000,mti/data,-6.12879991531,0.351419448853,88.3099517822
2018/12/16/17:22:10.045812,104064,2353,906300000,mti/data,-6.12357854843,0.357342451811,88.3096160889
2018/12/16/17:22:10.055729,104065,2353,916300000,mti/data,-6.12277841568,0.358250468969,88.3069763184
2018/12/16/17:22:10.065888,104066,2353,926300000,mti/data,-6.12315797806,0.352742016315,88.3051605225
2018/12/16/17:22:10.075635,104067,2353,936300000,mti/data,-6.12098741531,0.354587048292,88.3041229248
2018/12/16/17:22:10.085785,104068,2353,946300000,mti/data,-6.11781692505,0.357078671455,88.3016052246
2018/12/16/17:22:10.095675,104069,2353,956300000,mti/data,-6.11628389359,0.357971459627,88.2999038696
2018/12/16/17:22:10.105763,104070,2353,966300000,mti/data,-6.11858224869,0.354754626751,88.2982025146
2018/12/16/17:22:10.115733,104071,2353,976300000,mti/data,-6.11858320236,0.353273063898,88.2966461182
2018/12/16/17:22:10.125838,104072,2353,986300000,mti/data,-6.1153717041,0.351680546999,88.2962188721
2018/12/16/17:22:10.135733,104073,2353,996300000,mti/data,-6.11258506775,0.353837460279,88.2951431274
2018/12/16/17:22:10.145678,104074,2354,6300000,mti/data,-6.11500692368,0.353467345238,88.2963867188
2018/12/16/17:22:10.155857,104075,2354,16300000,mti/data,-6.11641836166,0.351445943117,88.2965164185
2018/12/16/17:22:10.165791,104076,2354,26300000,mti/data,-6.11621570587,0.351102530956,88.2959823608
2018/12/16/17:22:10.175771,104077,2354,36300000,mti/data,-6.11758089066,0.350194990635,88.2943344116
2018/12/16/17:22:10.185697,104078,2354,46300000,mti/data,-6.12056875229,0.349670320749,88.2920455933
2018/12/16/17:22:10.195790,104079,2354,56300000,mti/data,-6.12131738663,0.344998538494,88.2916183472
2018/12/16/17:22:10.205781,104080,2354,66300000,mti/data,-6.12210607529,0.338942021132,88.290977478
2018/12/16/17:22:10.215821,104081,2354,76300000,mti/data,-6.12238740921,0.336791098118,88.2914428711
2018/12/16/17:22:10.225892,104082,2354,86300000,mti/data,-6.12553548813,0.332989215851,88.2916030884
2018/12/16/17:22:10.235831,104083,2354,96300000,mti/data,-6.12714242935,0.320793867111,88.2907943726
2018/12/16/17:22:10.245743,104084,2354,106300000,mti/data,-6.12752532959,0.313458800316,88.2892303467
2018/12/16/17:22:10.255868,104085,2354,116300000,mti/data,-6.1274766922,0.316372990608,88.2867355347
2018/12/16/17:22:10.265943,104086,2354,126300000,mti/data,-6.12875175476,0.311594367027,88.2849121094
2018/12/16/17:22:10.275731,104087,2354,136300000,mti/data,-6.12888765335,0.309503823519,88.2848129272
2018/12/16/17:22:10.285858,104088,2354,146300000,mti/data,-6.13139104843,0.309349119663,88.2855758667
2018/12/16/17:22:10.296118,104089,2354,156300000,mti/data,-6.1307759285,0.312420994043,88.2830047607
2018/12/16/17:22:10.305833,104090,2354,166300000,mti/data,-6.13284778595,0.308766573668,88.2830734253
2018/12/16/17:22:10.315947,104091,2354,176300000,mti/data,-6.13384485245,0.308705955744,88.2818908691
2018/12/16/17:22:10.325882,104092,2354,186300000,mti/data,-6.13294458389,0.302725017071,88.2805557251
2018/12/16/17:22:10.335922,104093,2354,196300000,mti/data,-6.13134670258,0.306087613106,88.2800979614
2018/12/16/17:22:10.345802,104094,2354,206300000,mti/data,-6.12904453278,0.308556377888,88.2792663574
2018/12/16/17:22:10.355838,104095,2354,216300000,mti/data,-6.12698459625,0.303913265467,88.2798309326
2018/12/16/17:22:10.366109,104096,2354,226300000,mti/data,-6.12515163422,0.300131201744,88.2803421021
2018/12/16/17:22:10.375806,104097,2354,236300000,mti/data,-6.122194767,0.30325371027,88.2807998657
2018/12/16/17:22:10.385831,104098,2354,246300000,mti/data,-6.12068605423,0.305483400822,88.2809829712
2018/12/16/17:22:10.395724,104099,2354,256300000,mti/data,-6.11997795105,0.303012728691,88.2803649902
2018/12/16/17:22:10.405770,104100,2354,266300000,mti/data,-6.11938667297,0.299913942814,88.2808074951
2018/12/16/17:22:10.415766,104101,2354,276300000,mti/data,-6.11845970154,0.298577994108,88.2804870605
2018/12/16/17:22:10.425880,104102,2354,286300000,mti/data,-6.11304569244,0.300716280937,88.2802810669
2018/12/16/17:22:10.435664,104103,2354,296300000,mti/data,-6.11500072479,0.299280017614,88.2794342041
2018/12/16/17:22:10.445785,104104,2354,306300000,mti/data,-6.11553621292,0.293635606766,88.2794494629
2018/12/16/17:22:10.455821,104105,2354,316300000,mti/data,-6.11579799652,0.288861423731,88.280128479
2018/12/16/17:22:10.466048,104106,2354,326300000,mti/data,-6.11349010468,0.292876392603,88.2819595337
2018/12/16/17:22:10.475722,104107,2354,336300000,mti/data,-6.11016511917,0.293555349112,88.2822875977
2018/12/16/17:22:10.485717,104108,2354,346300000,mti/data,-6.10784435272,0.283683031797,88.2828216553
2018/12/16/17:22:10.495800,104109,2354,356300000,mti/data,-6.10781908035,0.279756486416,88.2834091187
2018/12/16/17:22:10.505925,104110,2354,366300000,mti/data,-6.10739564896,0.284660190344,88.2829742432
2018/12/16/17:22:10.515794,104111,2354,376300000,mti/data,-6.1042881012,0.277628868818,88.2822799683
2018/12/16/17:22:10.525795,104112,2354,386300000,mti/data,-6.10868453979,0.272301465273,88.2813415527
2018/12/16/17:22:10.535845,104113,2354,396300000,mti/data,-6.10388851166,0.270379811525,88.2800979614
2018/12/16/17:22:10.545717,104114,2354,406300000,mti/data,-6.09739303589,0.269770413637,88.2806549072
2018/12/16/17:22:10.555915,104115,2354,416300000,mti/data,-6.09779644012,0.273112565279,88.2813873291
2018/12/16/17:22:10.565835,104116,2354,426300000,mti/data,-6.10118627548,0.265484213829,88.2811050415
2018/12/16/17:22:10.575859,104117,2354,436300000,mti/data,-6.09930372238,0.258475750685,88.2836837769
2018/12/16/17:22:10.585808,104118,2354,446300000,mti/data,-6.09263753891,0.265246033669,88.2841339111
2018/12/16/17:22:10.595757,104119,2354,456300000,mti/data,-6.0914773941,0.269716203213,88.2852478027
2018/12/16/17:22:10.605800,104120,2354,466300000,mti/data,-6.09428310394,0.262877821922,88.2850189209
2018/12/16/17:22:10.615968,104121,2354,476300000,mti/data,-6.09588098526,0.261950194836,88.2874679565
2018/12/16/17:22:10.625972,104122,2354,486300000,mti/data,-6.09550333023,0.268673539162,88.2881774902
2018/12/16/17:22:10.635726,104123,2354,496300000,mti/data,-6.09552049637,0.271115988493,88.2881851196
2018/12/16/17:22:10.645785,104124,2354,506300000,mti/data,-6.09824943542,0.272779583931,88.2872161865
2018/12/16/17:22:10.655857,104125,2354,516300000,mti/data,-6.09807825089,0.274809896946,88.2900390625
2018/12/16/17:22:10.666072,104126,2354,526300000,mti/data,-6.10022068024,0.278135806322,88.2911071777
2018/12/16/17:22:10.675715,104127,2354,536300000,mti/data,-6.10435390472,0.279863655567,88.2910461426
2018/12/16/17:22:10.685861,104128,2354,546300000,mti/data,-6.10398197174,0.282700538635,88.2918624878
2018/12/16/17:22:10.695712,104129,2354,556300000,mti/data,-6.10412979126,0.28571587801,88.2908935547
2018/12/16/17:22:10.705881,104130,2354,566300000,mti/data,-6.1013712883,0.287890046835,88.2892532349
2018/12/16/17:22:10.716027,104131,2354,576300000,mti/data,-6.10221767426,0.290850549936,88.2885665894
2018/12/16/17:22:10.725767,104132,2354,586300000,mti/data,-6.10169649124,0.290407449007,88.2881622314
2018/12/16/17:22:10.735734,104133,2354,596300000,mti/data,-6.10157489777,0.289548546076,88.2858047485
2018/12/16/17:22:10.745778,104134,2354,606300000,mti/data,-6.10184335709,0.291719317436,88.2825012207
2018/12/16/17:22:10.755728,104135,2354,616300000,mti/data,-6.09910297394,0.290007472038,88.28125
2018/12/16/17:22:10.765879,104136,2354,626300000,mti/data,-6.0991435051,0.291134029627,88.2792816162
2018/12/16/17:22:10.775920,104137,2354,636300000,mti/data,-6.10225009918,0.291673839092,88.2780838013
2018/12/16/17:22:10.785857,104138,2354,646300000,mti/data,-6.10423135757,0.292764544487,88.2743301392
2018/12/16/17:22:10.795913,104139,2354,656300000,mti/data,-6.1023979187,0.295671880245,88.2733535767
2018/12/16/17:22:10.805817,104140,2354,666300000,mti/data,-6.10327100754,0.296736329794,88.2708892822
2018/12/16/17:22:10.815984,104141,2354,676300000,mti/data,-6.1035785675,0.292145758867,88.2680435181
2018/12/16/17:22:10.825833,104142,2354,686300000,mti/data,-6.10264587402,0.295014053583,88.2670059204
2018/12/16/17:22:10.835738,104143,2354,696300000,mti/data,-6.09967184067,0.297995060682,88.2657470703
2018/12/16/17:22:10.845753,104144,2354,706300000,mti/data,-6.09694576263,0.298794806004,88.2614822388
2018/12/16/17:22:10.855800,104145,2354,716300000,mti/data,-6.09532880783,0.298184782267,88.2614212036
2018/12/16/17:22:10.866073,104146,2354,726300000,mti/data,-6.09217977524,0.299638748169,88.2605285645
2018/12/16/17:22:10.875868,104147,2354,736300000,mti/data,-6.08821582794,0.29874381423,88.2604904175
2018/12/16/17:22:10.885976,104148,2354,746300000,mti/data,-6.08817052841,0.302712827921,88.2577972412
2018/12/16/17:22:10.895890,104149,2354,756300000,mti/data,-6.08816814423,0.309675455093,88.2568511963
2018/12/16/17:22:10.905748,104150,2354,766300000,mti/data,-6.0882267952,0.307114094496,88.2576599121
2018/12/16/17:22:10.916019,104151,2354,776300000,mti/data,-6.08863306046,0.309088259935,88.256149292
2018/12/16/17:22:10.925783,104152,2354,786300000,mti/data,-6.08777523041,0.313066899776,88.2558364868
2018/12/16/17:22:10.935847,104153,2354,796300000,mti/data,-6.08413267136,0.319569349289,88.2558059692
2018/12/16/17:22:10.945864,104154,2354,806300000,mti/data,-6.08289813995,0.31634670496,88.2549591064
2018/12/16/17:22:10.955789,104155,2354,816300000,mti/data,-6.08303642273,0.31278860569,88.2531356812
2018/12/16/17:22:10.965814,104156,2354,826300000,mti/data,-6.08112668991,0.315611839294,88.2530288696
2018/12/16/17:22:10.975886,104157,2354,836300000,mti/data,-6.08032178879,0.317915171385,88.2523117065
2018/12/16/17:22:10.985787,104158,2354,846300000,mti/data,-6.07992935181,0.315995663404,88.2502593994
2018/12/16/17:22:10.995891,104159,2354,856300000,mti/data,-6.07557725906,0.314218908548,88.2484741211
2018/12/16/17:22:11.005848,104160,2354,866300000,mti/data,-6.07142829895,0.316543728113,88.247467041
2018/12/16/17:22:11.015895,104161,2354,876300000,mti/data,-6.07163524628,0.317813336849,88.2442092896
2018/12/16/17:22:11.025963,104162,2354,886300000,mti/data,-6.07034635544,0.311672240496,88.2413635254
2018/12/16/17:22:11.035963,104163,2354,896300000,mti/data,-6.06895828247,0.311953365803,88.2384262085
2018/12/16/17:22:11.045844,104164,2354,906300000,mti/data,-6.06792116165,0.312985181808,88.2344207764
2018/12/16/17:22:11.055884,104165,2354,916300000,mti/data,-6.07128715515,0.311202645302,88.2294006348
2018/12/16/17:22:11.065983,104166,2354,926300000,mti/data,-6.0751209259,0.306074619293,88.2262039185
2018/12/16/17:22:11.075802,104167,2354,936300000,mti/data,-6.08009672165,0.303482502699,88.22215271
2018/12/16/17:22:11.085796,104168,2354,946300000,mti/data,-6.08138132095,0.300706446171,88.217956543
2018/12/16/17:22:11.095960,104169,2354,956300000,mti/data,-6.08330774307,0.300276577473,88.2131500244
2018/12/16/17:22:11.105942,104170,2354,966300000,mti/data,-6.08755302429,0.29469832778,88.2073516846
2018/12/16/17:22:11.116610,104171,2354,976300000,mti/data,-6.09121847153,0.292049705982,88.2014465332
2018/12/16/17:22:11.125818,104172,2354,986300000,mti/data,-6.09345006943,0.291999965906,88.1946792603
2018/12/16/17:22:11.135712,104173,2354,996300000,mti/data,-6.0962395668,0.286455243826,88.1869277954
2018/12/16/17:22:11.145841,104174,2355,6300000,mti/data,-6.09648990631,0.280839294195,88.1782913208
2018/12/16/17:22:11.156373,104175,2355,16300000,mti/data,-6.09875297546,0.280311256647,88.1693878174
2018/12/16/17:22:11.166200,104176,2355,26300000,mti/data,-6.09869861603,0.276487767696,88.1614151001
2018/12/16/17:22:11.175779,104177,2355,36300000,mti/data,-6.10220336914,0.269345462322,88.1522521973
2018/12/16/17:22:11.186065,104178,2355,46300000,mti/data,-6.10041236877,0.269902735949,88.1420516968
2018/12/16/17:22:11.195827,104179,2355,56300000,mti/data,-6.10079669952,0.270734369755,88.1324005127
2018/12/16/17:22:11.205818,104180,2355,66300000,mti/data,-6.1018652916,0.268951177597,88.1235580444
2018/12/16/17:22:11.216059,104181,2355,76300000,mti/data,-6.10455656052,0.262850105762,88.1136474609
2018/12/16/17:22:11.225809,104182,2355,86300000,mti/data,-6.10363960266,0.263252258301,88.1047134399
2018/12/16/17:22:11.235820,104183,2355,96300000,mti/data,-6.09466838837,0.269460529089,88.095451355
2018/12/16/17:22:11.246132,104184,2355,106300000,mti/data,-6.08570289612,0.267764031887,88.0870895386
2018/12/16/17:22:11.255973,104185,2355,116300000,mti/data,-6.07553720474,0.27177554369,88.0800094604
2018/12/16/17:22:11.265924,104186,2355,126300000,mti/data,-6.06727695465,0.283190846443,88.0720062256
2018/12/16/17:22:11.275762,104187,2355,136300000,mti/data,-6.05477905273,0.282144725323,88.0645294189
2018/12/16/17:22:11.285908,104188,2355,146300000,mti/data,-6.04226016998,0.27870336175,88.0530548096
2018/12/16/17:22:11.296101,104189,2355,156300000,mti/data,-6.03533935547,0.285893678665,88.044418335
2018/12/16/17:22:11.305923,104190,2355,166300000,mti/data,-6.03197002411,0.286085188389,88.0378417969
2018/12/16/17:22:11.315872,104191,2355,176300000,mti/data,-6.02937364578,0.28042781353,88.0328521729
2018/12/16/17:22:11.325921,104192,2355,186300000,mti/data,-6.02532243729,0.284870445728,88.0281600952
2018/12/16/17:22:11.335821,104193,2355,196300000,mti/data,-6.02111911774,0.290926575661,88.0205001831
2018/12/16/17:22:11.345802,104194,2355,206300000,mti/data,-6.01896715164,0.290306508541,88.0129165649
2018/12/16/17:22:11.355889,104195,2355,216300000,mti/data,-6.01607942581,0.293158113956,88.0065612793
2018/12/16/17:22:11.365929,104196,2355,226300000,mti/data,-6.01238775253,0.290700256824,88.0015182495
2018/12/16/17:22:11.375813,104197,2355,236300000,mti/data,-6.00756502151,0.291899651289,87.9944915771
2018/12/16/17:22:11.386008,104198,2355,246300000,mti/data,-6.0048661232,0.299592882395,87.988571167
2018/12/16/17:22:11.395758,104199,2355,256300000,mti/data,-6.00530099869,0.302503228188,87.9836807251
2018/12/16/17:22:11.405932,104200,2355,266300000,mti/data,-5.99922180176,0.296020239592,87.9805374146
2018/12/16/17:22:11.415957,104201,2355,276300000,mti/data,-5.9927520752,0.29655122757,87.9730453491
2018/12/16/17:22:11.426045,104202,2355,286300000,mti/data,-5.98797941208,0.302843689919,87.9662399292
2018/12/16/17:22:11.436141,104203,2355,296300000,mti/data,-5.98744726181,0.305372148752,87.9608764648
2018/12/16/17:22:11.445826,104204,2355,306300000,mti/data,-5.98701429367,0.301368772984,87.9567947388
2018/12/16/17:22:11.455844,104205,2355,316300000,mti/data,-5.98230981827,0.298104077578,87.9541931152
2018/12/16/17:22:11.466465,104206,2355,326300000,mti/data,-5.97876119614,0.306829988956,87.949836731
2018/12/16/17:22:11.475803,104207,2355,336300000,mti/data,-5.9781908989,0.310946941376,87.9481048584
2018/12/16/17:22:11.485780,104208,2355,346300000,mti/data,-5.97933483124,0.306423574686,87.9467315674
2018/12/16/17:22:11.496571,104209,2355,356300000,mti/data,-5.98233318329,0.302726060152,87.9435501099
2018/12/16/17:22:11.506022,104210,2355,366300000,mti/data,-5.98317623138,0.306027889252,87.9405212402
2018/12/16/17:22:11.515859,104211,2355,376300000,mti/data,-5.98657751083,0.306858181953,87.9374771118
2018/12/16/17:22:11.525825,104212,2355,386300000,mti/data,-5.99236536026,0.302165150642,87.9352874756
2018/12/16/17:22:11.535866,104213,2355,396300000,mti/data,-5.99429512024,0.299860566854,87.9329299927
2018/12/16/17:22:11.546079,104214,2355,406300000,mti/data,-5.99402999878,0.305289536715,87.9317092896
2018/12/16/17:22:11.555891,104215,2355,416300000,mti/data,-5.99768543243,0.30840075016,87.9292755127
2018/12/16/17:22:11.566593,104216,2355,426300000,mti/data,-5.99836492538,0.306126922369,87.9254684448
2018/12/16/17:22:11.575772,104217,2355,436300000,mti/data,-5.99990797043,0.303361266851,87.922668457
2018/12/16/17:22:11.586135,104218,2355,446300000,mti/data,-6.00004196167,0.305215477943,87.9183731079
2018/12/16/17:22:11.595798,104219,2355,456300000,mti/data,-6.00138282776,0.305198848248,87.9132232666
2018/12/16/17:22:11.605899,104220,2355,466300000,mti/data,-6.00617742538,0.303407162428,87.9122009277
2018/12/16/17:22:11.617101,104221,2355,476300000,mti/data,-6.00842523575,0.301882743835,87.9072799683
2018/12/16/17:22:11.626031,104222,2355,486300000,mti/data,-6.00978708267,0.296512633562,87.9042129517
2018/12/16/17:22:11.635945,104223,2355,496300000,mti/data,-6.00940179825,0.295238375664,87.8996963501
2018/12/16/17:22:11.646090,104224,2355,506300000,mti/data,-6.01184511185,0.289914786816,87.8956985474
2018/12/16/17:22:11.655951,104225,2355,516300000,mti/data,-6.01227331161,0.284801483154,87.891242981
2018/12/16/17:22:11.665959,104226,2355,526300000,mti/data,-6.0118689537,0.280594706535,87.8864898682
2018/12/16/17:22:11.676096,104227,2355,536300000,mti/data,-6.00651741028,0.279389798641,87.8819732666
2018/12/16/17:22:11.685876,104228,2355,546300000,mti/data,-6.00630187988,0.271311938763,87.8775405884
2018/12/16/17:22:11.695759,104229,2355,556300000,mti/data,-6.00631999969,0.266784131527,87.8718719482
2018/12/16/17:22:11.706018,104230,2355,566300000,mti/data,-6.00306892395,0.259181380272,87.8686981201
2018/12/16/17:22:11.716127,104231,2355,576300000,mti/data,-6.00036096573,0.258097946644,87.8637924194
2018/12/16/17:22:11.725893,104232,2355,586300000,mti/data,-6.00025939941,0.253667891026,87.8567428589
2018/12/16/17:22:11.735904,104233,2355,596300000,mti/data,-6.00242328644,0.248054951429,87.8522949219
2018/12/16/17:22:11.746144,104234,2355,606300000,mti/data,-6.00328874588,0.243875190616,87.84740448
2018/12/16/17:22:11.755825,104235,2355,616300000,mti/data,-6.00238084793,0.241283982992,87.8421401978
2018/12/16/17:22:11.766018,104236,2355,626300000,mti/data,-6.00478553772,0.242339670658,87.8378219604
2018/12/16/17:22:11.775826,104237,2355,636300000,mti/data,-6.00776100159,0.240153566003,87.8320388794
2018/12/16/17:22:11.786144,104238,2355,646300000,mti/data,-6.00975799561,0.239734366536,87.8261184692
2018/12/16/17:22:11.795800,104239,2355,656300000,mti/data,-6.01005601883,0.239133298397,87.8209075928
2018/12/16/17:22:11.806034,104240,2355,666300000,mti/data,-6.0076212883,0.246076062322,87.8140258789
2018/12/16/17:22:11.816576,104241,2355,676300000,mti/data,-6.00906610489,0.247537046671,87.8079299927
2018/12/16/17:22:11.825957,104242,2355,686300000,mti/data,-6.01332378387,0.247158646584,87.8022460938
2018/12/16/17:22:11.843191,104243,2355,696300000,mti/data,-6.0142416954,0.248965680599,87.7960281372
2018/12/16/17:22:11.845942,104244,2355,706300000,mti/data,-6.0114569664,0.252272337675,87.7887878418
2018/12/16/17:22:11.856084,104245,2355,716300000,mti/data,-6.00783443451,0.252011090517,87.7824707031
2018/12/16/17:22:11.866165,104246,2355,726300000,mti/data,-6.00611114502,0.256663113832,87.7754898071
2018/12/16/17:22:11.875925,104247,2355,736300000,mti/data,-6.00421762466,0.257007032633,87.7679214478
2018/12/16/17:22:11.885903,104248,2355,746300000,mti/data,-6.00264787674,0.252633094788,87.760093689
2018/12/16/17:22:11.895862,104249,2355,756300000,mti/data,-5.99949502945,0.263387978077,87.7512130737
2018/12/16/17:22:11.906016,104250,2355,766300000,mti/data,-5.99943113327,0.269568920135,87.7439804077
2018/12/16/17:22:11.916229,104251,2355,776300000,mti/data,-5.99765777588,0.266459673643,87.7370834351
2018/12/16/17:22:11.925877,104252,2355,786300000,mti/data,-5.99530935287,0.268728792667,87.7298583984
2018/12/16/17:22:11.935868,104253,2355,796300000,mti/data,-5.99613285065,0.274093329906,87.72240448
2018/12/16/17:22:11.945963,104254,2355,806300000,mti/data,-5.99668264389,0.279674738646,87.7143173218
2018/12/16/17:22:11.955839,104255,2355,816300000,mti/data,-5.9966211319,0.276592582464,87.7082290649
2018/12/16/17:22:11.966290,104256,2355,826300000,mti/data,-5.99408388138,0.281276851892,87.7012634277
2018/12/16/17:22:11.975906,104257,2355,836300000,mti/data,-5.99264097214,0.283041805029,87.6914138794
2018/12/16/17:22:11.985962,104258,2355,846300000,mti/data,-5.99350690842,0.289310574532,87.6838760376
2018/12/16/17:22:11.995853,104259,2355,856300000,mti/data,-5.99303245544,0.291779667139,87.6751556396
2018/12/16/17:22:12.005998,104260,2355,866300000,mti/data,-5.99434614182,0.291211694479,87.6683197021
2018/12/16/17:22:12.015951,104261,2355,876300000,mti/data,-5.98921346664,0.293979018927,87.6592483521
2018/12/16/17:22:12.026292,104262,2355,886300000,mti/data,-5.98821735382,0.299186915159,87.652053833
2018/12/16/17:22:12.035824,104263,2355,896300000,mti/data,-5.985871315,0.297719687223,87.643989563
2018/12/16/17:22:12.045973,104264,2355,906300000,mti/data,-5.98131942749,0.298493653536,87.6358413696
2018/12/16/17:22:12.055854,104265,2355,916300000,mti/data,-5.97312307358,0.297909468412,87.6285018921
2018/12/16/17:22:12.065952,104266,2355,926300000,mti/data,-5.96590185165,0.295176684856,87.624382019
2018/12/16/17:22:12.076203,104267,2355,936300000,mti/data,-5.96232748032,0.294650107622,87.6193084717
2018/12/16/17:22:12.086064,104268,2355,946300000,mti/data,-5.95981550217,0.289315462112,87.6139144897
2018/12/16/17:22:12.095822,104269,2355,956300000,mti/data,-5.95188903809,0.28286087513,87.6095428467
2018/12/16/17:22:12.106180,104270,2355,966300000,mti/data,-5.94639492035,0.291852027178,87.6027832031
