time,.header.seq,.header.stamp.secs,.header.stamp.nsecs,.header.frame_id,.orientation.x,.orientation.y,.orientation.z,.orientation.w,.orientation_covariance,.angular_velocity.x,.angular_velocity.y,.angular_velocity.z,.angular_velocity_covariance,.linear_acceleration.x,.linear_acceleration.y,.linear_acceleration.z,.linear_acceleration_covariance
2018/12/16/17:22:06.606134,103704,1545002526,605936050,imu_link,-0.0395222817153,-0.0360138358313,0.707101236992,0.705087819723,"(0.02, 0.0, 0.0, 0.0, 0.02, 0.0, 0.0, 0.0, 0.02)",0.0,0.0,0.0,"(0.0, 0.0, 0.0, 0.0, 0.0, 0.0, 0.0, 0.0, 0.0)",0.0,0.0,0.0,"(0.0, 0.0, 0.0, 0.0, 0.0, 0.0, 0.0, 0.0, 0.0)"
2018/12/16/17:22:06.616014,103705,1545002526,615753889,imu_link,-0.0395295284138,-0.0360256876964,0.707083214171,0.705104881877,"(0.02, 0.0, 0.0, 0.0, 0.02, 0.0, 0.0, 0.0, 0.02)",0.0,0.0,0.0,"(0.0, 0.0, 0.0, 0.0, 0.0, 0.0, 0.0, 0.0, 0.0)",0.0,0.0,0.0,"(0.0, 0.0, 0.0, 0.0, 0.0, 0.0, 0.0, 0.0, 0.0)"
2018/12/16/17:22:06.625669,103706,1545002526,625443935,imu_link,-0.0395202612795,-0.0360378469941,0.70707826338,0.705109744641,"(0.02, 0.0, 0.0, 0.0, 0.02, 0.0, 0.0, 0.0, 0.02)",0.0,0.0,0.0,"(0.0, 0.0, 0.0, 0.0, 0.0, 0.0, 0.0, 0.0, 0.0)",0.0,0.0,0.0,"(0.0, 0.0, 0.0, 0.0, 0.0, 0.0, 0.0, 0.0, 0.0)"
2018/12/16/17:22:06.635804,103707,1545002526,635509967,imu_link,-0.03951532777,-0.0360209447824,0.707065047633,0.705124137173,"(0.02, 0.0, 0.0, 0.0, 0.02, 0.0, 0.0, 0.0, 0.02)",0.0,0.0,0.0,"(0.0, 0.0, 0.0, 0.0, 0.0, 0.0, 0.0, 0.0, 0.0)",0.0,0.0,0.0,"(0.0, 0.0, 0.0, 0.0, 0.0, 0.0, 0.0, 0.0, 0.0)"
2018/12/16/17:22:06.645731,103708,1545002526,645458936,imu_link,-0.0394560717239,-0.0360500285415,0.707051795676,0.705139257223,"(0.02, 0.0, 0.0, 0.0, 0.02, 0.0, 0.0, 0.0, 0.02)",0.0,0.0,0.0,"(0.0, 0.0, 0.0, 0.0, 0.0, 0.0, 0.0, 0.0, 0.0)",0.0,0.0,0.0,"(0.0, 0.0, 0.0, 0.0, 0.0, 0.0, 0.0, 0.0, 0.0)"
2018/12/16/17:22:06.655722,103709,1545002526,655522108,imu_link,-0.0394441375557,-0.0360498206554,0.707050535147,0.705141199471,"(0.02, 0.0, 0.0, 0.0, 0.02, 0.0, 0.0, 0.0, 0.02)",0.0,0.0,0.0,"(0.0, 0.0, 0.0, 0.0, 0.0, 0.0, 0.0, 0.0, 0.0)",0.0,0.0,0.0,"(0.0, 0.0, 0.0, 0.0, 0.0, 0.0, 0.0, 0.0, 0.0)"
2018/12/16/17:22:06.666601,103710,1545002526,666420936,imu_link,-0.0394486294963,-0.0360539594445,0.707043920996,0.705147368584,"(0.02, 0.0, 0.0, 0.0, 0.02, 0.0, 0.0, 0.0, 0.02)",0.0,0.0,0.0,"(0.0, 0.0, 0.0, 0.0, 0.0, 0.0, 0.0, 0.0, 0.0)",0.0,0.0,0.0,"(0.0, 0.0, 0.0, 0.0, 0.0, 0.0, 0.0, 0.0, 0.0)"
2018/12/16/17:22:06.675730,103711,1545002526,675481081,imu_link,-0.0394745362229,-0.0360512549513,0.707031158162,0.705158854014,"(0.02, 0.0, 0.0, 0.0, 0.02, 0.0, 0.0, 0.0, 0.02)",0.0,0.0,0.0,"(0.0, 0.0, 0.0, 0.0, 0.0, 0.0, 0.0, 0.0, 0.0)",0.0,0.0,0.0,"(0.0, 0.0, 0.0, 0.0, 0.0, 0.0, 0.0, 0.0, 0.0)"
2018/12/16/17:22:06.685718,103712,1545002526,685473918,imu_link,-0.0394705461189,-0.0360592897444,0.70702415687,0.705165686356,"(0.02, 0.0, 0.0, 0.0, 0.02, 0.0, 0.0, 0.0, 0.02)",0.0,0.0,0.0,"(0.0, 0.0, 0.0, 0.0, 0.0, 0.0, 0.0, 0.0, 0.0)",0.0,0.0,0.0,"(0.0, 0.0, 0.0, 0.0, 0.0, 0.0, 0.0, 0.0, 0.0)"
2018/12/16/17:22:06.695675,103713,1545002526,695410966,imu_link,-0.039485180398,-0.036070701337,0.707011332986,0.705177140911,"(0.02, 0.0, 0.0, 0.0, 0.02, 0.0, 0.0, 0.0, 0.02)",0.0,0.0,0.0,"(0.0, 0.0, 0.0, 0.0, 0.0, 0.0, 0.0, 0.0, 0.0)",0.0,0.0,0.0,"(0.0, 0.0, 0.0, 0.0, 0.0, 0.0, 0.0, 0.0, 0.0)"
2018/12/16/17:22:06.705705,103714,1545002526,705471038,imu_link,-0.0394827246208,-0.0360777884557,0.70700357918,0.705184689754,"(0.02, 0.0, 0.0, 0.0, 0.02, 0.0, 0.0, 0.0, 0.02)",0.0,0.0,0.0,"(0.0, 0.0, 0.0, 0.0, 0.0, 0.0, 0.0, 0.0, 0.0)",0.0,0.0,0.0,"(0.0, 0.0, 0.0, 0.0, 0.0, 0.0, 0.0, 0.0, 0.0)"
2018/12/16/17:22:06.715797,103715,1545002526,715567111,imu_link,-0.0394890134595,-0.0360958556646,0.707001197434,0.705185800939,"(0.02, 0.0, 0.0, 0.0, 0.02, 0.0, 0.0, 0.0, 0.02)",0.0,0.0,0.0,"(0.0, 0.0, 0.0, 0.0, 0.0, 0.0, 0.0, 0.0, 0.0)",0.0,0.0,0.0,"(0.0, 0.0, 0.0, 0.0, 0.0, 0.0, 0.0, 0.0, 0.0)"
2018/12/16/17:22:06.725663,103716,1545002526,725442886,imu_link,-0.039507918809,-0.0361024344908,0.70699676506,0.705188849011,"(0.02, 0.0, 0.0, 0.0, 0.02, 0.0, 0.0, 0.0, 0.02)",0.0,0.0,0.0,"(0.0, 0.0, 0.0, 0.0, 0.0, 0.0, 0.0, 0.0, 0.0)",0.0,0.0,0.0,"(0.0, 0.0, 0.0, 0.0, 0.0, 0.0, 0.0, 0.0, 0.0)"
2018/12/16/17:22:06.735948,103717,1545002526,735615015,imu_link,-0.0395017746721,-0.0361246114607,0.706999540475,0.705185274954,"(0.02, 0.0, 0.0, 0.0, 0.02, 0.0, 0.0, 0.0, 0.02)",0.0,0.0,0.0,"(0.0, 0.0, 0.0, 0.0, 0.0, 0.0, 0.0, 0.0, 0.0)",0.0,0.0,0.0,"(0.0, 0.0, 0.0, 0.0, 0.0, 0.0, 0.0, 0.0, 0.0)"
2018/12/16/17:22:06.745817,103718,1545002526,745651960,imu_link,-0.0395001603737,-0.0361415272484,0.706991566185,0.705192493353,"(0.02, 0.0, 0.0, 0.0, 0.02, 0.0, 0.0, 0.0, 0.02)",0.0,0.0,0.0,"(0.0, 0.0, 0.0, 0.0, 0.0, 0.0, 0.0, 0.0, 0.0)",0.0,0.0,0.0,"(0.0, 0.0, 0.0, 0.0, 0.0, 0.0, 0.0, 0.0, 0.0)"
2018/12/16/17:22:06.755817,103719,1545002526,755506992,imu_link,-0.0394911888565,-0.0361435120568,0.706982895171,0.705201587118,"(0.02, 0.0, 0.0, 0.0, 0.02, 0.0, 0.0, 0.0, 0.02)",0.0,0.0,0.0,"(0.0, 0.0, 0.0, 0.0, 0.0, 0.0, 0.0, 0.0, 0.0)",0.0,0.0,0.0,"(0.0, 0.0, 0.0, 0.0, 0.0, 0.0, 0.0, 0.0, 0.0)"
2018/12/16/17:22:06.765825,103720,1545002526,765573024,imu_link,-0.0394863487281,-0.0361613597938,0.706971482347,0.705212384654,"(0.02, 0.0, 0.0, 0.0, 0.02, 0.0, 0.0, 0.0, 0.02)",0.0,0.0,0.0,"(0.0, 0.0, 0.0, 0.0, 0.0, 0.0, 0.0, 0.0, 0.0)",0.0,0.0,0.0,"(0.0, 0.0, 0.0, 0.0, 0.0, 0.0, 0.0, 0.0, 0.0)"
2018/12/16/17:22:06.775645,103721,1545002526,775446891,imu_link,-0.0395051186777,-0.0361718748649,0.706965011413,0.705217281201,"(0.02, 0.0, 0.0, 0.0, 0.02, 0.0, 0.0, 0.0, 0.02)",0.0,0.0,0.0,"(0.0, 0.0, 0.0, 0.0, 0.0, 0.0, 0.0, 0.0, 0.0)",0.0,0.0,0.0,"(0.0, 0.0, 0.0, 0.0, 0.0, 0.0, 0.0, 0.0, 0.0)"
2018/12/16/17:22:06.785708,103722,1545002526,785465002,imu_link,-0.0394856086892,-0.0361894468404,0.706958414733,0.705224085296,"(0.02, 0.0, 0.0, 0.0, 0.02, 0.0, 0.0, 0.0, 0.02)",0.0,0.0,0.0,"(0.0, 0.0, 0.0, 0.0, 0.0, 0.0, 0.0, 0.0, 0.0)",0.0,0.0,0.0,"(0.0, 0.0, 0.0, 0.0, 0.0, 0.0, 0.0, 0.0, 0.0)"
2018/12/16/17:22:06.795883,103723,1545002526,795548915,imu_link,-0.0394759101793,-0.0362096029719,0.706956817749,0.705225194535,"(0.02, 0.0, 0.0, 0.0, 0.02, 0.0, 0.0, 0.0, 0.02)",0.0,0.0,0.0,"(0.0, 0.0, 0.0, 0.0, 0.0, 0.0, 0.0, 0.0, 0.0)",0.0,0.0,0.0,"(0.0, 0.0, 0.0, 0.0, 0.0, 0.0, 0.0, 0.0, 0.0)"
2018/12/16/17:22:06.805765,103724,1545002526,805530071,imu_link,-0.0394636198952,-0.036233735194,0.706949554219,0.705231924213,"(0.02, 0.0, 0.0, 0.0, 0.02, 0.0, 0.0, 0.0, 0.02)",0.0,0.0,0.0,"(0.0, 0.0, 0.0, 0.0, 0.0, 0.0, 0.0, 0.0, 0.0)",0.0,0.0,0.0,"(0.0, 0.0, 0.0, 0.0, 0.0, 0.0, 0.0, 0.0, 0.0)"
2018/12/16/17:22:06.815798,103725,1545002526,815570116,imu_link,-0.0394837882524,-0.0362237133563,0.706940979552,0.705239905625,"(0.02, 0.0, 0.0, 0.0, 0.02, 0.0, 0.0, 0.0, 0.02)",0.0,0.0,0.0,"(0.0, 0.0, 0.0, 0.0, 0.0, 0.0, 0.0, 0.0, 0.0)",0.0,0.0,0.0,"(0.0, 0.0, 0.0, 0.0, 0.0, 0.0, 0.0, 0.0, 0.0)"
2018/12/16/17:22:06.825763,103726,1545002526,825571060,imu_link,-0.0394929263881,-0.0362493930446,0.706926807932,0.705252280036,"(0.02, 0.0, 0.0, 0.0, 0.02, 0.0, 0.0, 0.0, 0.02)",0.0,0.0,0.0,"(0.0, 0.0, 0.0, 0.0, 0.0, 0.0, 0.0, 0.0, 0.0)",0.0,0.0,0.0,"(0.0, 0.0, 0.0, 0.0, 0.0, 0.0, 0.0, 0.0, 0.0)"
2018/12/16/17:22:06.835735,103727,1545002526,835515022,imu_link,-0.0394805081809,-0.0362926016572,0.706908721748,0.705268881815,"(0.02, 0.0, 0.0, 0.0, 0.02, 0.0, 0.0, 0.0, 0.02)",0.0,0.0,0.0,"(0.0, 0.0, 0.0, 0.0, 0.0, 0.0, 0.0, 0.0, 0.0)",0.0,0.0,0.0,"(0.0, 0.0, 0.0, 0.0, 0.0, 0.0, 0.0, 0.0, 0.0)"
2018/12/16/17:22:06.845731,103728,1545002526,845482110,imu_link,-0.0394995821335,-0.0363293481232,0.706896474177,0.705278197786,"(0.02, 0.0, 0.0, 0.0, 0.02, 0.0, 0.0, 0.0, 0.02)",0.0,0.0,0.0,"(0.0, 0.0, 0.0, 0.0, 0.0, 0.0, 0.0, 0.0, 0.0)",0.0,0.0,0.0,"(0.0, 0.0, 0.0, 0.0, 0.0, 0.0, 0.0, 0.0, 0.0)"
2018/12/16/17:22:06.855702,103729,1545002526,855447053,imu_link,-0.0395029476754,-0.0363498469207,0.706884730513,0.705288723518,"(0.02, 0.0, 0.0, 0.0, 0.02, 0.0, 0.0, 0.0, 0.02)",0.0,0.0,0.0,"(0.0, 0.0, 0.0, 0.0, 0.0, 0.0, 0.0, 0.0, 0.0)",0.0,0.0,0.0,"(0.0, 0.0, 0.0, 0.0, 0.0, 0.0, 0.0, 0.0, 0.0)"
2018/12/16/17:22:06.866342,103730,1545002526,865617036,imu_link,-0.0394953984771,-0.0363602565772,0.706870538206,0.705302833865,"(0.02, 0.0, 0.0, 0.0, 0.02, 0.0, 0.0, 0.0, 0.02)",0.0,0.0,0.0,"(0.0, 0.0, 0.0, 0.0, 0.0, 0.0, 0.0, 0.0, 0.0)",0.0,0.0,0.0,"(0.0, 0.0, 0.0, 0.0, 0.0, 0.0, 0.0, 0.0, 0.0)"
2018/12/16/17:22:06.875771,103731,1545002526,875502109,imu_link,-0.0394937698755,-0.0363800305004,0.706844702064,0.705327798039,"(0.02, 0.0, 0.0, 0.0, 0.02, 0.0, 0.0, 0.0, 0.02)",0.0,0.0,0.0,"(0.0, 0.0, 0.0, 0.0, 0.0, 0.0, 0.0, 0.0, 0.0)",0.0,0.0,0.0,"(0.0, 0.0, 0.0, 0.0, 0.0, 0.0, 0.0, 0.0, 0.0)"
2018/12/16/17:22:06.885666,103732,1545002526,885471105,imu_link,-0.0395046028183,-0.0363882807848,0.706833963409,0.705337527393,"(0.02, 0.0, 0.0, 0.0, 0.02, 0.0, 0.0, 0.0, 0.02)",0.0,0.0,0.0,"(0.0, 0.0, 0.0, 0.0, 0.0, 0.0, 0.0, 0.0, 0.0)",0.0,0.0,0.0,"(0.0, 0.0, 0.0, 0.0, 0.0, 0.0, 0.0, 0.0, 0.0)"
2018/12/16/17:22:06.895737,103733,1545002526,895510911,imu_link,-0.0394667334247,-0.0364701821398,0.706796868755,0.705372588839,"(0.02, 0.0, 0.0, 0.0, 0.02, 0.0, 0.0, 0.0, 0.02)",0.0,0.0,0.0,"(0.0, 0.0, 0.0, 0.0, 0.0, 0.0, 0.0, 0.0, 0.0)",0.0,0.0,0.0,"(0.0, 0.0, 0.0, 0.0, 0.0, 0.0, 0.0, 0.0, 0.0)"
2018/12/16/17:22:06.905770,103734,1545002526,905498027,imu_link,-0.0394815641065,-0.0364923949717,0.706783241006,0.705384265091,"(0.02, 0.0, 0.0, 0.0, 0.02, 0.0, 0.0, 0.0, 0.02)",0.0,0.0,0.0,"(0.0, 0.0, 0.0, 0.0, 0.0, 0.0, 0.0, 0.0, 0.0)",0.0,0.0,0.0,"(0.0, 0.0, 0.0, 0.0, 0.0, 0.0, 0.0, 0.0, 0.0)"
2018/12/16/17:22:06.916166,103735,1545002526,915877103,imu_link,-0.039487109894,-0.0365059790857,0.706766761002,0.705399764096,"(0.02, 0.0, 0.0, 0.0, 0.02, 0.0, 0.0, 0.0, 0.02)",0.0,0.0,0.0,"(0.0, 0.0, 0.0, 0.0, 0.0, 0.0, 0.0, 0.0, 0.0)",0.0,0.0,0.0,"(0.0, 0.0, 0.0, 0.0, 0.0, 0.0, 0.0, 0.0, 0.0)"
2018/12/16/17:22:06.925804,103736,1545002526,925569057,imu_link,-0.0394942041194,-0.0365303756703,0.706756033201,0.705408852388,"(0.02, 0.0, 0.0, 0.0, 0.02, 0.0, 0.0, 0.0, 0.02)",0.0,0.0,0.0,"(0.0, 0.0, 0.0, 0.0, 0.0, 0.0, 0.0, 0.0, 0.0)",0.0,0.0,0.0,"(0.0, 0.0, 0.0, 0.0, 0.0, 0.0, 0.0, 0.0, 0.0)"
2018/12/16/17:22:06.935818,103737,1545002526,935492992,imu_link,-0.0395155173339,-0.0365483079769,0.706741634955,0.705421155407,"(0.02, 0.0, 0.0, 0.0, 0.02, 0.0, 0.0, 0.0, 0.02)",0.0,0.0,0.0,"(0.0, 0.0, 0.0, 0.0, 0.0, 0.0, 0.0, 0.0, 0.0)",0.0,0.0,0.0,"(0.0, 0.0, 0.0, 0.0, 0.0, 0.0, 0.0, 0.0, 0.0)"
2018/12/16/17:22:06.945696,103738,1545002526,945485115,imu_link,-0.0395144918178,-0.0365762075655,0.706727379736,0.705434048447,"(0.02, 0.0, 0.0, 0.0, 0.02, 0.0, 0.0, 0.0, 0.02)",0.0,0.0,0.0,"(0.0, 0.0, 0.0, 0.0, 0.0, 0.0, 0.0, 0.0, 0.0)",0.0,0.0,0.0,"(0.0, 0.0, 0.0, 0.0, 0.0, 0.0, 0.0, 0.0, 0.0)"
2018/12/16/17:22:06.956663,103739,1545002526,956312894,imu_link,-0.0395175087604,-0.0365913090623,0.706715057637,0.705445440776,"(0.02, 0.0, 0.0, 0.0, 0.02, 0.0, 0.0, 0.0, 0.02)",0.0,0.0,0.0,"(0.0, 0.0, 0.0, 0.0, 0.0, 0.0, 0.0, 0.0, 0.0)",0.0,0.0,0.0,"(0.0, 0.0, 0.0, 0.0, 0.0, 0.0, 0.0, 0.0, 0.0)"
2018/12/16/17:22:06.966216,103740,1545002526,965630054,imu_link,-0.0395305221544,-0.0366118655926,0.706702311083,0.705456414406,"(0.02, 0.0, 0.0, 0.0, 0.02, 0.0, 0.0, 0.0, 0.02)",0.0,0.0,0.0,"(0.0, 0.0, 0.0, 0.0, 0.0, 0.0, 0.0, 0.0, 0.0)",0.0,0.0,0.0,"(0.0, 0.0, 0.0, 0.0, 0.0, 0.0, 0.0, 0.0, 0.0)"
2018/12/16/17:22:06.975820,103741,1545002526,975630044,imu_link,-0.039541375315,-0.0366398035714,0.70668569522,0.70547100054,"(0.02, 0.0, 0.0, 0.0, 0.02, 0.0, 0.0, 0.0, 0.02)",0.0,0.0,0.0,"(0.0, 0.0, 0.0, 0.0, 0.0, 0.0, 0.0, 0.0, 0.0)",0.0,0.0,0.0,"(0.0, 0.0, 0.0, 0.0, 0.0, 0.0, 0.0, 0.0, 0.0)"
2018/12/16/17:22:06.985753,103742,1545002526,985476016,imu_link,-0.0395496208603,-0.0366676255135,0.706667152489,0.705487667024,"(0.02, 0.0, 0.0, 0.0, 0.02, 0.0, 0.0, 0.0, 0.02)",0.0,0.0,0.0,"(0.0, 0.0, 0.0, 0.0, 0.0, 0.0, 0.0, 0.0, 0.0)",0.0,0.0,0.0,"(0.0, 0.0, 0.0, 0.0, 0.0, 0.0, 0.0, 0.0, 0.0)"
2018/12/16/17:22:06.996012,103743,1545002526,995794057,imu_link,-0.0395637723009,-0.0366622338296,0.706647222854,0.705507116169,"(0.02, 0.0, 0.0, 0.0, 0.02, 0.0, 0.0, 0.0, 0.02)",0.0,0.0,0.0,"(0.0, 0.0, 0.0, 0.0, 0.0, 0.0, 0.0, 0.0, 0.0)",0.0,0.0,0.0,"(0.0, 0.0, 0.0, 0.0, 0.0, 0.0, 0.0, 0.0, 0.0)"
2018/12/16/17:22:07.005858,103744,1545002527,5619049,imu_link,-0.0395661557698,-0.0366566968625,0.70663422532,0.70552028851,"(0.02, 0.0, 0.0, 0.0, 0.02, 0.0, 0.0, 0.0, 0.02)",0.0,0.0,0.0,"(0.0, 0.0, 0.0, 0.0, 0.0, 0.0, 0.0, 0.0, 0.0)",0.0,0.0,0.0,"(0.0, 0.0, 0.0, 0.0, 0.0, 0.0, 0.0, 0.0, 0.0)"
2018/12/16/17:22:07.016463,103745,1545002527,16159057,imu_link,-0.0395547605343,-0.0366660480403,0.706632515375,0.705522154192,"(0.02, 0.0, 0.0, 0.0, 0.02, 0.0, 0.0, 0.0, 0.02)",0.0,0.0,0.0,"(0.0, 0.0, 0.0, 0.0, 0.0, 0.0, 0.0, 0.0, 0.0)",0.0,0.0,0.0,"(0.0, 0.0, 0.0, 0.0, 0.0, 0.0, 0.0, 0.0, 0.0)"
2018/12/16/17:22:07.025816,103746,1545002527,25526046,imu_link,-0.0395538071139,-0.0366767948977,0.706625880514,0.705528294292,"(0.02, 0.0, 0.0, 0.0, 0.02, 0.0, 0.0, 0.0, 0.02)",0.0,0.0,0.0,"(0.0, 0.0, 0.0, 0.0, 0.0, 0.0, 0.0, 0.0, 0.0)",0.0,0.0,0.0,"(0.0, 0.0, 0.0, 0.0, 0.0, 0.0, 0.0, 0.0, 0.0)"
2018/12/16/17:22:07.035938,103747,1545002527,35655021,imu_link,-0.0395619580836,-0.0366745831776,0.706611438117,0.705542416828,"(0.02, 0.0, 0.0, 0.0, 0.02, 0.0, 0.0, 0.0, 0.02)",0.0,0.0,0.0,"(0.0, 0.0, 0.0, 0.0, 0.0, 0.0, 0.0, 0.0, 0.0)",0.0,0.0,0.0,"(0.0, 0.0, 0.0, 0.0, 0.0, 0.0, 0.0, 0.0, 0.0)"
2018/12/16/17:22:07.045734,103748,1545002527,45527935,imu_link,-0.0395515725712,-0.0366714023923,0.706601615608,0.705553001676,"(0.02, 0.0, 0.0, 0.0, 0.02, 0.0, 0.0, 0.0, 0.02)",0.0,0.0,0.0,"(0.0, 0.0, 0.0, 0.0, 0.0, 0.0, 0.0, 0.0, 0.0)",0.0,0.0,0.0,"(0.0, 0.0, 0.0, 0.0, 0.0, 0.0, 0.0, 0.0, 0.0)"
2018/12/16/17:22:07.055743,103749,1545002527,55504083,imu_link,-0.0395726955708,-0.0366949164486,0.706583858452,0.705568377868,"(0.02, 0.0, 0.0, 0.0, 0.02, 0.0, 0.0, 0.0, 0.02)",0.0,0.0,0.0,"(0.0, 0.0, 0.0, 0.0, 0.0, 0.0, 0.0, 0.0, 0.0)",0.0,0.0,0.0,"(0.0, 0.0, 0.0, 0.0, 0.0, 0.0, 0.0, 0.0, 0.0)"
2018/12/16/17:22:07.065923,103750,1545002527,65675020,imu_link,-0.0395873055557,-0.0367131542081,0.706573252864,0.705577230276,"(0.02, 0.0, 0.0, 0.0, 0.02, 0.0, 0.0, 0.0, 0.02)",0.0,0.0,0.0,"(0.0, 0.0, 0.0, 0.0, 0.0, 0.0, 0.0, 0.0, 0.0)",0.0,0.0,0.0,"(0.0, 0.0, 0.0, 0.0, 0.0, 0.0, 0.0, 0.0, 0.0)"
2018/12/16/17:22:07.075735,103751,1545002527,75511932,imu_link,-0.0395902238975,-0.0367097886464,0.706555430093,0.705595089124,"(0.02, 0.0, 0.0, 0.0, 0.02, 0.0, 0.0, 0.0, 0.02)",0.0,0.0,0.0,"(0.0, 0.0, 0.0, 0.0, 0.0, 0.0, 0.0, 0.0, 0.0)",0.0,0.0,0.0,"(0.0, 0.0, 0.0, 0.0, 0.0, 0.0, 0.0, 0.0, 0.0)"
2018/12/16/17:22:07.085897,103752,1545002527,85633993,imu_link,-0.0395972504581,-0.0367051365954,0.70654313911,0.70560724435,"(0.02, 0.0, 0.0, 0.0, 0.02, 0.0, 0.0, 0.0, 0.02)",0.0,0.0,0.0,"(0.0, 0.0, 0.0, 0.0, 0.0, 0.0, 0.0, 0.0, 0.0)",0.0,0.0,0.0,"(0.0, 0.0, 0.0, 0.0, 0.0, 0.0, 0.0, 0.0, 0.0)"
2018/12/16/17:22:07.095650,103753,1545002527,95462083,imu_link,-0.0396064006104,-0.0367058939659,0.706523829196,0.705626026417,"(0.02, 0.0, 0.0, 0.0, 0.02, 0.0, 0.0, 0.0, 0.02)",0.0,0.0,0.0,"(0.0, 0.0, 0.0, 0.0, 0.0, 0.0, 0.0, 0.0, 0.0)",0.0,0.0,0.0,"(0.0, 0.0, 0.0, 0.0, 0.0, 0.0, 0.0, 0.0, 0.0)"
2018/12/16/17:22:07.105712,103754,1545002527,105479955,imu_link,-0.0396361906693,-0.0367142526167,0.706517128266,0.705630628241,"(0.02, 0.0, 0.0, 0.0, 0.02, 0.0, 0.0, 0.0, 0.02)",0.0,0.0,0.0,"(0.0, 0.0, 0.0, 0.0, 0.0, 0.0, 0.0, 0.0, 0.0)",0.0,0.0,0.0,"(0.0, 0.0, 0.0, 0.0, 0.0, 0.0, 0.0, 0.0, 0.0)"
2018/12/16/17:22:07.115960,103755,1545002527,115711927,imu_link,-0.0396648863174,-0.0367160992959,0.706508362598,0.70563769629,"(0.02, 0.0, 0.0, 0.0, 0.02, 0.0, 0.0, 0.0, 0.02)",0.0,0.0,0.0,"(0.0, 0.0, 0.0, 0.0, 0.0, 0.0, 0.0, 0.0, 0.0)",0.0,0.0,0.0,"(0.0, 0.0, 0.0, 0.0, 0.0, 0.0, 0.0, 0.0, 0.0)"
2018/12/16/17:22:07.125893,103756,1545002527,125621080,imu_link,-0.0396798785848,-0.0367215807554,0.706490738079,0.705654214011,"(0.02, 0.0, 0.0, 0.0, 0.02, 0.0, 0.0, 0.0, 0.02)",0.0,0.0,0.0,"(0.0, 0.0, 0.0, 0.0, 0.0, 0.0, 0.0, 0.0, 0.0)",0.0,0.0,0.0,"(0.0, 0.0, 0.0, 0.0, 0.0, 0.0, 0.0, 0.0, 0.0)"
2018/12/16/17:22:07.135900,103757,1545002527,135653972,imu_link,-0.0396924856761,-0.0367131113114,0.706467429798,0.705677280826,"(0.02, 0.0, 0.0, 0.0, 0.02, 0.0, 0.0, 0.0, 0.02)",0.0,0.0,0.0,"(0.0, 0.0, 0.0, 0.0, 0.0, 0.0, 0.0, 0.0, 0.0)",0.0,0.0,0.0,"(0.0, 0.0, 0.0, 0.0, 0.0, 0.0, 0.0, 0.0, 0.0)"
2018/12/16/17:22:07.145717,103758,1545002527,145493984,imu_link,-0.0396622085883,-0.0367455047109,0.706459620049,0.705685115567,"(0.02, 0.0, 0.0, 0.0, 0.02, 0.0, 0.0, 0.0, 0.02)",0.0,0.0,0.0,"(0.0, 0.0, 0.0, 0.0, 0.0, 0.0, 0.0, 0.0, 0.0)",0.0,0.0,0.0,"(0.0, 0.0, 0.0, 0.0, 0.0, 0.0, 0.0, 0.0, 0.0)"
2018/12/16/17:22:07.155957,103759,1545002527,155669927,imu_link,-0.0396597798426,-0.0367678736862,0.706445262168,0.705698460313,"(0.02, 0.0, 0.0, 0.0, 0.02, 0.0, 0.0, 0.0, 0.02)",0.0,0.0,0.0,"(0.0, 0.0, 0.0, 0.0, 0.0, 0.0, 0.0, 0.0, 0.0)",0.0,0.0,0.0,"(0.0, 0.0, 0.0, 0.0, 0.0, 0.0, 0.0, 0.0, 0.0)"
2018/12/16/17:22:07.166179,103760,1545002527,165942907,imu_link,-0.0396619825605,-0.036779941644,0.70642611472,0.705716874868,"(0.02, 0.0, 0.0, 0.0, 0.02, 0.0, 0.0, 0.0, 0.02)",0.0,0.0,0.0,"(0.0, 0.0, 0.0, 0.0, 0.0, 0.0, 0.0, 0.0, 0.0)",0.0,0.0,0.0,"(0.0, 0.0, 0.0, 0.0, 0.0, 0.0, 0.0, 0.0, 0.0)"
2018/12/16/17:22:07.175900,103761,1545002527,175685882,imu_link,-0.0396820756187,-0.0367605130432,0.706399134102,0.705743764334,"(0.02, 0.0, 0.0, 0.0, 0.02, 0.0, 0.0, 0.0, 0.02)",0.0,0.0,0.0,"(0.0, 0.0, 0.0, 0.0, 0.0, 0.0, 0.0, 0.0, 0.0)",0.0,0.0,0.0,"(0.0, 0.0, 0.0, 0.0, 0.0, 0.0, 0.0, 0.0, 0.0)"
2018/12/16/17:22:07.185943,103762,1545002527,185504913,imu_link,-0.039679057796,-0.0367434116658,0.70638112637,0.70576284854,"(0.02, 0.0, 0.0, 0.0, 0.02, 0.0, 0.0, 0.0, 0.02)",0.0,0.0,0.0,"(0.0, 0.0, 0.0, 0.0, 0.0, 0.0, 0.0, 0.0, 0.0)",0.0,0.0,0.0,"(0.0, 0.0, 0.0, 0.0, 0.0, 0.0, 0.0, 0.0, 0.0)"
2018/12/16/17:22:07.195923,103763,1545002527,195651054,imu_link,-0.0396973229837,-0.036733244973,0.706355358076,0.705788140576,"(0.02, 0.0, 0.0, 0.0, 0.02, 0.0, 0.0, 0.0, 0.02)",0.0,0.0,0.0,"(0.0, 0.0, 0.0, 0.0, 0.0, 0.0, 0.0, 0.0, 0.0)",0.0,0.0,0.0,"(0.0, 0.0, 0.0, 0.0, 0.0, 0.0, 0.0, 0.0, 0.0)"
2018/12/16/17:22:07.205909,103764,1545002527,205657958,imu_link,-0.0397036359651,-0.036741435406,0.706331461873,0.705811273772,"(0.02, 0.0, 0.0, 0.0, 0.02, 0.0, 0.0, 0.0, 0.02)",0.0,0.0,0.0,"(0.0, 0.0, 0.0, 0.0, 0.0, 0.0, 0.0, 0.0, 0.0)",0.0,0.0,0.0,"(0.0, 0.0, 0.0, 0.0, 0.0, 0.0, 0.0, 0.0, 0.0)"
2018/12/16/17:22:07.215932,103765,1545002527,215675115,imu_link,-0.0397017729611,-0.0367426862446,0.706304626603,0.705838167479,"(0.02, 0.0, 0.0, 0.0, 0.02, 0.0, 0.0, 0.0, 0.02)",0.0,0.0,0.0,"(0.0, 0.0, 0.0, 0.0, 0.0, 0.0, 0.0, 0.0, 0.0)",0.0,0.0,0.0,"(0.0, 0.0, 0.0, 0.0, 0.0, 0.0, 0.0, 0.0, 0.0)"
2018/12/16/17:22:07.225696,103766,1545002527,225475072,imu_link,-0.039687699227,-0.0367326141561,0.706279840421,0.705864284833,"(0.02, 0.0, 0.0, 0.0, 0.02, 0.0, 0.0, 0.0, 0.02)",0.0,0.0,0.0,"(0.0, 0.0, 0.0, 0.0, 0.0, 0.0, 0.0, 0.0, 0.0)",0.0,0.0,0.0,"(0.0, 0.0, 0.0, 0.0, 0.0, 0.0, 0.0, 0.0, 0.0)"
2018/12/16/17:22:07.235821,103767,1545002527,235563039,imu_link,-0.0397011391338,-0.0367238862663,0.70625884836,0.705884986979,"(0.02, 0.0, 0.0, 0.0, 0.02, 0.0, 0.0, 0.0, 0.02)",0.0,0.0,0.0,"(0.0, 0.0, 0.0, 0.0, 0.0, 0.0, 0.0, 0.0, 0.0)",0.0,0.0,0.0,"(0.0, 0.0, 0.0, 0.0, 0.0, 0.0, 0.0, 0.0, 0.0)"
2018/12/16/17:22:07.245707,103768,1545002527,245471000,imu_link,-0.0396952282478,-0.0367474134519,0.70623235998,0.705910596447,"(0.02, 0.0, 0.0, 0.0, 0.02, 0.0, 0.0, 0.0, 0.02)",0.0,0.0,0.0,"(0.0, 0.0, 0.0, 0.0, 0.0, 0.0, 0.0, 0.0, 0.0)",0.0,0.0,0.0,"(0.0, 0.0, 0.0, 0.0, 0.0, 0.0, 0.0, 0.0, 0.0)"
2018/12/16/17:22:07.255897,103769,1545002527,255665063,imu_link,-0.0396724916557,-0.0367611134642,0.706203317446,0.705940215862,"(0.02, 0.0, 0.0, 0.0, 0.02, 0.0, 0.0, 0.0, 0.02)",0.0,0.0,0.0,"(0.0, 0.0, 0.0, 0.0, 0.0, 0.0, 0.0, 0.0, 0.0)",0.0,0.0,0.0,"(0.0, 0.0, 0.0, 0.0, 0.0, 0.0, 0.0, 0.0, 0.0)"
2018/12/16/17:22:07.265877,103770,1545002527,265616893,imu_link,-0.0396678533929,-0.0367576070575,0.706174792144,0.705969193854,"(0.02, 0.0, 0.0, 0.0, 0.02, 0.0, 0.0, 0.0, 0.02)",0.0,0.0,0.0,"(0.0, 0.0, 0.0, 0.0, 0.0, 0.0, 0.0, 0.0, 0.0)",0.0,0.0,0.0,"(0.0, 0.0, 0.0, 0.0, 0.0, 0.0, 0.0, 0.0, 0.0)"
2018/12/16/17:22:07.275862,103771,1545002527,275592088,imu_link,-0.0396827990977,-0.0367408206646,0.706150398119,0.705993628009,"(0.02, 0.0, 0.0, 0.0, 0.02, 0.0, 0.0, 0.0, 0.02)",0.0,0.0,0.0,"(0.0, 0.0, 0.0, 0.0, 0.0, 0.0, 0.0, 0.0, 0.0)",0.0,0.0,0.0,"(0.0, 0.0, 0.0, 0.0, 0.0, 0.0, 0.0, 0.0, 0.0)"
2018/12/16/17:22:07.285793,103772,1545002527,285564899,imu_link,-0.0396702638811,-0.0367627935579,0.706116820132,0.706026772509,"(0.02, 0.0, 0.0, 0.0, 0.02, 0.0, 0.0, 0.0, 0.02)",0.0,0.0,0.0,"(0.0, 0.0, 0.0, 0.0, 0.0, 0.0, 0.0, 0.0, 0.0)",0.0,0.0,0.0,"(0.0, 0.0, 0.0, 0.0, 0.0, 0.0, 0.0, 0.0, 0.0)"
2018/12/16/17:22:07.295858,103773,1545002527,295623064,imu_link,-0.0396605257429,-0.036796316177,0.706098196188,0.70604419915,"(0.02, 0.0, 0.0, 0.0, 0.02, 0.0, 0.0, 0.0, 0.02)",0.0,0.0,0.0,"(0.0, 0.0, 0.0, 0.0, 0.0, 0.0, 0.0, 0.0, 0.0)",0.0,0.0,0.0,"(0.0, 0.0, 0.0, 0.0, 0.0, 0.0, 0.0, 0.0, 0.0)"
2018/12/16/17:22:07.305770,103774,1545002527,305537939,imu_link,-0.0396672433512,-0.0368086431681,0.706066531333,0.70607484513,"(0.02, 0.0, 0.0, 0.0, 0.02, 0.0, 0.0, 0.0, 0.02)",0.0,0.0,0.0,"(0.0, 0.0, 0.0, 0.0, 0.0, 0.0, 0.0, 0.0, 0.0)",0.0,0.0,0.0,"(0.0, 0.0, 0.0, 0.0, 0.0, 0.0, 0.0, 0.0, 0.0)"
2018/12/16/17:22:07.316334,103775,1545002527,315733909,imu_link,-0.039669034928,-0.0368074525253,0.706040803264,0.706100533376,"(0.02, 0.0, 0.0, 0.0, 0.02, 0.0, 0.0, 0.0, 0.02)",0.0,0.0,0.0,"(0.0, 0.0, 0.0, 0.0, 0.0, 0.0, 0.0, 0.0, 0.0)",0.0,0.0,0.0,"(0.0, 0.0, 0.0, 0.0, 0.0, 0.0, 0.0, 0.0, 0.0)"
2018/12/16/17:22:07.325692,103776,1545002527,325470924,imu_link,-0.0396587297112,-0.036805257829,0.706012156076,0.706129870227,"(0.02, 0.0, 0.0, 0.0, 0.02, 0.0, 0.0, 0.0, 0.02)",0.0,0.0,0.0,"(0.0, 0.0, 0.0, 0.0, 0.0, 0.0, 0.0, 0.0, 0.0)",0.0,0.0,0.0,"(0.0, 0.0, 0.0, 0.0, 0.0, 0.0, 0.0, 0.0, 0.0)"
2018/12/16/17:22:07.335918,103777,1545002527,335731029,imu_link,-0.0396386159289,-0.0368188196328,0.705979102483,0.706163339111,"(0.02, 0.0, 0.0, 0.0, 0.02, 0.0, 0.0, 0.0, 0.02)",0.0,0.0,0.0,"(0.0, 0.0, 0.0, 0.0, 0.0, 0.0, 0.0, 0.0, 0.0)",0.0,0.0,0.0,"(0.0, 0.0, 0.0, 0.0, 0.0, 0.0, 0.0, 0.0, 0.0)"
2018/12/16/17:22:07.345746,103778,1545002527,345483064,imu_link,-0.0396148128159,-0.0368519810278,0.705945778663,0.706196258619,"(0.02, 0.0, 0.0, 0.0, 0.02, 0.0, 0.0, 0.0, 0.02)",0.0,0.0,0.0,"(0.0, 0.0, 0.0, 0.0, 0.0, 0.0, 0.0, 0.0, 0.0)",0.0,0.0,0.0,"(0.0, 0.0, 0.0, 0.0, 0.0, 0.0, 0.0, 0.0, 0.0)"
2018/12/16/17:22:07.355872,103779,1545002527,355643033,imu_link,-0.0396173248275,-0.0368330905862,0.705916773023,0.706226097348,"(0.02, 0.0, 0.0, 0.0, 0.02, 0.0, 0.0, 0.0, 0.02)",0.0,0.0,0.0,"(0.0, 0.0, 0.0, 0.0, 0.0, 0.0, 0.0, 0.0, 0.0)",0.0,0.0,0.0,"(0.0, 0.0, 0.0, 0.0, 0.0, 0.0, 0.0, 0.0, 0.0)"
2018/12/16/17:22:07.366351,103780,1545002527,365592002,imu_link,-0.039612271661,-0.036834831068,0.7058814075,0.706261638275,"(0.02, 0.0, 0.0, 0.0, 0.02, 0.0, 0.0, 0.0, 0.02)",0.0,0.0,0.0,"(0.0, 0.0, 0.0, 0.0, 0.0, 0.0, 0.0, 0.0, 0.0)",0.0,0.0,0.0,"(0.0, 0.0, 0.0, 0.0, 0.0, 0.0, 0.0, 0.0, 0.0)"
2018/12/16/17:22:07.375748,103781,1545002527,375492095,imu_link,-0.0395980685452,-0.0368688408356,0.705840535168,0.70630150818,"(0.02, 0.0, 0.0, 0.0, 0.02, 0.0, 0.0, 0.0, 0.02)",0.0,0.0,0.0,"(0.0, 0.0, 0.0, 0.0, 0.0, 0.0, 0.0, 0.0, 0.0)",0.0,0.0,0.0,"(0.0, 0.0, 0.0, 0.0, 0.0, 0.0, 0.0, 0.0, 0.0)"
2018/12/16/17:22:07.385833,103782,1545002527,385610103,imu_link,-0.0395842688363,-0.0368611455376,0.705807498011,0.706335697358,"(0.02, 0.0, 0.0, 0.0, 0.02, 0.0, 0.0, 0.0, 0.02)",0.0,0.0,0.0,"(0.0, 0.0, 0.0, 0.0, 0.0, 0.0, 0.0, 0.0, 0.0)",0.0,0.0,0.0,"(0.0, 0.0, 0.0, 0.0, 0.0, 0.0, 0.0, 0.0, 0.0)"
2018/12/16/17:22:07.395875,103783,1545002527,395601987,imu_link,-0.0395377137321,-0.0368683384249,0.705781935746,0.706363471585,"(0.02, 0.0, 0.0, 0.0, 0.02, 0.0, 0.0, 0.0, 0.02)",0.0,0.0,0.0,"(0.0, 0.0, 0.0, 0.0, 0.0, 0.0, 0.0, 0.0, 0.0)",0.0,0.0,0.0,"(0.0, 0.0, 0.0, 0.0, 0.0, 0.0, 0.0, 0.0, 0.0)"
2018/12/16/17:22:07.405862,103784,1545002527,405667066,imu_link,-0.0395224513085,-0.0368320070975,0.705744589175,0.706403534778,"(0.02, 0.0, 0.0, 0.0, 0.02, 0.0, 0.0, 0.0, 0.02)",0.0,0.0,0.0,"(0.0, 0.0, 0.0, 0.0, 0.0, 0.0, 0.0, 0.0, 0.0)",0.0,0.0,0.0,"(0.0, 0.0, 0.0, 0.0, 0.0, 0.0, 0.0, 0.0, 0.0)"
2018/12/16/17:22:07.416070,103785,1545002527,415700912,imu_link,-0.0394964535608,-0.0368342382148,0.705711359234,0.706438069826,"(0.02, 0.0, 0.0, 0.0, 0.02, 0.0, 0.0, 0.0, 0.02)",0.0,0.0,0.0,"(0.0, 0.0, 0.0, 0.0, 0.0, 0.0, 0.0, 0.0, 0.0)",0.0,0.0,0.0,"(0.0, 0.0, 0.0, 0.0, 0.0, 0.0, 0.0, 0.0, 0.0)"
2018/12/16/17:22:07.425751,103786,1545002527,425540924,imu_link,-0.0394894085924,-0.0368258970419,0.705676320908,0.706473899041,"(0.02, 0.0, 0.0, 0.0, 0.02, 0.0, 0.0, 0.0, 0.02)",0.0,0.0,0.0,"(0.0, 0.0, 0.0, 0.0, 0.0, 0.0, 0.0, 0.0, 0.0)",0.0,0.0,0.0,"(0.0, 0.0, 0.0, 0.0, 0.0, 0.0, 0.0, 0.0, 0.0)"
2018/12/16/17:22:07.436010,103787,1545002527,435767889,imu_link,-0.0394835332198,-0.0368003546599,0.705637932236,0.706513901555,"(0.02, 0.0, 0.0, 0.0, 0.02, 0.0, 0.0, 0.0, 0.02)",0.0,0.0,0.0,"(0.0, 0.0, 0.0, 0.0, 0.0, 0.0, 0.0, 0.0, 0.0)",0.0,0.0,0.0,"(0.0, 0.0, 0.0, 0.0, 0.0, 0.0, 0.0, 0.0, 0.0)"
2018/12/16/17:22:07.445723,103788,1545002527,445508003,imu_link,-0.0394878367164,-0.0367800511231,0.70560686325,0.706545747369,"(0.02, 0.0, 0.0, 0.0, 0.02, 0.0, 0.0, 0.0, 0.02)",0.0,0.0,0.0,"(0.0, 0.0, 0.0, 0.0, 0.0, 0.0, 0.0, 0.0, 0.0)",0.0,0.0,0.0,"(0.0, 0.0, 0.0, 0.0, 0.0, 0.0, 0.0, 0.0, 0.0)"
2018/12/16/17:22:07.456422,103789,1545002527,455835103,imu_link,-0.0394917547367,-0.0367668813672,0.705565371128,0.706587648355,"(0.02, 0.0, 0.0, 0.0, 0.02, 0.0, 0.0, 0.0, 0.02)",0.0,0.0,0.0,"(0.0, 0.0, 0.0, 0.0, 0.0, 0.0, 0.0, 0.0, 0.0)",0.0,0.0,0.0,"(0.0, 0.0, 0.0, 0.0, 0.0, 0.0, 0.0, 0.0, 0.0)"
2018/12/16/17:22:07.466313,103790,1545002527,466109037,imu_link,-0.0395187898173,-0.0367400257274,0.705520673025,0.706632164351,"(0.02, 0.0, 0.0, 0.0, 0.02, 0.0, 0.0, 0.0, 0.02)",0.0,0.0,0.0,"(0.0, 0.0, 0.0, 0.0, 0.0, 0.0, 0.0, 0.0, 0.0)",0.0,0.0,0.0,"(0.0, 0.0, 0.0, 0.0, 0.0, 0.0, 0.0, 0.0, 0.0)"
2018/12/16/17:22:07.475835,103791,1545002527,475559949,imu_link,-0.0395257030638,-0.0367116980012,0.705480624757,0.706673232916,"(0.02, 0.0, 0.0, 0.0, 0.02, 0.0, 0.0, 0.0, 0.02)",0.0,0.0,0.0,"(0.0, 0.0, 0.0, 0.0, 0.0, 0.0, 0.0, 0.0, 0.0)",0.0,0.0,0.0,"(0.0, 0.0, 0.0, 0.0, 0.0, 0.0, 0.0, 0.0, 0.0)"
2018/12/16/17:22:07.485845,103792,1545002527,485585927,imu_link,-0.0395239480954,-0.0367120618774,0.705442289258,0.706711580892,"(0.02, 0.0, 0.0, 0.0, 0.02, 0.0, 0.0, 0.0, 0.02)",0.0,0.0,0.0,"(0.0, 0.0, 0.0, 0.0, 0.0, 0.0, 0.0, 0.0, 0.0)",0.0,0.0,0.0,"(0.0, 0.0, 0.0, 0.0, 0.0, 0.0, 0.0, 0.0, 0.0)"
2018/12/16/17:22:07.495831,103793,1545002527,495496988,imu_link,-0.0395228093171,-0.0367060921689,0.705401732954,0.706752435784,"(0.02, 0.0, 0.0, 0.0, 0.02, 0.0, 0.0, 0.0, 0.02)",0.0,0.0,0.0,"(0.0, 0.0, 0.0, 0.0, 0.0, 0.0, 0.0, 0.0, 0.0)",0.0,0.0,0.0,"(0.0, 0.0, 0.0, 0.0, 0.0, 0.0, 0.0, 0.0, 0.0)"
2018/12/16/17:22:07.505739,103794,1545002527,505511999,imu_link,-0.0395553332547,-0.0366704292222,0.705360878291,0.706793241768,"(0.02, 0.0, 0.0, 0.0, 0.02, 0.0, 0.0, 0.0, 0.02)",0.0,0.0,0.0,"(0.0, 0.0, 0.0, 0.0, 0.0, 0.0, 0.0, 0.0, 0.0)",0.0,0.0,0.0,"(0.0, 0.0, 0.0, 0.0, 0.0, 0.0, 0.0, 0.0, 0.0)"
2018/12/16/17:22:07.515800,103795,1545002527,515614032,imu_link,-0.0395609815538,-0.0366394589254,0.705324825694,0.706830509421,"(0.02, 0.0, 0.0, 0.0, 0.02, 0.0, 0.0, 0.0, 0.02)",0.0,0.0,0.0,"(0.0, 0.0, 0.0, 0.0, 0.0, 0.0, 0.0, 0.0, 0.0)",0.0,0.0,0.0,"(0.0, 0.0, 0.0, 0.0, 0.0, 0.0, 0.0, 0.0, 0.0)"
2018/12/16/17:22:07.525747,103796,1545002527,525537967,imu_link,-0.0395755191074,-0.036648059001,0.705276897163,0.706877073038,"(0.02, 0.0, 0.0, 0.0, 0.02, 0.0, 0.0, 0.0, 0.02)",0.0,0.0,0.0,"(0.0, 0.0, 0.0, 0.0, 0.0, 0.0, 0.0, 0.0, 0.0)",0.0,0.0,0.0,"(0.0, 0.0, 0.0, 0.0, 0.0, 0.0, 0.0, 0.0, 0.0)"
2018/12/16/17:22:07.535857,103797,1545002527,535610914,imu_link,-0.0395842027247,-0.0366222389146,0.705234057917,0.706920664619,"(0.02, 0.0, 0.0, 0.0, 0.02, 0.0, 0.0, 0.0, 0.02)",0.0,0.0,0.0,"(0.0, 0.0, 0.0, 0.0, 0.0, 0.0, 0.0, 0.0, 0.0)",0.0,0.0,0.0,"(0.0, 0.0, 0.0, 0.0, 0.0, 0.0, 0.0, 0.0, 0.0)"
2018/12/16/17:22:07.545730,103798,1545002527,545480966,imu_link,-0.0395940845118,-0.0365791330383,0.705198720883,0.706957593893,"(0.02, 0.0, 0.0, 0.0, 0.02, 0.0, 0.0, 0.0, 0.02)",0.0,0.0,0.0,"(0.0, 0.0, 0.0, 0.0, 0.0, 0.0, 0.0, 0.0, 0.0)",0.0,0.0,0.0,"(0.0, 0.0, 0.0, 0.0, 0.0, 0.0, 0.0, 0.0, 0.0)"
2018/12/16/17:22:07.555762,103799,1545002527,555537939,imu_link,-0.039606891225,-0.0365696578654,0.70515861471,0.706997370852,"(0.02, 0.0, 0.0, 0.0, 0.02, 0.0, 0.0, 0.0, 0.02)",0.0,0.0,0.0,"(0.0, 0.0, 0.0, 0.0, 0.0, 0.0, 0.0, 0.0, 0.0)",0.0,0.0,0.0,"(0.0, 0.0, 0.0, 0.0, 0.0, 0.0, 0.0, 0.0, 0.0)"
2018/12/16/17:22:07.565905,103800,1545002527,565700054,imu_link,-0.0395546589879,-0.0365997328863,0.705121835754,0.707035420081,"(0.02, 0.0, 0.0, 0.0, 0.02, 0.0, 0.0, 0.0, 0.02)",0.0,0.0,0.0,"(0.0, 0.0, 0.0, 0.0, 0.0, 0.0, 0.0, 0.0, 0.0)",0.0,0.0,0.0,"(0.0, 0.0, 0.0, 0.0, 0.0, 0.0, 0.0, 0.0, 0.0)"
2018/12/16/17:22:07.575730,103801,1545002527,575525045,imu_link,-0.0395424592237,-0.036597772185,0.705087236916,0.707070707445,"(0.02, 0.0, 0.0, 0.0, 0.02, 0.0, 0.0, 0.0, 0.02)",0.0,0.0,0.0,"(0.0, 0.0, 0.0, 0.0, 0.0, 0.0, 0.0, 0.0, 0.0)",0.0,0.0,0.0,"(0.0, 0.0, 0.0, 0.0, 0.0, 0.0, 0.0, 0.0, 0.0)"
2018/12/16/17:22:07.585802,103802,1545002527,585571050,imu_link,-0.0395496730139,-0.0365352543232,0.705041187964,0.707119453721,"(0.02, 0.0, 0.0, 0.0, 0.02, 0.0, 0.0, 0.0, 0.02)",0.0,0.0,0.0,"(0.0, 0.0, 0.0, 0.0, 0.0, 0.0, 0.0, 0.0, 0.0)",0.0,0.0,0.0,"(0.0, 0.0, 0.0, 0.0, 0.0, 0.0, 0.0, 0.0, 0.0)"
2018/12/16/17:22:07.595813,103803,1545002527,595550060,imu_link,-0.0395317589185,-0.0365323016836,0.704998750914,0.707162917707,"(0.02, 0.0, 0.0, 0.0, 0.02, 0.0, 0.0, 0.0, 0.02)",0.0,0.0,0.0,"(0.0, 0.0, 0.0, 0.0, 0.0, 0.0, 0.0, 0.0, 0.0)",0.0,0.0,0.0,"(0.0, 0.0, 0.0, 0.0, 0.0, 0.0, 0.0, 0.0, 0.0)"
2018/12/16/17:22:07.605740,103804,1545002527,605504989,imu_link,-0.0395025110935,-0.0365735521554,0.704963132745,0.707197927295,"(0.02, 0.0, 0.0, 0.0, 0.02, 0.0, 0.0, 0.0, 0.02)",0.0,0.0,0.0,"(0.0, 0.0, 0.0, 0.0, 0.0, 0.0, 0.0, 0.0, 0.0)",0.0,0.0,0.0,"(0.0, 0.0, 0.0, 0.0, 0.0, 0.0, 0.0, 0.0, 0.0)"
2018/12/16/17:22:07.616473,103805,1545002527,615962028,imu_link,-0.0395139613639,-0.0365902233834,0.704927842582,0.707231602208,"(0.02, 0.0, 0.0, 0.0, 0.02, 0.0, 0.0, 0.0, 0.02)",0.0,0.0,0.0,"(0.0, 0.0, 0.0, 0.0, 0.0, 0.0, 0.0, 0.0, 0.0)",0.0,0.0,0.0,"(0.0, 0.0, 0.0, 0.0, 0.0, 0.0, 0.0, 0.0, 0.0)"
2018/12/16/17:22:07.625832,103806,1545002527,625582933,imu_link,-0.0395016188249,-0.0365648031461,0.704881133952,0.707280159682,"(0.02, 0.0, 0.0, 0.0, 0.02, 0.0, 0.0, 0.0, 0.02)",0.0,0.0,0.0,"(0.0, 0.0, 0.0, 0.0, 0.0, 0.0, 0.0, 0.0, 0.0)",0.0,0.0,0.0,"(0.0, 0.0, 0.0, 0.0, 0.0, 0.0, 0.0, 0.0, 0.0)"
2018/12/16/17:22:07.635950,103807,1545002527,635673046,imu_link,-0.0394868190492,-0.0365463478045,0.704847756628,0.707315202409,"(0.02, 0.0, 0.0, 0.0, 0.02, 0.0, 0.0, 0.0, 0.02)",0.0,0.0,0.0,"(0.0, 0.0, 0.0, 0.0, 0.0, 0.0, 0.0, 0.0, 0.0)",0.0,0.0,0.0,"(0.0, 0.0, 0.0, 0.0, 0.0, 0.0, 0.0, 0.0, 0.0)"
2018/12/16/17:22:07.645760,103808,1545002527,645535945,imu_link,-0.0394378380126,-0.0366025309191,0.704797562773,0.707365045201,"(0.02, 0.0, 0.0, 0.0, 0.02, 0.0, 0.0, 0.0, 0.02)",0.0,0.0,0.0,"(0.0, 0.0, 0.0, 0.0, 0.0, 0.0, 0.0, 0.0, 0.0)",0.0,0.0,0.0,"(0.0, 0.0, 0.0, 0.0, 0.0, 0.0, 0.0, 0.0, 0.0)"
2018/12/16/17:22:07.656015,103809,1545002527,655558109,imu_link,-0.0394381212432,-0.0366503246822,0.704752568388,0.707407383086,"(0.02, 0.0, 0.0, 0.0, 0.02, 0.0, 0.0, 0.0, 0.02)",0.0,0.0,0.0,"(0.0, 0.0, 0.0, 0.0, 0.0, 0.0, 0.0, 0.0, 0.0)",0.0,0.0,0.0,"(0.0, 0.0, 0.0, 0.0, 0.0, 0.0, 0.0, 0.0, 0.0)"
2018/12/16/17:22:07.665892,103810,1545002527,665648937,imu_link,-0.03947190144,-0.036655046953,0.704713825347,0.707443849994,"(0.02, 0.0, 0.0, 0.0, 0.02, 0.0, 0.0, 0.0, 0.02)",0.0,0.0,0.0,"(0.0, 0.0, 0.0, 0.0, 0.0, 0.0, 0.0, 0.0, 0.0)",0.0,0.0,0.0,"(0.0, 0.0, 0.0, 0.0, 0.0, 0.0, 0.0, 0.0, 0.0)"
2018/12/16/17:22:07.675776,103811,1545002527,675576925,imu_link,-0.039505300958,-0.0366383994868,0.704682285705,0.707474264615,"(0.02, 0.0, 0.0, 0.0, 0.02, 0.0, 0.0, 0.0, 0.02)",0.0,0.0,0.0,"(0.0, 0.0, 0.0, 0.0, 0.0, 0.0, 0.0, 0.0, 0.0)",0.0,0.0,0.0,"(0.0, 0.0, 0.0, 0.0, 0.0, 0.0, 0.0, 0.0, 0.0)"
2018/12/16/17:22:07.685838,103812,1545002527,685595989,imu_link,-0.0395166615772,-0.0366610100659,0.704635946937,0.707518611828,"(0.02, 0.0, 0.0, 0.0, 0.02, 0.0, 0.0, 0.0, 0.02)",0.0,0.0,0.0,"(0.0, 0.0, 0.0, 0.0, 0.0, 0.0, 0.0, 0.0, 0.0)",0.0,0.0,0.0,"(0.0, 0.0, 0.0, 0.0, 0.0, 0.0, 0.0, 0.0, 0.0)"
2018/12/16/17:22:07.695765,103813,1545002527,695565938,imu_link,-0.0395378320442,-0.036670223761,0.704586286063,0.70756640679,"(0.02, 0.0, 0.0, 0.0, 0.02, 0.0, 0.0, 0.0, 0.02)",0.0,0.0,0.0,"(0.0, 0.0, 0.0, 0.0, 0.0, 0.0, 0.0, 0.0, 0.0)",0.0,0.0,0.0,"(0.0, 0.0, 0.0, 0.0, 0.0, 0.0, 0.0, 0.0, 0.0)"
2018/12/16/17:22:07.705770,103814,1545002527,705543041,imu_link,-0.039594921332,-0.0366716917848,0.70453910417,0.707610118583,"(0.02, 0.0, 0.0, 0.0, 0.02, 0.0, 0.0, 0.0, 0.02)",0.0,0.0,0.0,"(0.0, 0.0, 0.0, 0.0, 0.0, 0.0, 0.0, 0.0, 0.0)",0.0,0.0,0.0,"(0.0, 0.0, 0.0, 0.0, 0.0, 0.0, 0.0, 0.0, 0.0)"
2018/12/16/17:22:07.715862,103815,1545002527,715609073,imu_link,-0.0396634103594,-0.0366523179514,0.70449281511,0.707653372016,"(0.02, 0.0, 0.0, 0.0, 0.02, 0.0, 0.0, 0.0, 0.02)",0.0,0.0,0.0,"(0.0, 0.0, 0.0, 0.0, 0.0, 0.0, 0.0, 0.0, 0.0)",0.0,0.0,0.0,"(0.0, 0.0, 0.0, 0.0, 0.0, 0.0, 0.0, 0.0, 0.0)"
2018/12/16/17:22:07.725765,103816,1545002527,725543975,imu_link,-0.0396973484013,-0.0366591603895,0.704435659753,0.70770801024,"(0.02, 0.0, 0.0, 0.0, 0.02, 0.0, 0.0, 0.0, 0.02)",0.0,0.0,0.0,"(0.0, 0.0, 0.0, 0.0, 0.0, 0.0, 0.0, 0.0, 0.0)",0.0,0.0,0.0,"(0.0, 0.0, 0.0, 0.0, 0.0, 0.0, 0.0, 0.0, 0.0)"
2018/12/16/17:22:07.735825,103817,1545002527,735584974,imu_link,-0.0397221252996,-0.0366475905746,0.704380072422,0.707762545237,"(0.02, 0.0, 0.0, 0.0, 0.02, 0.0, 0.0, 0.0, 0.02)",0.0,0.0,0.0,"(0.0, 0.0, 0.0, 0.0, 0.0, 0.0, 0.0, 0.0, 0.0)",0.0,0.0,0.0,"(0.0, 0.0, 0.0, 0.0, 0.0, 0.0, 0.0, 0.0, 0.0)"
2018/12/16/17:22:07.745730,103818,1545002527,745508909,imu_link,-0.0397761247018,-0.036622985907,0.704328089263,0.707812517184,"(0.02, 0.0, 0.0, 0.0, 0.02, 0.0, 0.0, 0.0, 0.02)",0.0,0.0,0.0,"(0.0, 0.0, 0.0, 0.0, 0.0, 0.0, 0.0, 0.0, 0.0)",0.0,0.0,0.0,"(0.0, 0.0, 0.0, 0.0, 0.0, 0.0, 0.0, 0.0, 0.0)"
2018/12/16/17:22:07.755900,103819,1545002527,755626916,imu_link,-0.0398250457736,-0.0366165728121,0.704275959204,0.707861967909,"(0.02, 0.0, 0.0, 0.0, 0.02, 0.0, 0.0, 0.0, 0.02)",0.0,0.0,0.0,"(0.0, 0.0, 0.0, 0.0, 0.0, 0.0, 0.0, 0.0, 0.0)",0.0,0.0,0.0,"(0.0, 0.0, 0.0, 0.0, 0.0, 0.0, 0.0, 0.0, 0.0)"
2018/12/16/17:22:07.766154,103820,1545002527,765912055,imu_link,-0.0398447084997,-0.0366187650374,0.704216901404,0.7079195018,"(0.02, 0.0, 0.0, 0.0, 0.02, 0.0, 0.0, 0.0, 0.02)",0.0,0.0,0.0,"(0.0, 0.0, 0.0, 0.0, 0.0, 0.0, 0.0, 0.0, 0.0)",0.0,0.0,0.0,"(0.0, 0.0, 0.0, 0.0, 0.0, 0.0, 0.0, 0.0, 0.0)"
2018/12/16/17:22:07.775803,103821,1545002527,775542974,imu_link,-0.0398732629975,-0.0365710727336,0.704162795704,0.707974177978,"(0.02, 0.0, 0.0, 0.0, 0.02, 0.0, 0.0, 0.0, 0.02)",0.0,0.0,0.0,"(0.0, 0.0, 0.0, 0.0, 0.0, 0.0, 0.0, 0.0, 0.0)",0.0,0.0,0.0,"(0.0, 0.0, 0.0, 0.0, 0.0, 0.0, 0.0, 0.0, 0.0)"
2018/12/16/17:22:07.786064,103822,1545002527,785778999,imu_link,-0.0398886868014,-0.0365413070289,0.704114749304,0.708022630541,"(0.02, 0.0, 0.0, 0.0, 0.02, 0.0, 0.0, 0.0, 0.02)",0.0,0.0,0.0,"(0.0, 0.0, 0.0, 0.0, 0.0, 0.0, 0.0, 0.0, 0.0)",0.0,0.0,0.0,"(0.0, 0.0, 0.0, 0.0, 0.0, 0.0, 0.0, 0.0, 0.0)"
2018/12/16/17:22:07.795732,103823,1545002527,795525074,imu_link,-0.0399198875313,-0.036536058211,0.704060840257,0.708074750465,"(0.02, 0.0, 0.0, 0.0, 0.02, 0.0, 0.0, 0.0, 0.02)",0.0,0.0,0.0,"(0.0, 0.0, 0.0, 0.0, 0.0, 0.0, 0.0, 0.0, 0.0)",0.0,0.0,0.0,"(0.0, 0.0, 0.0, 0.0, 0.0, 0.0, 0.0, 0.0, 0.0)"
2018/12/16/17:22:07.805857,103824,1545002527,805644989,imu_link,-0.0399494756926,-0.0365618275541,0.70400465447,0.708127614659,"(0.02, 0.0, 0.0, 0.0, 0.02, 0.0, 0.0, 0.0, 0.02)",0.0,0.0,0.0,"(0.0, 0.0, 0.0, 0.0, 0.0, 0.0, 0.0, 0.0, 0.0)",0.0,0.0,0.0,"(0.0, 0.0, 0.0, 0.0, 0.0, 0.0, 0.0, 0.0, 0.0)"
2018/12/16/17:22:07.816797,103825,1545002527,815677881,imu_link,-0.0399677055929,-0.036578395207,0.703950265545,0.708179798606,"(0.02, 0.0, 0.0, 0.0, 0.02, 0.0, 0.0, 0.0, 0.02)",0.0,0.0,0.0,"(0.0, 0.0, 0.0, 0.0, 0.0, 0.0, 0.0, 0.0, 0.0)",0.0,0.0,0.0,"(0.0, 0.0, 0.0, 0.0, 0.0, 0.0, 0.0, 0.0, 0.0)"
2018/12/16/17:22:07.825822,103826,1545002527,825639963,imu_link,-0.0399954508431,-0.0365370695286,0.703893820263,0.708236469167,"(0.02, 0.0, 0.0, 0.0, 0.02, 0.0, 0.0, 0.0, 0.02)",0.0,0.0,0.0,"(0.0, 0.0, 0.0, 0.0, 0.0, 0.0, 0.0, 0.0, 0.0)",0.0,0.0,0.0,"(0.0, 0.0, 0.0, 0.0, 0.0, 0.0, 0.0, 0.0, 0.0)"
2018/12/16/17:22:07.835885,103827,1545002527,835685968,imu_link,-0.0400339659426,-0.0365477255794,0.703834575625,0.708292619954,"(0.02, 0.0, 0.0, 0.0, 0.02, 0.0, 0.0, 0.0, 0.02)",0.0,0.0,0.0,"(0.0, 0.0, 0.0, 0.0, 0.0, 0.0, 0.0, 0.0, 0.0)",0.0,0.0,0.0,"(0.0, 0.0, 0.0, 0.0, 0.0, 0.0, 0.0, 0.0, 0.0)"
2018/12/16/17:22:07.845820,103828,1545002527,845576047,imu_link,-0.0400813265445,-0.0366063604379,0.703776426153,0.708344692667,"(0.02, 0.0, 0.0, 0.0, 0.02, 0.0, 0.0, 0.0, 0.02)",0.0,0.0,0.0,"(0.0, 0.0, 0.0, 0.0, 0.0, 0.0, 0.0, 0.0, 0.0)",0.0,0.0,0.0,"(0.0, 0.0, 0.0, 0.0, 0.0, 0.0, 0.0, 0.0, 0.0)"
2018/12/16/17:22:07.855852,103829,1545002527,855601072,imu_link,-0.040139170809,-0.0366407643244,0.703727571205,0.708388175284,"(0.02, 0.0, 0.0, 0.0, 0.02, 0.0, 0.0, 0.0, 0.02)",0.0,0.0,0.0,"(0.0, 0.0, 0.0, 0.0, 0.0, 0.0, 0.0, 0.0, 0.0)",0.0,0.0,0.0,"(0.0, 0.0, 0.0, 0.0, 0.0, 0.0, 0.0, 0.0, 0.0)"
2018/12/16/17:22:07.865970,103830,1545002527,865696907,imu_link,-0.0401775860096,-0.0366338281743,0.703673627115,0.708439941504,"(0.02, 0.0, 0.0, 0.0, 0.02, 0.0, 0.0, 0.0, 0.02)",0.0,0.0,0.0,"(0.0, 0.0, 0.0, 0.0, 0.0, 0.0, 0.0, 0.0, 0.0)",0.0,0.0,0.0,"(0.0, 0.0, 0.0, 0.0, 0.0, 0.0, 0.0, 0.0, 0.0)"
2018/12/16/17:22:07.875743,103831,1545002527,875521898,imu_link,-0.0402081630533,-0.0365878432154,0.703617453131,0.708496374728,"(0.02, 0.0, 0.0, 0.0, 0.02, 0.0, 0.0, 0.0, 0.02)",0.0,0.0,0.0,"(0.0, 0.0, 0.0, 0.0, 0.0, 0.0, 0.0, 0.0, 0.0)",0.0,0.0,0.0,"(0.0, 0.0, 0.0, 0.0, 0.0, 0.0, 0.0, 0.0, 0.0)"
2018/12/16/17:22:07.885806,103832,1545002527,885584115,imu_link,-0.0402658757839,-0.0365735449803,0.703572541886,0.708538434638,"(0.02, 0.0, 0.0, 0.0, 0.02, 0.0, 0.0, 0.0, 0.02)",0.0,0.0,0.0,"(0.0, 0.0, 0.0, 0.0, 0.0, 0.0, 0.0, 0.0, 0.0)",0.0,0.0,0.0,"(0.0, 0.0, 0.0, 0.0, 0.0, 0.0, 0.0, 0.0, 0.0)"
2018/12/16/17:22:07.895755,103833,1545002527,895522117,imu_link,-0.0402990769251,-0.0366144786405,0.703543680131,0.708563091404,"(0.02, 0.0, 0.0, 0.0, 0.02, 0.0, 0.0, 0.0, 0.02)",0.0,0.0,0.0,"(0.0, 0.0, 0.0, 0.0, 0.0, 0.0, 0.0, 0.0, 0.0)",0.0,0.0,0.0,"(0.0, 0.0, 0.0, 0.0, 0.0, 0.0, 0.0, 0.0, 0.0)"
2018/12/16/17:22:07.905749,103834,1545002527,905541896,imu_link,-0.0402862958585,-0.0366190970896,0.703507005807,0.70859999215,"(0.02, 0.0, 0.0, 0.0, 0.02, 0.0, 0.0, 0.0, 0.02)",0.0,0.0,0.0,"(0.0, 0.0, 0.0, 0.0, 0.0, 0.0, 0.0, 0.0, 0.0)",0.0,0.0,0.0,"(0.0, 0.0, 0.0, 0.0, 0.0, 0.0, 0.0, 0.0, 0.0)"
2018/12/16/17:22:07.916489,103835,1545002527,916229009,imu_link,-0.0403010790572,-0.0365684625359,0.703440128122,0.708668156984,"(0.02, 0.0, 0.0, 0.0, 0.02, 0.0, 0.0, 0.0, 0.02)",0.0,0.0,0.0,"(0.0, 0.0, 0.0, 0.0, 0.0, 0.0, 0.0, 0.0, 0.0)",0.0,0.0,0.0,"(0.0, 0.0, 0.0, 0.0, 0.0, 0.0, 0.0, 0.0, 0.0)"
2018/12/16/17:22:07.925773,103836,1545002527,925523996,imu_link,-0.0403371538188,-0.0365018860417,0.703386231616,0.708723031592,"(0.02, 0.0, 0.0, 0.0, 0.02, 0.0, 0.0, 0.0, 0.02)",0.0,0.0,0.0,"(0.0, 0.0, 0.0, 0.0, 0.0, 0.0, 0.0, 0.0, 0.0)",0.0,0.0,0.0,"(0.0, 0.0, 0.0, 0.0, 0.0, 0.0, 0.0, 0.0, 0.0)"
2018/12/16/17:22:07.935809,103837,1545002527,935576915,imu_link,-0.0403528776412,-0.0364717753171,0.703329534444,0.708779952348,"(0.02, 0.0, 0.0, 0.0, 0.02, 0.0, 0.0, 0.0, 0.02)",0.0,0.0,0.0,"(0.0, 0.0, 0.0, 0.0, 0.0, 0.0, 0.0, 0.0, 0.0)",0.0,0.0,0.0,"(0.0, 0.0, 0.0, 0.0, 0.0, 0.0, 0.0, 0.0, 0.0)"
2018/12/16/17:22:07.945729,103838,1545002527,945521116,imu_link,-0.040347912835,-0.0364573445133,0.703281058675,0.708829077049,"(0.02, 0.0, 0.0, 0.0, 0.02, 0.0, 0.0, 0.0, 0.02)",0.0,0.0,0.0,"(0.0, 0.0, 0.0, 0.0, 0.0, 0.0, 0.0, 0.0, 0.0)",0.0,0.0,0.0,"(0.0, 0.0, 0.0, 0.0, 0.0, 0.0, 0.0, 0.0, 0.0)"
2018/12/16/17:22:07.955720,103839,1545002527,955509901,imu_link,-0.0403726665684,-0.0364187871648,0.703222280353,0.708887963046,"(0.02, 0.0, 0.0, 0.0, 0.02, 0.0, 0.0, 0.0, 0.02)",0.0,0.0,0.0,"(0.0, 0.0, 0.0, 0.0, 0.0, 0.0, 0.0, 0.0, 0.0)",0.0,0.0,0.0,"(0.0, 0.0, 0.0, 0.0, 0.0, 0.0, 0.0, 0.0, 0.0)"
2018/12/16/17:22:07.965992,103840,1545002527,965688943,imu_link,-0.0404091470003,-0.0363950874994,0.703156524613,0.708952325858,"(0.02, 0.0, 0.0, 0.0, 0.02, 0.0, 0.0, 0.0, 0.02)",0.0,0.0,0.0,"(0.0, 0.0, 0.0, 0.0, 0.0, 0.0, 0.0, 0.0, 0.0)",0.0,0.0,0.0,"(0.0, 0.0, 0.0, 0.0, 0.0, 0.0, 0.0, 0.0, 0.0)"
2018/12/16/17:22:07.975813,103841,1545002527,975553989,imu_link,-0.040381941412,-0.036371899851,0.703105505666,0.70900566402,"(0.02, 0.0, 0.0, 0.0, 0.02, 0.0, 0.0, 0.0, 0.02)",0.0,0.0,0.0,"(0.0, 0.0, 0.0, 0.0, 0.0, 0.0, 0.0, 0.0, 0.0)",0.0,0.0,0.0,"(0.0, 0.0, 0.0, 0.0, 0.0, 0.0, 0.0, 0.0, 0.0)"
2018/12/16/17:22:07.985890,103842,1545002527,985678911,imu_link,-0.0403818886018,-0.0363543957498,0.703051300729,0.709060314448,"(0.02, 0.0, 0.0, 0.0, 0.02, 0.0, 0.0, 0.0, 0.02)",0.0,0.0,0.0,"(0.0, 0.0, 0.0, 0.0, 0.0, 0.0, 0.0, 0.0, 0.0)",0.0,0.0,0.0,"(0.0, 0.0, 0.0, 0.0, 0.0, 0.0, 0.0, 0.0, 0.0)"
2018/12/16/17:22:07.995728,103843,1545002527,995506048,imu_link,-0.0404334383288,-0.0363056201502,0.702995867847,0.709114834706,"(0.02, 0.0, 0.0, 0.0, 0.02, 0.0, 0.0, 0.0, 0.02)",0.0,0.0,0.0,"(0.0, 0.0, 0.0, 0.0, 0.0, 0.0, 0.0, 0.0, 0.0)",0.0,0.0,0.0,"(0.0, 0.0, 0.0, 0.0, 0.0, 0.0, 0.0, 0.0, 0.0)"
2018/12/16/17:22:08.005816,103844,1545002528,5582094,imu_link,-0.040497614294,-0.0362905193496,0.702932532992,0.709174728472,"(0.02, 0.0, 0.0, 0.0, 0.02, 0.0, 0.0, 0.0, 0.02)",0.0,0.0,0.0,"(0.0, 0.0, 0.0, 0.0, 0.0, 0.0, 0.0, 0.0, 0.0)",0.0,0.0,0.0,"(0.0, 0.0, 0.0, 0.0, 0.0, 0.0, 0.0, 0.0, 0.0)"
2018/12/16/17:22:08.015895,103845,1545002528,15672922,imu_link,-0.040480546408,-0.0362932340349,0.702876084397,0.70923151122,"(0.02, 0.0, 0.0, 0.0, 0.02, 0.0, 0.0, 0.0, 0.02)",0.0,0.0,0.0,"(0.0, 0.0, 0.0, 0.0, 0.0, 0.0, 0.0, 0.0, 0.0)",0.0,0.0,0.0,"(0.0, 0.0, 0.0, 0.0, 0.0, 0.0, 0.0, 0.0, 0.0)"
2018/12/16/17:22:08.026052,103846,1545002528,25799989,imu_link,-0.0404851023079,-0.0362852209559,0.702813081613,0.709294093832,"(0.02, 0.0, 0.0, 0.0, 0.02, 0.0, 0.0, 0.0, 0.02)",0.0,0.0,0.0,"(0.0, 0.0, 0.0, 0.0, 0.0, 0.0, 0.0, 0.0, 0.0)",0.0,0.0,0.0,"(0.0, 0.0, 0.0, 0.0, 0.0, 0.0, 0.0, 0.0, 0.0)"
2018/12/16/17:22:08.036153,103847,1545002528,35937070,imu_link,-0.0405025407617,-0.0362374125053,0.7027509436,0.709357107102,"(0.02, 0.0, 0.0, 0.0, 0.02, 0.0, 0.0, 0.0, 0.02)",0.0,0.0,0.0,"(0.0, 0.0, 0.0, 0.0, 0.0, 0.0, 0.0, 0.0, 0.0)",0.0,0.0,0.0,"(0.0, 0.0, 0.0, 0.0, 0.0, 0.0, 0.0, 0.0, 0.0)"
2018/12/16/17:22:08.046008,103848,1545002528,45751094,imu_link,-0.0404986140991,-0.0362004937956,0.702692972371,0.709416642803,"(0.02, 0.0, 0.0, 0.0, 0.02, 0.0, 0.0, 0.0, 0.02)",0.0,0.0,0.0,"(0.0, 0.0, 0.0, 0.0, 0.0, 0.0, 0.0, 0.0, 0.0)",0.0,0.0,0.0,"(0.0, 0.0, 0.0, 0.0, 0.0, 0.0, 0.0, 0.0, 0.0)"
2018/12/16/17:22:08.055897,103849,1545002528,55648088,imu_link,-0.0404874875701,-0.0361850926943,0.702637391691,0.709473113102,"(0.02, 0.0, 0.0, 0.0, 0.02, 0.0, 0.0, 0.0, 0.02)",0.0,0.0,0.0,"(0.0, 0.0, 0.0, 0.0, 0.0, 0.0, 0.0, 0.0, 0.0)",0.0,0.0,0.0,"(0.0, 0.0, 0.0, 0.0, 0.0, 0.0, 0.0, 0.0, 0.0)"
2018/12/16/17:22:08.066056,103850,1545002528,65828084,imu_link,-0.040476315579,-0.0361522666843,0.702579955733,0.709532301797,"(0.02, 0.0, 0.0, 0.0, 0.02, 0.0, 0.0, 0.0, 0.02)",0.0,0.0,0.0,"(0.0, 0.0, 0.0, 0.0, 0.0, 0.0, 0.0, 0.0, 0.0)",0.0,0.0,0.0,"(0.0, 0.0, 0.0, 0.0, 0.0, 0.0, 0.0, 0.0, 0.0)"
2018/12/16/17:22:08.075852,103851,1545002528,75613021,imu_link,-0.0404724348758,-0.0361018222042,0.702514559415,0.709599840937,"(0.02, 0.0, 0.0, 0.0, 0.02, 0.0, 0.0, 0.0, 0.02)",0.0,0.0,0.0,"(0.0, 0.0, 0.0, 0.0, 0.0, 0.0, 0.0, 0.0, 0.0)",0.0,0.0,0.0,"(0.0, 0.0, 0.0, 0.0, 0.0, 0.0, 0.0, 0.0, 0.0)"
2018/12/16/17:22:08.086076,103852,1545002528,85777044,imu_link,-0.0404473114469,-0.0360527022261,0.702454344908,0.709663378637,"(0.02, 0.0, 0.0, 0.0, 0.02, 0.0, 0.0, 0.0, 0.02)",0.0,0.0,0.0,"(0.0, 0.0, 0.0, 0.0, 0.0, 0.0, 0.0, 0.0, 0.0)",0.0,0.0,0.0,"(0.0, 0.0, 0.0, 0.0, 0.0, 0.0, 0.0, 0.0, 0.0)"
2018/12/16/17:22:08.095798,103853,1545002528,95568895,imu_link,-0.0404101504246,-0.0360232201767,0.702400933583,0.709719857304,"(0.02, 0.0, 0.0, 0.0, 0.02, 0.0, 0.0, 0.0, 0.02)",0.0,0.0,0.0,"(0.0, 0.0, 0.0, 0.0, 0.0, 0.0, 0.0, 0.0, 0.0)",0.0,0.0,0.0,"(0.0, 0.0, 0.0, 0.0, 0.0, 0.0, 0.0, 0.0, 0.0)"
2018/12/16/17:22:08.106719,103854,1545002528,106445074,imu_link,-0.0403920251182,-0.0359749449354,0.702339950079,0.709783686884,"(0.02, 0.0, 0.0, 0.0, 0.02, 0.0, 0.0, 0.0, 0.02)",0.0,0.0,0.0,"(0.0, 0.0, 0.0, 0.0, 0.0, 0.0, 0.0, 0.0, 0.0)",0.0,0.0,0.0,"(0.0, 0.0, 0.0, 0.0, 0.0, 0.0, 0.0, 0.0, 0.0)"
2018/12/16/17:22:08.116503,103855,1545002528,116295099,imu_link,-0.0403954791509,-0.0359198097203,0.702287746822,0.709837934459,"(0.02, 0.0, 0.0, 0.0, 0.02, 0.0, 0.0, 0.0, 0.02)",0.0,0.0,0.0,"(0.0, 0.0, 0.0, 0.0, 0.0, 0.0, 0.0, 0.0, 0.0)",0.0,0.0,0.0,"(0.0, 0.0, 0.0, 0.0, 0.0, 0.0, 0.0, 0.0, 0.0)"
2018/12/16/17:22:08.125916,103856,1545002528,125652074,imu_link,-0.0403972040487,-0.0358989029557,0.702219327746,0.709906578651,"(0.02, 0.0, 0.0, 0.0, 0.02, 0.0, 0.0, 0.0, 0.02)",0.0,0.0,0.0,"(0.0, 0.0, 0.0, 0.0, 0.0, 0.0, 0.0, 0.0, 0.0)",0.0,0.0,0.0,"(0.0, 0.0, 0.0, 0.0, 0.0, 0.0, 0.0, 0.0, 0.0)"
2018/12/16/17:22:08.136167,103857,1545002528,135951995,imu_link,-0.0403785211024,-0.0358705640992,0.702175031393,0.709952887841,"(0.02, 0.0, 0.0, 0.0, 0.02, 0.0, 0.0, 0.0, 0.02)",0.0,0.0,0.0,"(0.0, 0.0, 0.0, 0.0, 0.0, 0.0, 0.0, 0.0, 0.0)",0.0,0.0,0.0,"(0.0, 0.0, 0.0, 0.0, 0.0, 0.0, 0.0, 0.0, 0.0)"
2018/12/16/17:22:08.145913,103858,1545002528,145658969,imu_link,-0.0404328146219,-0.0357990873202,0.70215616552,0.709972064289,"(0.02, 0.0, 0.0, 0.0, 0.02, 0.0, 0.0, 0.0, 0.02)",0.0,0.0,0.0,"(0.0, 0.0, 0.0, 0.0, 0.0, 0.0, 0.0, 0.0, 0.0)",0.0,0.0,0.0,"(0.0, 0.0, 0.0, 0.0, 0.0, 0.0, 0.0, 0.0, 0.0)"
2018/12/16/17:22:08.156161,103859,1545002528,155937910,imu_link,-0.0404535509982,-0.0357556665028,0.702093999234,0.710034547585,"(0.02, 0.0, 0.0, 0.0, 0.02, 0.0, 0.0, 0.0, 0.02)",0.0,0.0,0.0,"(0.0, 0.0, 0.0, 0.0, 0.0, 0.0, 0.0, 0.0, 0.0)",0.0,0.0,0.0,"(0.0, 0.0, 0.0, 0.0, 0.0, 0.0, 0.0, 0.0, 0.0)"
2018/12/16/17:22:08.166081,103860,1545002528,165798902,imu_link,-0.0404586734675,-0.0357673359425,0.702033048105,0.710093932371,"(0.02, 0.0, 0.0, 0.0, 0.02, 0.0, 0.0, 0.0, 0.02)",0.0,0.0,0.0,"(0.0, 0.0, 0.0, 0.0, 0.0, 0.0, 0.0, 0.0, 0.0)",0.0,0.0,0.0,"(0.0, 0.0, 0.0, 0.0, 0.0, 0.0, 0.0, 0.0, 0.0)"
2018/12/16/17:22:08.175893,103861,1545002528,175637960,imu_link,-0.0404958684867,-0.0357541910328,0.701965628693,0.710159122024,"(0.02, 0.0, 0.0, 0.0, 0.02, 0.0, 0.0, 0.0, 0.02)",0.0,0.0,0.0,"(0.0, 0.0, 0.0, 0.0, 0.0, 0.0, 0.0, 0.0, 0.0)",0.0,0.0,0.0,"(0.0, 0.0, 0.0, 0.0, 0.0, 0.0, 0.0, 0.0, 0.0)"
2018/12/16/17:22:08.185923,103862,1545002528,185745000,imu_link,-0.0405432001389,-0.0357087586877,0.701899847733,0.710223723363,"(0.02, 0.0, 0.0, 0.0, 0.02, 0.0, 0.0, 0.0, 0.02)",0.0,0.0,0.0,"(0.0, 0.0, 0.0, 0.0, 0.0, 0.0, 0.0, 0.0, 0.0)",0.0,0.0,0.0,"(0.0, 0.0, 0.0, 0.0, 0.0, 0.0, 0.0, 0.0, 0.0)"
2018/12/16/17:22:08.195731,103863,1545002528,195544958,imu_link,-0.0405671621679,-0.0356974758908,0.701827055096,0.710294854483,"(0.02, 0.0, 0.0, 0.0, 0.02, 0.0, 0.0, 0.0, 0.02)",0.0,0.0,0.0,"(0.0, 0.0, 0.0, 0.0, 0.0, 0.0, 0.0, 0.0, 0.0)",0.0,0.0,0.0,"(0.0, 0.0, 0.0, 0.0, 0.0, 0.0, 0.0, 0.0, 0.0)"
2018/12/16/17:22:08.205781,103864,1545002528,205574989,imu_link,-0.0405813754837,-0.0356811483726,0.701771112689,0.710350134095,"(0.02, 0.0, 0.0, 0.0, 0.02, 0.0, 0.0, 0.0, 0.02)",0.0,0.0,0.0,"(0.0, 0.0, 0.0, 0.0, 0.0, 0.0, 0.0, 0.0, 0.0)",0.0,0.0,0.0,"(0.0, 0.0, 0.0, 0.0, 0.0, 0.0, 0.0, 0.0, 0.0)"
2018/12/16/17:22:08.216112,103865,1545002528,215835094,imu_link,-0.0406295840421,-0.0356310470714,0.701705119963,0.710415082894,"(0.02, 0.0, 0.0, 0.0, 0.02, 0.0, 0.0, 0.0, 0.02)",0.0,0.0,0.0,"(0.0, 0.0, 0.0, 0.0, 0.0, 0.0, 0.0, 0.0, 0.0)",0.0,0.0,0.0,"(0.0, 0.0, 0.0, 0.0, 0.0, 0.0, 0.0, 0.0, 0.0)"
2018/12/16/17:22:08.225842,103866,1545002528,225626945,imu_link,-0.0406441896868,-0.0356323298033,0.701635035935,0.710483401119,"(0.02, 0.0, 0.0, 0.0, 0.02, 0.0, 0.0, 0.0, 0.02)",0.0,0.0,0.0,"(0.0, 0.0, 0.0, 0.0, 0.0, 0.0, 0.0, 0.0, 0.0)",0.0,0.0,0.0,"(0.0, 0.0, 0.0, 0.0, 0.0, 0.0, 0.0, 0.0, 0.0)"
2018/12/16/17:22:08.235853,103867,1545002528,235661029,imu_link,-0.0406805134589,-0.0356153607962,0.701567581619,0.7105487811,"(0.02, 0.0, 0.0, 0.0, 0.02, 0.0, 0.0, 0.0, 0.02)",0.0,0.0,0.0,"(0.0, 0.0, 0.0, 0.0, 0.0, 0.0, 0.0, 0.0, 0.0)",0.0,0.0,0.0,"(0.0, 0.0, 0.0, 0.0, 0.0, 0.0, 0.0, 0.0, 0.0)"
2018/12/16/17:22:08.246311,103868,1545002528,246067047,imu_link,-0.0406702921205,-0.0355874808851,0.701506034524,0.710611526834,"(0.02, 0.0, 0.0, 0.0, 0.02, 0.0, 0.0, 0.0, 0.02)",0.0,0.0,0.0,"(0.0, 0.0, 0.0, 0.0, 0.0, 0.0, 0.0, 0.0, 0.0)",0.0,0.0,0.0,"(0.0, 0.0, 0.0, 0.0, 0.0, 0.0, 0.0, 0.0, 0.0)"
2018/12/16/17:22:08.256034,103869,1545002528,255821943,imu_link,-0.0406801896101,-0.0355373163766,0.701443429459,0.710675268029,"(0.02, 0.0, 0.0, 0.0, 0.02, 0.0, 0.0, 0.0, 0.02)",0.0,0.0,0.0,"(0.0, 0.0, 0.0, 0.0, 0.0, 0.0, 0.0, 0.0, 0.0)",0.0,0.0,0.0,"(0.0, 0.0, 0.0, 0.0, 0.0, 0.0, 0.0, 0.0, 0.0)"
2018/12/16/17:22:08.266173,103870,1545002528,265779972,imu_link,-0.040687424916,-0.0354994186803,0.701368946468,0.710750255475,"(0.02, 0.0, 0.0, 0.0, 0.02, 0.0, 0.0, 0.0, 0.02)",0.0,0.0,0.0,"(0.0, 0.0, 0.0, 0.0, 0.0, 0.0, 0.0, 0.0, 0.0)",0.0,0.0,0.0,"(0.0, 0.0, 0.0, 0.0, 0.0, 0.0, 0.0, 0.0, 0.0)"
2018/12/16/17:22:08.275717,103871,1545002528,275571107,imu_link,-0.0406902935105,-0.0354778705812,0.701308529266,0.710810781778,"(0.02, 0.0, 0.0, 0.0, 0.02, 0.0, 0.0, 0.0, 0.02)",0.0,0.0,0.0,"(0.0, 0.0, 0.0, 0.0, 0.0, 0.0, 0.0, 0.0, 0.0)",0.0,0.0,0.0,"(0.0, 0.0, 0.0, 0.0, 0.0, 0.0, 0.0, 0.0, 0.0)"
2018/12/16/17:22:08.285884,103872,1545002528,285644054,imu_link,-0.0407052906322,-0.0354668125804,0.701249094885,0.710869109923,"(0.02, 0.0, 0.0, 0.0, 0.02, 0.0, 0.0, 0.0, 0.02)",0.0,0.0,0.0,"(0.0, 0.0, 0.0, 0.0, 0.0, 0.0, 0.0, 0.0, 0.0)",0.0,0.0,0.0,"(0.0, 0.0, 0.0, 0.0, 0.0, 0.0, 0.0, 0.0, 0.0)"
2018/12/16/17:22:08.295782,103873,1545002528,295583963,imu_link,-0.0407204877435,-0.0354477205439,0.701187118894,0.710930323789,"(0.02, 0.0, 0.0, 0.0, 0.02, 0.0, 0.0, 0.0, 0.02)",0.0,0.0,0.0,"(0.0, 0.0, 0.0, 0.0, 0.0, 0.0, 0.0, 0.0, 0.0)",0.0,0.0,0.0,"(0.0, 0.0, 0.0, 0.0, 0.0, 0.0, 0.0, 0.0, 0.0)"
2018/12/16/17:22:08.305953,103874,1545002528,305704116,imu_link,-0.0407263297289,-0.0354422339142,0.701128436202,0.710988136379,"(0.02, 0.0, 0.0, 0.0, 0.02, 0.0, 0.0, 0.0, 0.02)",0.0,0.0,0.0,"(0.0, 0.0, 0.0, 0.0, 0.0, 0.0, 0.0, 0.0, 0.0)",0.0,0.0,0.0,"(0.0, 0.0, 0.0, 0.0, 0.0, 0.0, 0.0, 0.0, 0.0)"
2018/12/16/17:22:08.315840,103875,1545002528,315663099,imu_link,-0.0407244042524,-0.0354383853888,0.701074365754,0.711041755048,"(0.02, 0.0, 0.0, 0.0, 0.02, 0.0, 0.0, 0.0, 0.02)",0.0,0.0,0.0,"(0.0, 0.0, 0.0, 0.0, 0.0, 0.0, 0.0, 0.0, 0.0)",0.0,0.0,0.0,"(0.0, 0.0, 0.0, 0.0, 0.0, 0.0, 0.0, 0.0, 0.0)"
2018/12/16/17:22:08.325905,103876,1545002528,325709104,imu_link,-0.0407353655422,-0.0354300866024,0.701008789037,0.711106192246,"(0.02, 0.0, 0.0, 0.0, 0.02, 0.0, 0.0, 0.0, 0.02)",0.0,0.0,0.0,"(0.0, 0.0, 0.0, 0.0, 0.0, 0.0, 0.0, 0.0, 0.0)",0.0,0.0,0.0,"(0.0, 0.0, 0.0, 0.0, 0.0, 0.0, 0.0, 0.0, 0.0)"
2018/12/16/17:22:08.335757,103877,1545002528,335573911,imu_link,-0.040762585455,-0.0354548080232,0.700952790202,0.711158599838,"(0.02, 0.0, 0.0, 0.0, 0.02, 0.0, 0.0, 0.0, 0.02)",0.0,0.0,0.0,"(0.0, 0.0, 0.0, 0.0, 0.0, 0.0, 0.0, 0.0, 0.0)",0.0,0.0,0.0,"(0.0, 0.0, 0.0, 0.0, 0.0, 0.0, 0.0, 0.0, 0.0)"
2018/12/16/17:22:08.345956,103878,1545002528,345769882,imu_link,-0.0407689323181,-0.0354891202898,0.700893022263,0.71121542998,"(0.02, 0.0, 0.0, 0.0, 0.02, 0.0, 0.0, 0.0, 0.02)",0.0,0.0,0.0,"(0.0, 0.0, 0.0, 0.0, 0.0, 0.0, 0.0, 0.0, 0.0)",0.0,0.0,0.0,"(0.0, 0.0, 0.0, 0.0, 0.0, 0.0, 0.0, 0.0, 0.0)"
2018/12/16/17:22:08.355973,103879,1545002528,355725049,imu_link,-0.0407660778785,-0.0355287954038,0.700842663732,0.711263236983,"(0.02, 0.0, 0.0, 0.0, 0.02, 0.0, 0.0, 0.0, 0.02)",0.0,0.0,0.0,"(0.0, 0.0, 0.0, 0.0, 0.0, 0.0, 0.0, 0.0, 0.0)",0.0,0.0,0.0,"(0.0, 0.0, 0.0, 0.0, 0.0, 0.0, 0.0, 0.0, 0.0)"
2018/12/16/17:22:08.366136,103880,1545002528,365874052,imu_link,-0.0407997349559,-0.035524586526,0.700792867071,0.71131058114,"(0.02, 0.0, 0.0, 0.0, 0.02, 0.0, 0.0, 0.0, 0.02)",0.0,0.0,0.0,"(0.0, 0.0, 0.0, 0.0, 0.0, 0.0, 0.0, 0.0, 0.0)",0.0,0.0,0.0,"(0.0, 0.0, 0.0, 0.0, 0.0, 0.0, 0.0, 0.0, 0.0)"
2018/12/16/17:22:08.375995,103881,1545002528,375768899,imu_link,-0.0408138778242,-0.0355392343344,0.700739876425,0.711361241416,"(0.02, 0.0, 0.0, 0.0, 0.02, 0.0, 0.0, 0.0, 0.02)",0.0,0.0,0.0,"(0.0, 0.0, 0.0, 0.0, 0.0, 0.0, 0.0, 0.0, 0.0)",0.0,0.0,0.0,"(0.0, 0.0, 0.0, 0.0, 0.0, 0.0, 0.0, 0.0, 0.0)"
2018/12/16/17:22:08.385990,103882,1545002528,385742902,imu_link,-0.0408292470964,-0.0355917228304,0.700681823309,0.711414917142,"(0.02, 0.0, 0.0, 0.0, 0.02, 0.0, 0.0, 0.0, 0.02)",0.0,0.0,0.0,"(0.0, 0.0, 0.0, 0.0, 0.0, 0.0, 0.0, 0.0, 0.0)",0.0,0.0,0.0,"(0.0, 0.0, 0.0, 0.0, 0.0, 0.0, 0.0, 0.0, 0.0)"
2018/12/16/17:22:08.395708,103883,1545002528,395550012,imu_link,-0.0408841349744,-0.0356037498964,0.700622117453,0.711469963551,"(0.02, 0.0, 0.0, 0.0, 0.02, 0.0, 0.0, 0.0, 0.02)",0.0,0.0,0.0,"(0.0, 0.0, 0.0, 0.0, 0.0, 0.0, 0.0, 0.0, 0.0)",0.0,0.0,0.0,"(0.0, 0.0, 0.0, 0.0, 0.0, 0.0, 0.0, 0.0, 0.0)"
2018/12/16/17:22:08.405940,103884,1545002528,405735015,imu_link,-0.0408871820379,-0.035620935375,0.70055601221,0.711534019612,"(0.02, 0.0, 0.0, 0.0, 0.02, 0.0, 0.0, 0.0, 0.02)",0.0,0.0,0.0,"(0.0, 0.0, 0.0, 0.0, 0.0, 0.0, 0.0, 0.0, 0.0)",0.0,0.0,0.0,"(0.0, 0.0, 0.0, 0.0, 0.0, 0.0, 0.0, 0.0, 0.0)"
2018/12/16/17:22:08.415967,103885,1545002528,415725946,imu_link,-0.0409048901955,-0.0356265179961,0.700494673509,0.71159310955,"(0.02, 0.0, 0.0, 0.0, 0.02, 0.0, 0.0, 0.0, 0.02)",0.0,0.0,0.0,"(0.0, 0.0, 0.0, 0.0, 0.0, 0.0, 0.0, 0.0, 0.0)",0.0,0.0,0.0,"(0.0, 0.0, 0.0, 0.0, 0.0, 0.0, 0.0, 0.0, 0.0)"
2018/12/16/17:22:08.426021,103886,1545002528,425765037,imu_link,-0.0409338617563,-0.0356908419372,0.700435943608,0.711646029754,"(0.02, 0.0, 0.0, 0.0, 0.02, 0.0, 0.0, 0.0, 0.02)",0.0,0.0,0.0,"(0.0, 0.0, 0.0, 0.0, 0.0, 0.0, 0.0, 0.0, 0.0)",0.0,0.0,0.0,"(0.0, 0.0, 0.0, 0.0, 0.0, 0.0, 0.0, 0.0, 0.0)"
2018/12/16/17:22:08.435879,103887,1545002528,435661077,imu_link,-0.0409458344589,-0.0357271474277,0.700370316734,0.711708106611,"(0.02, 0.0, 0.0, 0.0, 0.02, 0.0, 0.0, 0.0, 0.02)",0.0,0.0,0.0,"(0.0, 0.0, 0.0, 0.0, 0.0, 0.0, 0.0, 0.0, 0.0)",0.0,0.0,0.0,"(0.0, 0.0, 0.0, 0.0, 0.0, 0.0, 0.0, 0.0, 0.0)"
2018/12/16/17:22:08.446032,103888,1545002528,445717096,imu_link,-0.0409405863719,-0.0357463359262,0.700295955113,0.711780614451,"(0.02, 0.0, 0.0, 0.0, 0.02, 0.0, 0.0, 0.0, 0.02)",0.0,0.0,0.0,"(0.0, 0.0, 0.0, 0.0, 0.0, 0.0, 0.0, 0.0, 0.0)",0.0,0.0,0.0,"(0.0, 0.0, 0.0, 0.0, 0.0, 0.0, 0.0, 0.0, 0.0)"
2018/12/16/17:22:08.455943,103889,1545002528,455710887,imu_link,-0.0409627310569,-0.0357213832006,0.700237009198,0.711838583104,"(0.02, 0.0, 0.0, 0.0, 0.02, 0.0, 0.0, 0.0, 0.02)",0.0,0.0,0.0,"(0.0, 0.0, 0.0, 0.0, 0.0, 0.0, 0.0, 0.0, 0.0)",0.0,0.0,0.0,"(0.0, 0.0, 0.0, 0.0, 0.0, 0.0, 0.0, 0.0, 0.0)"
2018/12/16/17:22:08.466514,103890,1545002528,466290950,imu_link,-0.0409520559976,-0.0357501617753,0.700157199604,0.711916252719,"(0.02, 0.0, 0.0, 0.0, 0.02, 0.0, 0.0, 0.0, 0.02)",0.0,0.0,0.0,"(0.0, 0.0, 0.0, 0.0, 0.0, 0.0, 0.0, 0.0, 0.0)",0.0,0.0,0.0,"(0.0, 0.0, 0.0, 0.0, 0.0, 0.0, 0.0, 0.0, 0.0)"
2018/12/16/17:22:08.475868,103891,1545002528,475619077,imu_link,-0.0409088099529,-0.0357744018749,0.700099622671,0.71197414263,"(0.02, 0.0, 0.0, 0.0, 0.02, 0.0, 0.0, 0.0, 0.02)",0.0,0.0,0.0,"(0.0, 0.0, 0.0, 0.0, 0.0, 0.0, 0.0, 0.0, 0.0)",0.0,0.0,0.0,"(0.0, 0.0, 0.0, 0.0, 0.0, 0.0, 0.0, 0.0, 0.0)"
2018/12/16/17:22:08.485914,103892,1545002528,485650062,imu_link,-0.0408991675945,-0.0357397718337,0.700041725235,0.712033362792,"(0.02, 0.0, 0.0, 0.0, 0.02, 0.0, 0.0, 0.0, 0.02)",0.0,0.0,0.0,"(0.0, 0.0, 0.0, 0.0, 0.0, 0.0, 0.0, 0.0, 0.0)",0.0,0.0,0.0,"(0.0, 0.0, 0.0, 0.0, 0.0, 0.0, 0.0, 0.0, 0.0)"
2018/12/16/17:22:08.495762,103893,1545002528,495563983,imu_link,-0.040912012835,-0.0357094552702,0.699976232248,0.712098529909,"(0.02, 0.0, 0.0, 0.0, 0.02, 0.0, 0.0, 0.0, 0.02)",0.0,0.0,0.0,"(0.0, 0.0, 0.0, 0.0, 0.0, 0.0, 0.0, 0.0, 0.0)",0.0,0.0,0.0,"(0.0, 0.0, 0.0, 0.0, 0.0, 0.0, 0.0, 0.0, 0.0)"
2018/12/16/17:22:08.505989,103894,1545002528,505719900,imu_link,-0.0408774262529,-0.0357234276298,0.699904282919,0.712170532593,"(0.02, 0.0, 0.0, 0.0, 0.02, 0.0, 0.0, 0.0, 0.02)",0.0,0.0,0.0,"(0.0, 0.0, 0.0, 0.0, 0.0, 0.0, 0.0, 0.0, 0.0)",0.0,0.0,0.0,"(0.0, 0.0, 0.0, 0.0, 0.0, 0.0, 0.0, 0.0, 0.0)"
2018/12/16/17:22:08.515862,103895,1545002528,515608072,imu_link,-0.0408218117399,-0.0357505038149,0.69985063098,0.712225087652,"(0.02, 0.0, 0.0, 0.0, 0.02, 0.0, 0.0, 0.0, 0.02)",0.0,0.0,0.0,"(0.0, 0.0, 0.0, 0.0, 0.0, 0.0, 0.0, 0.0, 0.0)",0.0,0.0,0.0,"(0.0, 0.0, 0.0, 0.0, 0.0, 0.0, 0.0, 0.0, 0.0)"
2018/12/16/17:22:08.525928,103896,1545002528,525624990,imu_link,-0.0407999563423,-0.0357533282634,0.699782140652,0.712293491972,"(0.02, 0.0, 0.0, 0.0, 0.02, 0.0, 0.0, 0.0, 0.02)",0.0,0.0,0.0,"(0.0, 0.0, 0.0, 0.0, 0.0, 0.0, 0.0, 0.0, 0.0)",0.0,0.0,0.0,"(0.0, 0.0, 0.0, 0.0, 0.0, 0.0, 0.0, 0.0, 0.0)"
2018/12/16/17:22:08.535853,103897,1545002528,535624027,imu_link,-0.0408133595959,-0.03575223928,0.699723597246,0.712350289199,"(0.02, 0.0, 0.0, 0.0, 0.02, 0.0, 0.0, 0.0, 0.02)",0.0,0.0,0.0,"(0.0, 0.0, 0.0, 0.0, 0.0, 0.0, 0.0, 0.0, 0.0)",0.0,0.0,0.0,"(0.0, 0.0, 0.0, 0.0, 0.0, 0.0, 0.0, 0.0, 0.0)"
2018/12/16/17:22:08.545983,103898,1545002528,545634031,imu_link,-0.0408224739623,-0.0357777515052,0.69966083333,0.712410132171,"(0.02, 0.0, 0.0, 0.0, 0.02, 0.0, 0.0, 0.0, 0.02)",0.0,0.0,0.0,"(0.0, 0.0, 0.0, 0.0, 0.0, 0.0, 0.0, 0.0, 0.0)",0.0,0.0,0.0,"(0.0, 0.0, 0.0, 0.0, 0.0, 0.0, 0.0, 0.0, 0.0)"
2018/12/16/17:22:08.555863,103899,1545002528,555613994,imu_link,-0.0408037042545,-0.0358389549236,0.699608886801,0.712459144469,"(0.02, 0.0, 0.0, 0.0, 0.02, 0.0, 0.0, 0.0, 0.02)",0.0,0.0,0.0,"(0.0, 0.0, 0.0, 0.0, 0.0, 0.0, 0.0, 0.0, 0.0)",0.0,0.0,0.0,"(0.0, 0.0, 0.0, 0.0, 0.0, 0.0, 0.0, 0.0, 0.0)"
2018/12/16/17:22:08.566123,103900,1545002528,565743923,imu_link,-0.040838528625,-0.0358743052131,0.699552552592,0.712510684107,"(0.02, 0.0, 0.0, 0.0, 0.02, 0.0, 0.0, 0.0, 0.02)",0.0,0.0,0.0,"(0.0, 0.0, 0.0, 0.0, 0.0, 0.0, 0.0, 0.0, 0.0)",0.0,0.0,0.0,"(0.0, 0.0, 0.0, 0.0, 0.0, 0.0, 0.0, 0.0, 0.0)"
2018/12/16/17:22:08.575800,103901,1545002528,575589895,imu_link,-0.0408609790665,-0.0358723697225,0.69949298796,0.712567970986,"(0.02, 0.0, 0.0, 0.0, 0.02, 0.0, 0.0, 0.0, 0.02)",0.0,0.0,0.0,"(0.0, 0.0, 0.0, 0.0, 0.0, 0.0, 0.0, 0.0, 0.0)",0.0,0.0,0.0,"(0.0, 0.0, 0.0, 0.0, 0.0, 0.0, 0.0, 0.0, 0.0)"
2018/12/16/17:22:08.586004,103902,1545002528,585602045,imu_link,-0.0408614582889,-0.0358641247742,0.699443829233,0.712616611881,"(0.02, 0.0, 0.0, 0.0, 0.02, 0.0, 0.0, 0.0, 0.02)",0.0,0.0,0.0,"(0.0, 0.0, 0.0, 0.0, 0.0, 0.0, 0.0, 0.0, 0.0)",0.0,0.0,0.0,"(0.0, 0.0, 0.0, 0.0, 0.0, 0.0, 0.0, 0.0, 0.0)"
