time,.header.seq,.header.stamp.secs,.header.stamp.nsecs,.header.frame_id,.latitude,.longitude,.hEll
2018/12/16/17:22:07.630371,14509,0,0,5,67.3311621125,15.8071201514,0.0
2018/12/16/17:22:07.649666,14510,0,0,5,67.3311621125,15.8071201514,0.0
2018/12/16/17:22:07.670394,14511,0,0,5,67.3311621125,15.8071201514,0.0
2018/12/16/17:22:07.689898,14512,0,0,5,67.3311621125,15.8071201514,0.0
2018/12/16/17:22:07.710320,14513,0,0,5,67.3311621125,15.8071201514,0.0
2018/12/16/17:22:16.750373,14514,0,0,5,22.7830000025,4.57900000001,0.0
2018/12/16/17:22:16.769530,14515,0,0,5,22.7830000025,4.57900000001,0.0
2018/12/16/17:22:16.790303,14516,0,0,5,22.7830000025,4.57900000001,0.0
2018/12/16/17:22:16.810232,14517,0,0,5,22.7830000025,4.57900000001,0.0
2018/12/16/17:22:16.830347,14518,0,0,5,22.7830000025,4.57900000001,0.0
2018/12/16/17:22:16.849493,14519,0,0,5,22.7830000025,4.57900000001,0.0
2018/12/16/17:22:16.870023,14520,0,0,5,22.7830000011,4.579,0.0
2018/12/16/17:22:16.889891,14521,0,0,5,22.7830000011,4.579,0.0
2018/12/16/17:22:16.909635,14522,0,0,5,22.7830000011,4.579,0.0
2018/12/16/17:22:16.929447,14523,0,0,5,22.7830000011,4.579,0.0
2018/12/16/17:22:16.950193,14524,0,0,5,22.7830000011,4.579,0.0
2018/12/16/17:22:16.969933,14525,0,0,5,22.7830000011,4.579,0.0
2018/12/16/17:22:16.989659,14526,0,0,5,22.7830000011,4.579,0.0
2018/12/16/17:22:17.009624,14527,0,0,5,22.7830000011,4.579,0.0
2018/12/16/17:22:17.030511,14528,0,0,5,22.783000019,4.57899999991,0.0
2018/12/16/17:22:17.050075,14529,0,0,5,22.783000019,4.57899999991,0.0
2018/12/16/17:22:17.069565,14530,0,0,5,22.783000019,4.57899999991,0.0
2018/12/16/17:22:17.089978,14531,0,0,5,22.783000019,4.57899999991,0.0
2018/12/16/17:22:17.109938,14532,0,0,5,22.783000019,4.57899999991,0.0
2018/12/16/17:22:17.129889,14533,0,0,5,22.783000019,4.57899999991,0.0
2018/12/16/17:22:17.150675,14534,0,0,5,22.783000019,4.57899999991,0.0
2018/12/16/17:22:17.169505,14535,0,0,5,22.7830004699,4.57899999028,0.0
2018/12/16/17:22:17.190279,14536,0,0,5,22.7830004699,4.57899999028,0.0
2018/12/16/17:22:17.210939,14537,0,0,5,22.7830004699,4.57899999028,0.0
2018/12/16/17:22:17.229419,14538,0,0,5,22.7830004699,4.57899999028,0.0
2018/12/16/17:22:17.250420,14539,0,0,5,22.7830004699,4.57899999028,0.0
2018/12/16/17:22:17.269634,14540,0,0,5,22.7830004699,4.57899999028,0.0
2018/12/16/17:22:17.290637,14541,0,0,5,22.7830004699,4.57899999028,0.0
2018/12/16/17:22:17.310326,14542,0,0,5,22.7837116056,4.57898521122,0.0
2018/12/16/17:22:17.329635,14543,0,0,5,22.7837116056,4.57898521122,0.0
2018/12/16/17:22:17.350208,14544,0,0,5,22.7837116056,4.57898521122,0.0
2018/12/16/17:22:17.369570,14545,0,0,5,22.7837116056,4.57898521122,0.0
2018/12/16/17:22:17.389673,14546,0,0,5,22.7837116056,4.57898521122,0.0
2018/12/16/17:22:17.409679,14547,0,0,5,22.7837116056,4.57898521122,0.0
2018/12/16/17:22:17.429839,14548,0,0,5,22.7837116056,4.57898521122,0.0
2018/12/16/17:22:17.449868,14549,0,0,5,22.7837116056,4.57898521122,0.0
2018/12/16/17:22:17.470693,14550,0,0,5,24.23332935,4.54878243181,0.0
2018/12/16/17:22:17.489498,14551,0,0,5,24.23332935,4.54878243181,0.0
2018/12/16/17:22:17.509498,14552,0,0,5,24.23332935,4.54878243181,0.0
2018/12/16/17:22:17.530529,14553,0,0,5,24.23332935,4.54878243181,0.0
2018/12/16/17:22:17.550281,14554,0,0,5,24.23332935,4.54878243181,0.0
2018/12/16/17:22:17.570180,14555,0,0,5,24.23332935,4.54878243181,0.0
2018/12/16/17:22:17.589962,14556,0,0,5,24.23332935,4.54878243181,0.0
2018/12/16/17:22:17.611661,14557,0,0,5,26.366843078,4.50431052372,0.0
2018/12/16/17:22:17.629838,14558,0,0,5,26.366843078,4.50431052372,0.0
2018/12/16/17:22:17.649653,14559,0,0,5,26.366843078,4.50431052372,0.0
2018/12/16/17:22:17.669641,14560,0,0,5,26.366843078,4.50431052372,0.0
2018/12/16/17:22:17.689832,14561,0,0,5,26.366843078,4.50431052372,0.0
2018/12/16/17:22:17.709466,14562,0,0,5,26.366843078,4.50431052372,0.0
2018/12/16/17:22:17.729891,14563,0,0,5,27.1970353672,4.48699958701,0.0
2018/12/16/17:22:17.749848,14564,0,0,5,27.1970353672,4.48699958701,0.0
2018/12/16/17:22:17.770206,14565,0,0,5,27.1970353672,4.48699958701,0.0
2018/12/16/17:22:17.790322,14566,0,0,5,27.1970353672,4.48699958701,0.0
2018/12/16/17:22:17.810744,14567,0,0,5,27.1970353672,4.48699958701,0.0
2018/12/16/17:22:17.830425,14568,0,0,5,27.1970353672,4.48699958701,0.0
2018/12/16/17:22:17.849915,14569,0,0,5,27.1970353672,4.48699958701,0.0
2018/12/16/17:22:17.869580,14570,0,0,5,27.1970353672,4.48699958701,0.0
2018/12/16/17:22:17.889553,14571,0,0,5,27.1970114568,4.48699981899,0.0
2018/12/16/17:22:17.910127,14572,0,0,5,27.1970114568,4.48699981899,0.0
2018/12/16/17:22:17.930130,14573,0,0,5,27.1970114568,4.48699981899,0.0
2018/12/16/17:22:17.949562,14574,0,0,5,27.1970114568,4.48699981899,0.0
2018/12/16/17:22:17.969950,14575,0,0,5,27.1970114568,4.48699981899,0.0
2018/12/16/17:22:17.990473,14576,0,0,5,27.1970114568,4.48699981899,0.0
2018/12/16/17:22:18.010519,14577,0,0,5,27.1970114568,4.48699981899,0.0
2018/12/16/17:22:18.030038,14578,0,0,5,27.1970114568,4.48699981899,0.0
2018/12/16/17:22:18.050174,14579,0,0,5,27.1970007042,4.48699998858,0.0
2018/12/16/17:22:18.070128,14580,0,0,5,27.1970007042,4.48699998858,0.0
2018/12/16/17:22:18.089724,14581,0,0,5,27.1970007042,4.48699998858,0.0
2018/12/16/17:22:18.109587,14582,0,0,5,27.1970007042,4.48699998858,0.0
2018/12/16/17:22:18.130250,14583,0,0,5,27.1970007042,4.48699998858,0.0
2018/12/16/17:22:18.150140,14584,0,0,5,27.1970007042,4.48699998858,0.0
2018/12/16/17:22:18.169188,14585,0,0,5,27.1970243536,4.48699960508,0.0
2018/12/16/17:22:18.189562,14586,0,0,5,27.1970243536,4.48699960508,0.0
2018/12/16/17:22:18.210194,14587,0,0,5,27.1970243536,4.48699960508,0.0
2018/12/16/17:22:18.229353,14588,0,0,5,27.1970243536,4.48699960508,0.0
2018/12/16/17:22:18.250094,14589,0,0,5,27.1970243536,4.48699960508,0.0
2018/12/16/17:22:18.269185,14590,0,0,5,27.1970243536,4.48699960508,0.0
2018/12/16/17:22:18.289580,14591,0,0,5,27.1970243536,4.48699960508,0.0
2018/12/16/17:22:18.310571,14592,0,0,5,28.9877850706,4.45796026126,0.0
2018/12/16/17:22:18.330206,14593,0,0,5,28.9877850706,4.45796026126,0.0
2018/12/16/17:22:18.349823,14594,0,0,5,28.9877850706,4.45796026126,0.0
2018/12/16/17:22:18.370630,14595,0,0,5,28.9877850706,4.45796026126,0.0
2018/12/16/17:22:18.390208,14596,0,0,5,28.9877850706,4.45796026126,0.0
2018/12/16/17:22:18.410578,14597,0,0,5,28.9877850706,4.45796026126,0.0
2018/12/16/17:22:18.430199,14598,0,0,5,28.9877850706,4.45796026126,0.0
2018/12/16/17:22:18.449709,14599,0,0,5,28.9877850706,4.45796026126,0.0
2018/12/16/17:22:18.469764,14600,0,0,5,30.896608618,4.42700634719,0.0
2018/12/16/17:22:18.489970,14601,0,0,5,30.896608618,4.42700634719,0.0
2018/12/16/17:22:18.509757,14602,0,0,5,30.896608618,4.42700634719,0.0
2018/12/16/17:22:18.530117,14603,0,0,5,30.896608618,4.42700634719,0.0
2018/12/16/17:22:18.550114,14604,0,0,5,30.896608618,4.42700634719,0.0
2018/12/16/17:22:18.570549,14605,0,0,5,30.896608618,4.42700634719,0.0
2018/12/16/17:22:18.589517,14606,0,0,5,30.896608618,4.42700634719,0.0
2018/12/16/17:22:18.610811,14607,0,0,5,30.8969999801,4.42700000035,0.0
2018/12/16/17:22:18.630896,14608,0,0,5,30.8969999801,4.42700000035,0.0
2018/12/16/17:22:18.649972,14609,0,0,5,30.8969999801,4.42700000035,0.0
2018/12/16/17:22:18.670454,14610,0,0,5,30.8969999801,4.42700000035,0.0
2018/12/16/17:22:18.690094,14611,0,0,5,30.8969999801,4.42700000035,0.0
2018/12/16/17:22:18.710318,14612,0,0,5,30.8969999801,4.42700000035,0.0
2018/12/16/17:22:18.729869,14613,0,0,5,30.8969999801,4.42700000035,0.0
2018/12/16/17:22:18.749582,14614,0,0,5,30.8970076471,4.42699995327,0.0
2018/12/16/17:22:18.769939,14615,0,0,5,30.8970076471,4.42699995327,0.0
2018/12/16/17:22:18.789574,14616,0,0,5,30.8970076471,4.42699995327,0.0
2018/12/16/17:22:18.810162,14617,0,0,5,30.8970076471,4.42699995327,0.0
2018/12/16/17:22:18.830133,14618,0,0,5,30.8970076471,4.42699995327,0.0
2018/12/16/17:22:18.850593,14619,0,0,5,30.8970076471,4.42699995327,0.0
2018/12/16/17:22:18.870528,14620,0,0,5,31.1736156518,4.42524690313,0.0
2018/12/16/17:22:18.890172,14621,0,0,5,31.1736156518,4.42524690313,0.0
2018/12/16/17:22:18.909814,14622,0,0,5,31.1736156518,4.42524690313,0.0
2018/12/16/17:22:18.930108,14623,0,0,5,31.1736156518,4.42524690313,0.0
2018/12/16/17:22:18.949828,14624,0,0,5,31.1736156518,4.42524690313,0.0
2018/12/16/17:22:18.970328,14625,0,0,5,31.1736156518,4.42524690313,0.0
2018/12/16/17:22:18.989857,14626,0,0,5,31.1736156518,4.42524690313,0.0
2018/12/16/17:22:19.009063,14627,0,0,5,31.1736156518,4.42524690313,0.0
2018/12/16/17:22:19.030682,14628,0,0,5,31.9170582824,4.42053481184,0.0
2018/12/16/17:22:19.050076,14629,0,0,5,31.9170582824,4.42053481184,0.0
2018/12/16/17:22:19.070834,14630,0,0,5,31.9170582824,4.42053481184,0.0
2018/12/16/17:22:19.090372,14631,0,0,5,31.9170582824,4.42053481184,0.0
2018/12/16/17:22:19.109925,14632,0,0,5,31.9170582824,4.42053481184,0.0
2018/12/16/17:22:19.130026,14633,0,0,5,31.9170582824,4.42053481184,0.0
2018/12/16/17:22:19.150219,14634,0,0,5,34.1266493927,4.40652912132,0.0
2018/12/16/17:22:19.170102,14635,0,0,5,34.1266493927,4.40652912132,0.0
2018/12/16/17:22:19.188948,14636,0,0,5,34.1266493927,4.40652912132,0.0
2018/12/16/17:22:19.209765,14637,0,0,5,34.1266493927,4.40652912132,0.0
2018/12/16/17:22:19.229567,14638,0,0,5,34.1266493927,4.40652912132,0.0
2018/12/16/17:22:19.249977,14639,0,0,5,34.1266493927,4.40652912132,0.0
2018/12/16/17:22:19.269805,14640,0,0,5,34.1266493927,4.40652912132,0.0
2018/12/16/17:22:19.289173,14641,0,0,5,34.1266493927,4.40652912132,0.0
2018/12/16/17:22:19.311016,14642,0,0,5,34.1266493927,4.40652912132,0.0
2018/12/16/17:22:19.329340,14643,0,0,5,36.1029529213,4.39400030003,0.0
2018/12/16/17:22:19.349487,14644,0,0,5,36.1029529213,4.39400030003,0.0
2018/12/16/17:22:19.369490,14645,0,0,5,36.1029529213,4.39400030003,0.0
2018/12/16/17:22:19.389799,14646,0,0,5,36.1029529213,4.39400030003,0.0
2018/12/16/17:22:19.409546,14647,0,0,5,36.1029529213,4.39400030003,0.0
2018/12/16/17:22:19.429508,14648,0,0,5,36.1029529213,4.39400030003,0.0
2018/12/16/17:22:19.450642,14649,0,0,5,36.1029529213,4.39400030003,0.0
2018/12/16/17:22:19.469052,14650,0,0,5,36.1029899691,4.39400006885,0.0
2018/12/16/17:22:19.489854,14651,0,0,5,36.1029899691,4.39400006885,0.0
2018/12/16/17:22:19.509533,14652,0,0,5,36.1029899691,4.39400006885,0.0
2018/12/16/17:22:19.530112,14653,0,0,5,36.1029899691,4.39400006885,0.0
2018/12/16/17:22:19.550261,14654,0,0,5,36.1029899691,4.39400006885,0.0
2018/12/16/17:22:19.570486,14655,0,0,5,36.1029899691,4.39400006885,0.0
2018/12/16/17:22:19.589522,14656,0,0,5,36.1029957676,4.39400004846,0.0
2018/12/16/17:22:19.610168,14657,0,0,5,36.1029957676,4.39400004846,0.0
2018/12/16/17:22:19.629420,14658,0,0,5,36.1029957676,4.39400004846,0.0
2018/12/16/17:22:19.650165,14659,0,0,5,36.1029957676,4.39400004846,0.0
2018/12/16/17:22:19.670136,14660,0,0,5,36.1029957676,4.39400004846,0.0
2018/12/16/17:22:19.689790,14661,0,0,5,36.1029957676,4.39400004846,0.0
2018/12/16/17:22:19.709402,14662,0,0,5,36.1029957676,4.39400004846,0.0
2018/12/16/17:22:19.729420,14663,0,0,5,36.1029957676,4.39400004846,0.0
2018/12/16/17:22:19.750095,14664,0,0,5,36.1029984359,4.39400014256,0.0
2018/12/16/17:22:19.770615,14665,0,0,5,36.1029984359,4.39400014256,0.0
2018/12/16/17:22:19.789426,14666,0,0,5,36.1029984359,4.39400014256,0.0
2018/12/16/17:22:19.810184,14667,0,0,5,36.1029984359,4.39400014256,0.0
2018/12/16/17:22:19.829412,14668,0,0,5,36.1029984359,4.39400014256,0.0
2018/12/16/17:22:19.850510,14669,0,0,5,36.1029984359,4.39400014256,0.0
2018/12/16/17:22:19.869366,14670,0,0,5,36.1029984359,4.39400014256,0.0
2018/12/16/17:22:19.889878,14671,0,0,5,36.1030322104,4.39400088684,0.0
2018/12/16/17:22:19.909482,14672,0,0,5,36.1030322104,4.39400088684,0.0
2018/12/16/17:22:19.930119,14673,0,0,5,36.1030322104,4.39400088684,0.0
2018/12/16/17:22:19.949775,14674,0,0,5,36.1030322104,4.39400088684,0.0
2018/12/16/17:22:19.969341,14675,0,0,5,36.1030322104,4.39400088684,0.0
2018/12/16/17:22:19.989385,14676,0,0,5,36.1030322104,4.39400088684,0.0
2018/12/16/17:22:20.010197,14677,0,0,5,36.1030322104,4.39400088684,0.0
2018/12/16/17:22:20.029478,14678,0,0,5,36.1041138666,4.39401392239,0.0
2018/12/16/17:22:20.050489,14679,0,0,5,36.1041138666,4.39401392239,0.0
2018/12/16/17:22:20.070075,14680,0,0,5,36.1041138666,4.39401392239,0.0
2018/12/16/17:22:20.089736,14681,0,0,5,36.1041138666,4.39401392239,0.0
2018/12/16/17:22:20.109890,14682,0,0,5,36.1041138666,4.39401392239,0.0
2018/12/16/17:22:20.129796,14683,0,0,5,36.1041138666,4.39401392239,0.0
2018/12/16/17:22:20.149574,14684,0,0,5,36.1041138666,4.39401392239,0.0
2018/12/16/17:22:20.170116,14685,0,0,5,43.6840419444,4.47060452267,0.0
2018/12/16/17:22:20.189405,14686,0,0,5,43.6840419444,4.47060452267,0.0
2018/12/16/17:22:20.208821,14687,0,0,5,43.6840419444,4.47060452267,0.0
2018/12/16/17:22:20.229980,14688,0,0,5,43.6840419444,4.47060452267,0.0
2018/12/16/17:22:20.250105,14689,0,0,5,43.6840419444,4.47060452267,0.0
2018/12/16/17:22:20.269945,14690,0,0,5,43.6840419444,4.47060452267,0.0
2018/12/16/17:22:20.290452,14691,0,0,5,43.6840419444,4.47060452267,0.0
2018/12/16/17:22:20.309494,14692,0,0,5,43.6840419444,4.47060452267,0.0
2018/12/16/17:22:20.329557,14693,0,0,5,43.6468439297,4.46842576981,0.0
2018/12/16/17:22:20.349413,14694,0,0,5,43.6468439297,4.46842576981,0.0
2018/12/16/17:22:20.369485,14695,0,0,5,43.6468439297,4.46842576981,0.0
2018/12/16/17:22:20.390266,14696,0,0,5,43.6468439297,4.46842576981,0.0
2018/12/16/17:22:20.410742,14697,0,0,5,43.6468439297,4.46842576981,0.0
2018/12/16/17:22:20.429893,14698,0,0,5,43.6468439297,4.46842576981,0.0
2018/12/16/17:22:20.449930,14699,0,0,5,43.644341683,4.46821052732,0.0
2018/12/16/17:22:20.469489,14700,0,0,5,43.644341683,4.46821052732,0.0
2018/12/16/17:22:20.490152,14701,0,0,5,43.644341683,4.46821052732,0.0
2018/12/16/17:22:20.509416,14702,0,0,5,43.644341683,4.46821052732,0.0
2018/12/16/17:22:20.529457,14703,0,0,5,43.644341683,4.46821052732,0.0
2018/12/16/17:22:20.550010,14704,0,0,5,43.644341683,4.46821052732,0.0
2018/12/16/17:22:20.570189,14705,0,0,5,43.644341683,4.46821052732,0.0
2018/12/16/17:22:20.590187,14706,0,0,5,43.644341683,4.46821052732,0.0
2018/12/16/17:22:20.609480,14707,0,0,5,43.6351232775,4.46802042402,0.0
2018/12/16/17:22:20.629428,14708,0,0,5,43.6351232775,4.46802042402,0.0
2018/12/16/17:22:20.650466,14709,0,0,5,43.6351232775,4.46802042402,0.0
2018/12/16/17:22:20.670533,14710,0,0,5,43.6351232775,4.46802042402,0.0
2018/12/16/17:22:20.690126,14711,0,0,5,43.6351232775,4.46802042402,0.0
2018/12/16/17:22:20.710223,14712,0,0,5,43.6351232775,4.46802042402,0.0
2018/12/16/17:22:20.730161,14713,0,0,5,43.6351232775,4.46802042402,0.0
2018/12/16/17:22:20.749480,14714,0,0,5,43.6342167124,4.46800388784,0.0
2018/12/16/17:22:20.769425,14715,0,0,5,43.6342167124,4.46800388784,0.0
2018/12/16/17:22:20.789662,14716,0,0,5,43.6342167124,4.46800388784,0.0
2018/12/16/17:22:20.809444,14717,0,0,5,43.6342167124,4.46800388784,0.0
2018/12/16/17:22:20.830655,14718,0,0,5,43.6342167124,4.46800388784,0.0
2018/12/16/17:22:20.849817,14719,0,0,5,43.6342167124,4.46800388784,0.0
2018/12/16/17:22:20.869971,14720,0,0,5,43.6342167124,4.46800388784,0.0
2018/12/16/17:22:20.890466,14721,0,0,5,43.6356307152,4.46802925581,0.0
2018/12/16/17:22:20.909786,14722,0,0,5,43.6356307152,4.46802925581,0.0
2018/12/16/17:22:20.929720,14723,0,0,5,43.6356307152,4.46802925581,0.0
2018/12/16/17:22:20.950054,14724,0,0,5,43.6356307152,4.46802925581,0.0
2018/12/16/17:22:20.969914,14725,0,0,5,43.6356307152,4.46802925581,0.0
2018/12/16/17:22:20.989983,14726,0,0,5,43.6356307152,4.46802925581,0.0
2018/12/16/17:22:21.009460,14727,0,0,5,43.6356307152,4.46802925581,0.0
2018/12/16/17:22:21.030012,14728,0,0,5,43.6340270365,4.46800048284,0.0
2018/12/16/17:22:21.050218,14729,0,0,5,43.6340270365,4.46800048284,0.0
2018/12/16/17:22:21.069167,14730,0,0,5,43.6340270365,4.46800048284,0.0
2018/12/16/17:22:21.089581,14731,0,0,5,43.6340270365,4.46800048284,0.0
2018/12/16/17:22:21.110153,14732,0,0,5,43.6340270365,4.46800048284,0.0
2018/12/16/17:22:21.130071,14733,0,0,5,43.6340270365,4.46800048284,0.0
2018/12/16/17:22:21.149820,14734,0,0,5,43.6340270365,4.46800048284,0.0
2018/12/16/17:22:21.170501,14735,0,0,5,43.6340021118,4.46800003771,0.0
2018/12/16/17:22:21.190073,14736,0,0,5,43.6340021118,4.46800003771,0.0
2018/12/16/17:22:21.209390,14737,0,0,5,43.6340021118,4.46800003771,0.0
2018/12/16/17:22:21.230454,14738,0,0,5,43.6340021118,4.46800003771,0.0
2018/12/16/17:22:21.249726,14739,0,0,5,43.6340021118,4.46800003771,0.0
2018/12/16/17:22:21.270049,14740,0,0,5,43.6340021118,4.46800003771,0.0
2018/12/16/17:22:21.290404,14741,0,0,5,43.6340021118,4.46800003771,0.0
2018/12/16/17:22:21.309582,14742,0,0,5,43.634708803,4.46801265721,0.0
2018/12/16/17:22:21.329892,14743,0,0,5,43.634708803,4.46801265721,0.0
2018/12/16/17:22:21.350392,14744,0,0,5,43.634708803,4.46801265721,0.0
2018/12/16/17:22:21.369377,14745,0,0,5,43.634708803,4.46801265721,0.0
2018/12/16/17:22:21.390409,14746,0,0,5,43.634708803,4.46801265721,0.0
2018/12/16/17:22:21.410150,14747,0,0,5,43.634708803,4.46801265721,0.0
2018/12/16/17:22:21.430601,14748,0,0,5,43.634708803,4.46801265721,0.0
2018/12/16/17:22:21.450195,14749,0,0,5,43.634708803,4.46801265721,0.0
2018/12/16/17:22:21.470149,14750,0,0,5,47.4913664966,4.53688154522,0.0
2018/12/16/17:22:21.489916,14751,0,0,5,47.4913664966,4.53688154522,0.0
2018/12/16/17:22:21.509483,14752,0,0,5,47.4913664966,4.53688154522,0.0
2018/12/16/17:22:21.529819,14753,0,0,5,47.4913664966,4.53688154522,0.0
2018/12/16/17:22:21.549881,14754,0,0,5,47.4913664966,4.53688154522,0.0
2018/12/16/17:22:21.570088,14755,0,0,5,47.4913664966,4.53688154522,0.0
2018/12/16/17:22:21.590444,14756,0,0,5,48.2165634592,4.54983149036,0.0
2018/12/16/17:22:21.609675,14757,0,0,5,48.2165634592,4.54983149036,0.0
2018/12/16/17:22:21.630441,14758,0,0,5,48.2165634592,4.54983149036,0.0
2018/12/16/17:22:21.649513,14759,0,0,5,48.2165634592,4.54983149036,0.0
2018/12/16/17:22:21.670056,14760,0,0,5,48.2165634592,4.54983149036,0.0
2018/12/16/17:22:21.689999,14761,0,0,5,48.2165634592,4.54983149036,0.0
2018/12/16/17:22:21.710019,14762,0,0,5,48.2165634592,4.54983149036,0.0
2018/12/16/17:22:21.729475,14763,0,0,5,48.2165634592,4.54983149036,0.0
2018/12/16/17:22:21.749761,14764,0,0,5,48.2259999999,4.55,0.0
2018/12/16/17:22:21.769466,14765,0,0,5,48.2259999999,4.55,0.0
2018/12/16/17:22:21.789855,14766,0,0,5,48.2259999999,4.55,0.0
2018/12/16/17:22:21.809435,14767,0,0,5,48.2259999999,4.55,0.0
2018/12/16/17:22:21.830079,14768,0,0,5,48.2259999999,4.55,0.0
2018/12/16/17:22:21.849375,14769,0,0,5,48.2259999999,4.55,0.0
2018/12/16/17:22:21.869430,14770,0,0,5,48.2259999999,4.55,0.0
2018/12/16/17:22:21.889427,14771,0,0,5,48.2259999706,4.5499999995,0.0
2018/12/16/17:22:21.909818,14772,0,0,5,48.2259999706,4.5499999995,0.0
2018/12/16/17:22:21.930420,14773,0,0,5,48.2259999706,4.5499999995,0.0
2018/12/16/17:22:21.949445,14774,0,0,5,48.2259999706,4.5499999995,0.0
2018/12/16/17:22:21.970157,14775,0,0,5,48.2259999706,4.5499999995,0.0
2018/12/16/17:22:21.989801,14776,0,0,5,48.2259999706,4.5499999995,0.0
2018/12/16/17:22:22.010030,14777,0,0,5,48.2259999706,4.5499999995,0.0
2018/12/16/17:22:22.029646,14778,0,0,5,48.2259998513,4.54999999796,0.0
2018/12/16/17:22:22.049698,14779,0,0,5,48.2259998513,4.54999999796,0.0
2018/12/16/17:22:22.070063,14780,0,0,5,48.2259998513,4.54999999796,0.0
2018/12/16/17:22:22.090033,14781,0,0,5,48.2259998513,4.54999999796,0.0
2018/12/16/17:22:22.109200,14782,0,0,5,48.2259998513,4.54999999796,0.0
2018/12/16/17:22:22.130082,14783,0,0,5,48.2259998513,4.54999999796,0.0
2018/12/16/17:22:22.150097,14784,0,0,5,48.2259998513,4.54999999796,0.0
2018/12/16/17:22:22.169967,14785,0,0,5,48.2259998513,4.54999999796,0.0
2018/12/16/17:22:22.190768,14786,0,0,5,51.964583671,4.63246390906,0.0
2018/12/16/17:22:22.210566,14787,0,0,5,51.964583671,4.63246390906,0.0
2018/12/16/17:22:22.229640,14788,0,0,5,51.964583671,4.63246390906,0.0
2018/12/16/17:22:22.250592,14789,0,0,5,51.964583671,4.63246390906,0.0
2018/12/16/17:22:22.269369,14790,0,0,5,51.964583671,4.63246390906,0.0
2018/12/16/17:22:22.289394,14791,0,0,5,51.964583671,4.63246390906,0.0
2018/12/16/17:22:22.310139,14792,0,0,5,51.964583671,4.63246390906,0.0
2018/12/16/17:22:22.329537,14793,0,0,5,51.9355057591,4.63176238448,0.0
2018/12/16/17:22:22.350204,14794,0,0,5,51.9355057591,4.63176238448,0.0
2018/12/16/17:22:22.369799,14795,0,0,5,51.9355057591,4.63176238448,0.0
2018/12/16/17:22:22.389810,14796,0,0,5,51.9355057591,4.63176238448,0.0
2018/12/16/17:22:22.410974,14797,0,0,5,51.9355057591,4.63176238448,0.0
2018/12/16/17:22:22.430021,14798,0,0,5,51.9355057591,4.63176238448,0.0
2018/12/16/17:22:22.449514,14799,0,0,5,52.0873088837,4.63494866327,0.0
2018/12/16/17:22:22.470113,14800,0,0,5,52.0873088837,4.63494866327,0.0
2018/12/16/17:22:22.490027,14801,0,0,5,52.0873088837,4.63494866327,0.0
2018/12/16/17:22:22.510065,14802,0,0,5,52.0873088837,4.63494866327,0.0
2018/12/16/17:22:22.530033,14803,0,0,5,52.0873088837,4.63494866327,0.0
2018/12/16/17:22:22.550206,14804,0,0,5,52.0873088837,4.63494866327,0.0
2018/12/16/17:22:22.569443,14805,0,0,5,52.0873088837,4.63494866327,0.0
2018/12/16/17:22:22.589786,14806,0,0,5,52.0862731801,4.63491661278,0.0
2018/12/16/17:22:22.610792,14807,0,0,5,52.0862731801,4.63491661278,0.0
2018/12/16/17:22:22.630997,14808,0,0,5,52.0862731801,4.63491661278,0.0
2018/12/16/17:22:22.649602,14809,0,0,5,52.0862731801,4.63491661278,0.0
2018/12/16/17:22:22.669964,14810,0,0,5,52.0862731801,4.63491661278,0.0
2018/12/16/17:22:22.689486,14811,0,0,5,52.0862731801,4.63491661278,0.0
2018/12/16/17:22:22.709350,14812,0,0,5,52.0862731801,4.63491661278,0.0
2018/12/16/17:22:22.729767,14813,0,0,5,52.0963626094,4.63516607873,0.0
2018/12/16/17:22:22.749086,14814,0,0,5,52.0963626094,4.63516607873,0.0
2018/12/16/17:22:22.769638,14815,0,0,5,52.0963626094,4.63516607873,0.0
2018/12/16/17:22:22.789746,14816,0,0,5,52.0963626094,4.63516607873,0.0
2018/12/16/17:22:22.810014,14817,0,0,5,52.0963626094,4.63516607873,0.0
2018/12/16/17:22:22.829221,14818,0,0,5,52.0963626094,4.63516607873,0.0
2018/12/16/17:22:22.850407,14819,0,0,5,52.0963626094,4.63516607873,0.0
2018/12/16/17:22:22.870559,14820,0,0,5,52.1175027104,4.6361388595,0.0
2018/12/16/17:22:22.890161,14821,0,0,5,52.1175027104,4.6361388595,0.0
2018/12/16/17:22:22.909779,14822,0,0,5,52.1175027104,4.6361388595,0.0
2018/12/16/17:22:22.930009,14823,0,0,5,52.1175027104,4.6361388595,0.0
2018/12/16/17:22:22.949365,14824,0,0,5,52.1175027104,4.6361388595,0.0
2018/12/16/17:22:22.970129,14825,0,0,5,52.1175027104,4.6361388595,0.0
2018/12/16/17:22:22.990492,14826,0,0,5,52.1175027104,4.6361388595,0.0
2018/12/16/17:22:23.009826,14827,0,0,5,52.1175027104,4.6361388595,0.0
2018/12/16/17:22:23.029424,14828,0,0,5,52.7671023672,4.64748188742,0.0
2018/12/16/17:22:23.049202,14829,0,0,5,52.7671023672,4.64748188742,0.0
2018/12/16/17:22:23.069289,14830,0,0,5,52.7671023672,4.64748188742,0.0
2018/12/16/17:22:23.089058,14831,0,0,5,52.7671023672,4.64748188742,0.0
2018/12/16/17:22:23.110118,14832,0,0,5,52.7671023672,4.64748188742,0.0
2018/12/16/17:22:23.129800,14833,0,0,5,52.7671023672,4.64748188742,0.0
2018/12/16/17:22:23.150089,14834,0,0,5,55.9794594435,4.70678694247,0.0
2018/12/16/17:22:23.169229,14835,0,0,5,55.9794594435,4.70678694247,0.0
2018/12/16/17:22:23.189822,14836,0,0,5,55.9794594435,4.70678694247,0.0
2018/12/16/17:22:23.209358,14837,0,0,5,55.9794594435,4.70678694247,0.0
2018/12/16/17:22:23.230221,14838,0,0,5,55.9794594435,4.70678694247,0.0
2018/12/16/17:22:23.250123,14839,0,0,5,55.9794594435,4.70678694247,0.0
2018/12/16/17:22:23.269770,14840,0,0,5,55.9794594435,4.70678694247,0.0
2018/12/16/17:22:23.288973,14841,0,0,5,55.9794594435,4.70678694247,0.0
2018/12/16/17:22:23.310191,14842,0,0,5,55.9909986209,4.70699997453,0.0
2018/12/16/17:22:23.331418,14843,0,0,5,55.9909986209,4.70699997453,0.0
2018/12/16/17:22:23.350598,14844,0,0,5,55.9909986209,4.70699997453,0.0
2018/12/16/17:22:23.369938,14845,0,0,5,55.9909986209,4.70699997453,0.0
2018/12/16/17:22:23.389613,14846,0,0,5,55.9909986209,4.70699997453,0.0
2018/12/16/17:22:23.409293,14847,0,0,5,55.9909986209,4.70699997453,0.0
2018/12/16/17:22:23.430132,14848,0,0,5,55.9909986209,4.70699997453,0.0
2018/12/16/17:22:23.449401,14849,0,0,5,55.9909999828,4.70699999967,0.0
2018/12/16/17:22:23.470124,14850,0,0,5,55.9909999828,4.70699999967,0.0
2018/12/16/17:22:23.489706,14851,0,0,5,55.9909999828,4.70699999967,0.0
2018/12/16/17:22:23.509444,14852,0,0,5,55.9909999828,4.70699999967,0.0
2018/12/16/17:22:23.529587,14853,0,0,5,55.9909999828,4.70699999967,0.0
2018/12/16/17:22:23.550107,14854,0,0,5,55.9909999828,4.70699999967,0.0
2018/12/16/17:22:23.569600,14855,0,0,5,55.9909999828,4.70699999967,0.0
2018/12/16/17:22:23.590466,14856,0,0,5,55.991,4.707,0.0
2018/12/16/17:22:23.609985,14857,0,0,5,55.991,4.707,0.0
2018/12/16/17:22:23.630269,14858,0,0,5,55.991,4.707,0.0
2018/12/16/17:22:23.649373,14859,0,0,5,55.991,4.707,0.0
2018/12/16/17:22:23.670095,14860,0,0,5,55.991,4.707,0.0
2018/12/16/17:22:23.690375,14861,0,0,5,55.991,4.707,0.0
2018/12/16/17:22:23.710285,14862,0,0,5,55.991,4.707,0.0
2018/12/16/17:22:23.729355,14863,0,0,5,55.9910193726,4.70700031181,0.0
2018/12/16/17:22:23.749703,14864,0,0,5,55.9910193726,4.70700031181,0.0
2018/12/16/17:22:23.770101,14865,0,0,5,55.9910193726,4.70700031181,0.0
2018/12/16/17:22:23.789449,14866,0,0,5,55.9910193726,4.70700031181,0.0
2018/12/16/17:22:23.810071,14867,0,0,5,55.9910193726,4.70700031181,0.0
2018/12/16/17:22:23.830477,14868,0,0,5,55.9910193726,4.70700031181,0.0
2018/12/16/17:22:23.849423,14869,0,0,5,55.9910193726,4.70700031181,0.0
2018/12/16/17:22:23.870015,14870,0,0,5,55.9910193726,4.70700031181,0.0
2018/12/16/17:22:23.890022,14871,0,0,5,56.0012525252,4.70716501094,0.0
2018/12/16/17:22:23.909737,14872,0,0,5,56.0012525252,4.70716501094,0.0
2018/12/16/17:22:23.930527,14873,0,0,5,56.0012525252,4.70716501094,0.0
2018/12/16/17:22:23.950175,14874,0,0,5,56.0012525252,4.70716501094,0.0
2018/12/16/17:22:23.970109,14875,0,0,5,56.0012525252,4.70716501094,0.0
2018/12/16/17:22:23.989428,14876,0,0,5,56.0012525252,4.70716501094,0.0
2018/12/16/17:22:24.009704,14877,0,0,5,56.0012525252,4.70716501094,0.0
2018/12/16/17:22:24.029990,14878,0,0,5,59.6525559365,4.76592678588,0.0
2018/12/16/17:22:24.050382,14879,0,0,5,59.6525559365,4.76592678588,0.0
2018/12/16/17:22:24.069683,14880,0,0,5,59.6525559365,4.76592678588,0.0
2018/12/16/17:22:24.090032,14881,0,0,5,59.6525559365,4.76592678588,0.0
2018/12/16/17:22:24.109164,14882,0,0,5,59.6525559365,4.76592678588,0.0
2018/12/16/17:22:24.129431,14883,0,0,5,59.6525559365,4.76592678588,0.0
2018/12/16/17:22:24.149834,14884,0,0,5,60.4492444472,4.77874075072,0.0
2018/12/16/17:22:24.169395,14885,0,0,5,60.4492444472,4.77874075072,0.0
2018/12/16/17:22:24.188948,14886,0,0,5,60.4492444472,4.77874075072,0.0
2018/12/16/17:22:24.210809,14887,0,0,5,60.4492444472,4.77874075072,0.0
2018/12/16/17:22:24.229204,14888,0,0,5,60.4492444472,4.77874075072,0.0
2018/12/16/17:22:24.249378,14889,0,0,5,60.4492444472,4.77874075072,0.0
2018/12/16/17:22:24.270137,14890,0,0,5,60.4492444472,4.77874075072,0.0
2018/12/16/17:22:24.290031,14891,0,0,5,60.7195868039,4.78303823938,0.0
2018/12/16/17:22:24.309355,14892,0,0,5,60.7195868039,4.78303823938,0.0
2018/12/16/17:22:24.329318,14893,0,0,5,60.7195868039,4.78303823938,0.0
2018/12/16/17:22:24.350130,14894,0,0,5,60.7195868039,4.78303823938,0.0
2018/12/16/17:22:24.369446,14895,0,0,5,60.7195868039,4.78303823938,0.0
2018/12/16/17:22:24.390095,14896,0,0,5,60.7195868039,4.78303823938,0.0
2018/12/16/17:22:24.409739,14897,0,0,5,60.7195868039,4.78303823938,0.0
2018/12/16/17:22:24.430029,14898,0,0,5,60.7195868039,4.78303823938,0.0
2018/12/16/17:22:24.449474,14899,0,0,5,60.7851377991,4.78352364374,0.0
2018/12/16/17:22:24.470061,14900,0,0,5,60.7851377991,4.78352364374,0.0
2018/12/16/17:22:24.489547,14901,0,0,5,60.7851377991,4.78352364374,0.0
2018/12/16/17:22:24.509357,14902,0,0,5,60.7851377991,4.78352364374,0.0
2018/12/16/17:22:24.530495,14903,0,0,5,60.7851377991,4.78352364374,0.0
2018/12/16/17:22:24.550178,14904,0,0,5,60.7851377991,4.78352364374,0.0
2018/12/16/17:22:24.570135,14905,0,0,5,60.7851377991,4.78352364374,0.0
2018/12/16/17:22:24.589811,14906,0,0,5,60.7851377991,4.78352364374,0.0
2018/12/16/17:22:24.610664,14907,0,0,5,61.2744000285,4.78710473777,0.0
2018/12/16/17:22:24.631082,14908,0,0,5,61.2744000285,4.78710473777,0.0
2018/12/16/17:22:24.649219,14909,0,0,5,61.2744000285,4.78710473777,0.0
2018/12/16/17:22:24.670274,14910,0,0,5,61.2744000285,4.78710473777,0.0
2018/12/16/17:22:24.690136,14911,0,0,5,61.2744000285,4.78710473777,0.0
2018/12/16/17:22:24.710459,14912,0,0,5,61.2744000285,4.78710473777,0.0
2018/12/16/17:22:24.730384,14913,0,0,5,62.163391901,4.79358088862,0.0
2018/12/16/17:22:24.750006,14914,0,0,5,62.163391901,4.79358088862,0.0
2018/12/16/17:22:24.769426,14915,0,0,5,62.163391901,4.79358088862,0.0
2018/12/16/17:22:24.789465,14916,0,0,5,62.163391901,4.79358088862,0.0
2018/12/16/17:22:24.810106,14917,0,0,5,62.163391901,4.79358088862,0.0
2018/12/16/17:22:24.829500,14918,0,0,5,62.163391901,4.79358088862,0.0
2018/12/16/17:22:24.851493,14919,0,0,5,62.163391901,4.79358088862,0.0
2018/12/16/17:22:24.870301,14920,0,0,5,62.163391901,4.79358088862,0.0
2018/12/16/17:22:24.889879,14921,0,0,5,65.3750389092,4.82456173345,0.0
2018/12/16/17:22:24.910094,14922,0,0,5,65.3750389092,4.82456173345,0.0
2018/12/16/17:22:24.929287,14923,0,0,5,65.3750389092,4.82456173345,0.0
2018/12/16/17:22:24.949674,14924,0,0,5,65.3750389092,4.82456173345,0.0
2018/12/16/17:22:24.970072,14925,0,0,5,65.3750389092,4.82456173345,0.0
2018/12/16/17:22:24.989405,14926,0,0,5,65.3750389092,4.82456173345,0.0
2018/12/16/17:22:25.010099,14927,0,0,5,65.4427083294,4.824991712,0.0
2018/12/16/17:22:25.030415,14928,0,0,5,65.4427083294,4.824991712,0.0
2018/12/16/17:22:25.050038,14929,0,0,5,65.4427083294,4.824991712,0.0
2018/12/16/17:22:25.069731,14930,0,0,5,65.4427083294,4.824991712,0.0
2018/12/16/17:22:25.090987,14931,0,0,5,65.4427083294,4.824991712,0.0
2018/12/16/17:22:25.109577,14932,0,0,5,65.4427083294,4.824991712,0.0
2018/12/16/17:22:25.129308,14933,0,0,5,65.4427083294,4.824991712,0.0
2018/12/16/17:22:25.149957,14934,0,0,5,65.4439952837,4.82499996904,0.0
2018/12/16/17:22:25.170153,14935,0,0,5,65.4439952837,4.82499996904,0.0
2018/12/16/17:22:25.189974,14936,0,0,5,65.4439952837,4.82499996904,0.0
2018/12/16/17:22:25.210455,14937,0,0,5,65.4439952837,4.82499996904,0.0
2018/12/16/17:22:25.229123,14938,0,0,5,65.4439952837,4.82499996904,0.0
2018/12/16/17:22:25.249352,14939,0,0,5,65.4439952837,4.82499996904,0.0
2018/12/16/17:22:25.270469,14940,0,0,5,65.4439952837,4.82499996904,0.0
2018/12/16/17:22:25.290054,14941,0,0,5,65.4439952837,4.82499996904,0.0
2018/12/16/17:22:25.310459,14942,0,0,5,65.4437291541,4.82499827828,0.0
2018/12/16/17:22:25.330288,14943,0,0,5,65.4437291541,4.82499827828,0.0
2018/12/16/17:22:25.349241,14944,0,0,5,65.4437291541,4.82499827828,0.0
2018/12/16/17:22:25.370240,14945,0,0,5,65.4437291541,4.82499827828,0.0
2018/12/16/17:22:25.389478,14946,0,0,5,65.4437291541,4.82499827828,0.0
2018/12/16/17:22:25.409709,14947,0,0,5,65.4437291541,4.82499827828,0.0
2018/12/16/17:22:25.430084,14948,0,0,5,65.4437291541,4.82499827828,0.0
2018/12/16/17:22:25.449075,14949,0,0,5,65.4437291541,4.82499827828,0.0
2018/12/16/17:22:25.469700,14950,0,0,5,65.443998927,4.82499998859,0.0
2018/12/16/17:22:25.489723,14951,0,0,5,65.443998927,4.82499998859,0.0
2018/12/16/17:22:25.511267,14952,0,0,5,65.443998927,4.82499998859,0.0
2018/12/16/17:22:25.529251,14953,0,0,5,65.443998927,4.82499998859,0.0
2018/12/16/17:22:25.549256,14954,0,0,5,65.443998927,4.82499998859,0.0
2018/12/16/17:22:25.570397,14955,0,0,5,65.443998927,4.82499998859,0.0
2018/12/16/17:22:25.590082,14956,0,0,5,63.0848744826,4.81003034177,0.0
2018/12/16/17:22:25.609335,14957,0,0,5,63.0848744826,4.81003034177,0.0
2018/12/16/17:22:25.630059,14958,0,0,5,63.0848744826,4.81003034177,0.0
2018/12/16/17:22:25.649495,14959,0,0,5,63.0848744826,4.81003034177,0.0
2018/12/16/17:22:25.669493,14960,0,0,5,63.0848744826,4.81003034177,0.0
2018/12/16/17:22:25.689573,14961,0,0,5,63.0848744826,4.81003034177,0.0
2018/12/16/17:22:25.709389,14962,0,0,5,63.0848744826,4.81003034177,0.0
2018/12/16/17:22:25.729430,14963,0,0,5,65.517189712,4.82475243423,0.0
2018/12/16/17:22:25.749974,14964,0,0,5,65.517189712,4.82475243423,0.0
2018/12/16/17:22:25.769653,14965,0,0,5,65.517189712,4.82475243423,0.0
2018/12/16/17:22:25.789982,14966,0,0,5,65.517189712,4.82475243423,0.0
2018/12/16/17:22:25.809285,14967,0,0,5,65.517189712,4.82475243423,0.0
2018/12/16/17:22:25.830339,14968,0,0,5,65.517189712,4.82475243423,0.0
2018/12/16/17:22:25.849324,14969,0,0,5,65.517189712,4.82475243423,0.0
2018/12/16/17:22:25.870074,14970,0,0,5,63.0809331437,4.81000030573,0.0
2018/12/16/17:22:25.890055,14971,0,0,5,63.0809331437,4.81000030573,0.0
2018/12/16/17:22:25.910546,14972,0,0,5,63.0809331437,4.81000030573,0.0
2018/12/16/17:22:25.929456,14973,0,0,5,63.0809331437,4.81000030573,0.0
2018/12/16/17:22:25.950147,14974,0,0,5,63.0809331437,4.81000030573,0.0
2018/12/16/17:22:25.970133,14975,0,0,5,63.0809331437,4.81000030573,0.0
2018/12/16/17:22:25.990057,14976,0,0,5,63.0809331437,4.81000030573,0.0
2018/12/16/17:22:26.009419,14977,0,0,5,63.0809331437,4.81000030573,0.0
2018/12/16/17:22:26.030081,14978,0,0,5,69.7575548057,4.80906255736,0.0
2018/12/16/17:22:26.050397,14979,0,0,5,69.7575548057,4.80906255736,0.0
2018/12/16/17:22:26.070195,14980,0,0,5,69.7575548057,4.80906255736,0.0
2018/12/16/17:22:26.089487,14981,0,0,5,69.7575548057,4.80906255736,0.0
2018/12/16/17:22:26.109637,14982,0,0,5,69.7575548057,4.80906255736,0.0
2018/12/16/17:22:26.130127,14983,0,0,5,69.7575548057,4.80906255736,0.0
2018/12/16/17:22:26.149306,14984,0,0,5,70.1173662023,4.80888561283,0.0
2018/12/16/17:22:26.170679,14985,0,0,5,70.1173662023,4.80888561283,0.0
2018/12/16/17:22:26.188911,14986,0,0,5,70.1173662023,4.80888561283,0.0
2018/12/16/17:22:26.210196,14987,0,0,5,70.1173662023,4.80888561283,0.0
2018/12/16/17:22:26.230468,14988,0,0,5,70.1173662023,4.80888561283,0.0
2018/12/16/17:22:26.249700,14989,0,0,5,70.1173662023,4.80888561283,0.0
2018/12/16/17:22:26.269844,14990,0,0,5,70.1173662023,4.80888561283,0.0
2018/12/16/17:22:26.289286,14991,0,0,5,70.1173662023,4.80888561283,0.0
2018/12/16/17:22:26.309559,14992,0,0,5,73.9485645217,4.79078472211,0.0
2018/12/16/17:22:26.328950,14993,0,0,5,73.9485645217,4.79078472211,0.0
2018/12/16/17:22:26.349393,14994,0,0,5,73.9485645217,4.79078472211,0.0
2018/12/16/17:22:26.370109,14995,0,0,5,73.9485645217,4.79078472211,0.0
2018/12/16/17:22:26.389752,14996,0,0,5,73.9485645217,4.79078472211,0.0
2018/12/16/17:22:26.409537,14997,0,0,5,73.9485645217,4.79078472211,0.0
2018/12/16/17:22:26.429421,14998,0,0,5,73.9485645217,4.79078472211,0.0
2018/12/16/17:22:26.449505,14999,0,0,5,73.9485645217,4.79078472211,0.0
2018/12/16/17:22:26.469578,15000,0,0,5,74.11163405,4.79000133634,0.0
2018/12/16/17:22:26.490087,15001,0,0,5,74.11163405,4.79000133634,0.0
2018/12/16/17:22:26.510591,15002,0,0,5,74.11163405,4.79000133634,0.0
2018/12/16/17:22:26.529223,15003,0,0,5,74.11163405,4.79000133634,0.0
2018/12/16/17:22:26.568924,15004,0,0,5,74.11163405,4.79000133634,0.0
2018/12/16/17:22:26.589695,15005,0,0,5,74.1120018776,4.78999998806,0.0
2018/12/16/17:22:26.609421,15006,0,0,5,74.1120018776,4.78999998806,0.0
2018/12/16/17:22:26.630096,15007,0,0,5,74.1120018776,4.78999998806,0.0
2018/12/16/17:22:26.649424,15008,0,0,5,74.1120018776,4.78999998806,0.0
2018/12/16/17:22:26.669695,15009,0,0,5,74.1120018776,4.78999998806,0.0
2018/12/16/17:22:26.690485,15010,0,0,5,74.1120018776,4.78999998806,0.0
2018/12/16/17:22:26.710117,15011,0,0,5,74.1120018776,4.78999998806,0.0
2018/12/16/17:22:26.729947,15012,0,0,5,74.1120136516,4.78999991334,0.0
2018/12/16/17:22:26.750070,15013,0,0,5,74.1120136516,4.78999991334,0.0
2018/12/16/17:22:26.769804,15014,0,0,5,74.1120136516,4.78999991334,0.0
2018/12/16/17:22:26.789673,15015,0,0,5,74.1120136516,4.78999991334,0.0
2018/12/16/17:22:26.809999,15016,0,0,5,74.1120136516,4.78999991334,0.0
2018/12/16/17:22:26.828896,15017,0,0,5,74.1120136516,4.78999991334,0.0
2018/12/16/17:22:26.849878,15018,0,0,5,74.1120136516,4.78999991334,0.0
2018/12/16/17:22:26.869322,15019,0,0,5,74.1548458542,4.78972709058,0.0
2018/12/16/17:22:26.889824,15020,0,0,5,74.1548458542,4.78972709058,0.0
2018/12/16/17:22:26.909413,15021,0,0,5,74.1548458542,4.78972709058,0.0
2018/12/16/17:22:26.929372,15022,0,0,5,74.1548458542,4.78972709058,0.0
2018/12/16/17:22:26.950050,15023,0,0,5,74.1548458542,4.78972709058,0.0
2018/12/16/17:22:26.968906,15024,0,0,5,74.1548458542,4.78972709058,0.0
2018/12/16/17:22:26.989375,15025,0,0,5,74.1548458542,4.78972709058,0.0
2018/12/16/17:22:27.009363,15026,0,0,5,78.024739403,4.76517864706,0.0
2018/12/16/17:22:27.029369,15027,0,0,5,78.024739403,4.76517864706,0.0
2018/12/16/17:22:27.049358,15028,0,0,5,78.024739403,4.76517864706,0.0
2018/12/16/17:22:27.070331,15029,0,0,5,78.024739403,4.76517864706,0.0
2018/12/16/17:22:27.090354,15030,0,0,5,78.024739403,4.76517864706,0.0
2018/12/16/17:22:27.109340,15031,0,0,5,78.024739403,4.76517864706,0.0
2018/12/16/17:22:27.129680,15032,0,0,5,78.024739403,4.76517864706,0.0
2018/12/16/17:22:27.149211,15033,0,0,5,78.0553140968,4.76497936525,0.0
2018/12/16/17:22:27.170562,15034,0,0,5,78.0553140968,4.76497936525,0.0
2018/12/16/17:22:27.189333,15035,0,0,5,78.0553140968,4.76497936525,0.0
2018/12/16/17:22:27.209770,15036,0,0,5,78.0553140968,4.76497936525,0.0
2018/12/16/17:22:27.229979,15037,0,0,5,78.0553140968,4.76497936525,0.0
2018/12/16/17:22:27.249367,15038,0,0,5,78.0553140968,4.76497936525,0.0
2018/12/16/17:22:27.269430,15039,0,0,5,78.0553140968,4.76497936525,0.0
2018/12/16/17:22:27.289832,15040,0,0,5,78.0553140968,4.76497936525,0.0
2018/12/16/17:22:27.309866,15041,0,0,5,78.3651728685,4.76221756311,0.0
2018/12/16/17:22:27.329606,15042,0,0,5,78.3651728685,4.76221756311,0.0
2018/12/16/17:22:27.350610,15043,0,0,5,78.3651728685,4.76221756311,0.0
2018/12/16/17:22:27.369687,15044,0,0,5,78.3651728685,4.76221756311,0.0
2018/12/16/17:22:27.389437,15045,0,0,5,78.3651728685,4.76221756311,0.0
2018/12/16/17:22:27.409327,15046,0,0,5,78.3651728685,4.76221756311,0.0
2018/12/16/17:22:27.429666,15047,0,0,5,82.762256812,4.72299852289,0.0
2018/12/16/17:22:27.449696,15048,0,0,5,82.762256812,4.72299852289,0.0
2018/12/16/17:22:27.470066,15049,0,0,5,82.762256812,4.72299852289,0.0
2018/12/16/17:22:27.489826,15050,0,0,5,82.762256812,4.72299852289,0.0
2018/12/16/17:22:27.508880,15051,0,0,5,82.762256812,4.72299852289,0.0
2018/12/16/17:22:27.530063,15052,0,0,5,82.762256812,4.72299852289,0.0
2018/12/16/17:22:27.549697,15053,0,0,5,82.762256812,4.72299852289,0.0
2018/12/16/17:22:27.570090,15054,0,0,5,82.762256812,4.72299852289,0.0
2018/12/16/17:22:27.589364,15055,0,0,5,82.7632182972,4.72299296564,0.0
2018/12/16/17:22:27.609348,15056,0,0,5,82.7632182972,4.72299296564,0.0
2018/12/16/17:22:27.630234,15057,0,0,5,82.7632182972,4.72299296564,0.0
2018/12/16/17:22:27.649361,15058,0,0,5,82.7632182972,4.72299296564,0.0
2018/12/16/17:22:27.669390,15059,0,0,5,82.7632182972,4.72299296564,0.0
2018/12/16/17:22:27.690078,15060,0,0,5,82.7632182972,4.72299296564,0.0
2018/12/16/17:22:27.709744,15061,0,0,5,82.7632182972,4.72299296564,0.0
2018/12/16/17:22:27.729940,15062,0,0,5,82.7620000006,4.723,0.0
2018/12/16/17:22:27.750546,15063,0,0,5,82.7620000006,4.723,0.0
2018/12/16/17:22:27.769547,15064,0,0,5,82.7620000006,4.723,0.0
2018/12/16/17:22:27.789238,15065,0,0,5,82.7620000006,4.723,0.0
2018/12/16/17:22:27.809947,15066,0,0,5,82.7620000006,4.723,0.0
2018/12/16/17:22:27.830054,15067,0,0,5,82.7620000006,4.723,0.0
2018/12/16/17:22:27.850018,15068,0,0,5,82.7620000006,4.723,0.0
2018/12/16/17:22:27.869958,15069,0,0,5,82.7982248062,4.72279069767,0.0
2018/12/16/17:22:27.889965,15070,0,0,5,82.7982248062,4.72279069767,0.0
2018/12/16/17:22:27.910030,15071,0,0,5,82.7982248062,4.72279069767,0.0
2018/12/16/17:22:27.929968,15072,0,0,5,82.7982248062,4.72279069767,0.0
2018/12/16/17:22:27.950062,15073,0,0,5,82.7982248062,4.72279069767,0.0
2018/12/16/17:22:27.969415,15074,0,0,5,82.7982248062,4.72279069767,0.0
2018/12/16/17:22:27.989432,15075,0,0,5,82.7982248062,4.72279069767,0.0
2018/12/16/17:22:28.009221,15076,0,0,5,82.7982248062,4.72279069767,0.0
2018/12/16/17:22:28.029996,15077,0,0,5,87.0005740986,4.69851005764,0.0
2018/12/16/17:22:28.049700,15078,0,0,5,87.0005740986,4.69851005764,0.0
2018/12/16/17:22:28.070055,15079,0,0,5,87.0005740986,4.69851005764,0.0
2018/12/16/17:22:28.089661,15080,0,0,5,87.0005740986,4.69851005764,0.0
2018/12/16/17:22:28.108976,15081,0,0,5,87.0005740986,4.69851005764,0.0
2018/12/16/17:22:28.130105,15082,0,0,5,87.0005740986,4.69851005764,0.0
2018/12/16/17:22:28.149998,15083,0,0,5,87.0005740986,4.69851005764,0.0
2018/12/16/17:22:28.169567,15084,0,0,5,87.4349955616,4.69600002564,0.0
2018/12/16/17:22:28.189899,15085,0,0,5,87.4349955616,4.69600002564,0.0
2018/12/16/17:22:28.209523,15086,0,0,5,87.4349955616,4.69600002564,0.0
2018/12/16/17:22:28.229381,15087,0,0,5,87.4349955616,4.69600002564,0.0
2018/12/16/17:22:28.250484,15088,0,0,5,87.4349955616,4.69600002564,0.0
2018/12/16/17:22:28.269419,15089,0,0,5,87.4349955616,4.69600002564,0.0
2018/12/16/17:22:28.290008,15090,0,0,5,87.1879644059,4.69742734121,0.0
2018/12/16/17:22:28.309175,15091,0,0,5,87.1879644059,4.69742734121,0.0
2018/12/16/17:22:28.329260,15092,0,0,5,87.1879644059,4.69742734121,0.0
2018/12/16/17:22:28.349371,15093,0,0,5,87.1879644059,4.69742734121,0.0
2018/12/16/17:22:28.369678,15094,0,0,5,87.1879644059,4.69742734121,0.0
2018/12/16/17:22:28.389782,15095,0,0,5,87.1879644059,4.69742734121,0.0
2018/12/16/17:22:28.410184,15096,0,0,5,87.1879644059,4.69742734121,0.0
2018/12/16/17:22:28.429688,15097,0,0,5,87.1879644059,4.69742734121,0.0
2018/12/16/17:22:28.449887,15098,0,0,5,87.4343875164,4.69600353886,0.0
2018/12/16/17:22:28.469300,15099,0,0,5,87.4343875164,4.69600353886,0.0
2018/12/16/17:22:28.490310,15100,0,0,5,87.4343875164,4.69600353886,0.0
2018/12/16/17:22:28.509788,15101,0,0,5,87.4343875164,4.69600353886,0.0
2018/12/16/17:22:28.530163,15102,0,0,5,87.4343875164,4.69600353886,0.0
2018/12/16/17:22:28.549795,15103,0,0,5,87.4343875164,4.69600353886,0.0
2018/12/16/17:22:28.570218,15104,0,0,5,87.4343875164,4.69600353886,0.0
2018/12/16/17:22:28.589193,15105,0,0,5,87.4314732136,4.69602037748,0.0
2018/12/16/17:22:28.610403,15106,0,0,5,87.4314732136,4.69602037748,0.0
2018/12/16/17:22:28.629678,15107,0,0,5,87.4314732136,4.69602037748,0.0
2018/12/16/17:22:28.649695,15108,0,0,5,87.4314732136,4.69602037748,0.0
2018/12/16/17:22:28.670144,15109,0,0,5,87.4314732136,4.69602037748,0.0
2018/12/16/17:22:28.690057,15110,0,0,5,87.4314732136,4.69602037748,0.0
2018/12/16/17:22:28.709320,15111,0,0,5,87.4314732136,4.69602037748,0.0
2018/12/16/17:22:28.730181,15112,0,0,5,87.4297022757,4.69603060971,0.0
2018/12/16/17:22:28.749933,15113,0,0,5,87.4297022757,4.69603060971,0.0
2018/12/16/17:22:28.770262,15114,0,0,5,87.4297022757,4.69603060971,0.0
2018/12/16/17:22:28.789362,15115,0,0,5,87.4297022757,4.69603060971,0.0
2018/12/16/17:22:28.809307,15116,0,0,5,87.4297022757,4.69603060971,0.0
2018/12/16/17:22:28.829631,15117,0,0,5,87.4297022757,4.69603060971,0.0
2018/12/16/17:22:28.850021,15118,0,0,5,87.4297022757,4.69603060971,0.0
2018/12/16/17:22:28.869955,15119,0,0,5,87.4297022757,4.69603060971,0.0
2018/12/16/17:22:28.890113,15120,0,0,5,87.4314732382,4.6960203773,0.0
2018/12/16/17:22:28.909350,15121,0,0,5,87.4314732382,4.6960203773,0.0
2018/12/16/17:22:28.930031,15122,0,0,5,87.4314732382,4.6960203773,0.0
2018/12/16/17:22:28.949670,15123,0,0,5,87.4314732382,4.6960203773,0.0
2018/12/16/17:22:28.969651,15124,0,0,5,87.4314732382,4.6960203773,0.0
2018/12/16/17:22:28.990222,15125,0,0,5,87.4314732382,4.6960203773,0.0
2018/12/16/17:22:29.009681,15126,0,0,5,87.4325327647,4.69601425545,0.0
2018/12/16/17:22:29.029984,15127,0,0,5,87.4325327647,4.69601425545,0.0
2018/12/16/17:22:29.049602,15128,0,0,5,87.4325327647,4.69601425545,0.0
2018/12/16/17:22:29.069979,15129,0,0,5,87.4325327647,4.69601425545,0.0
2018/12/16/17:22:29.089547,15130,0,0,5,87.4325327647,4.69601425545,0.0
2018/12/16/17:22:29.109309,15131,0,0,5,87.4325327647,4.69601425545,0.0
2018/12/16/17:22:29.130362,15132,0,0,5,87.4325327647,4.69601425545,0.0
2018/12/16/17:22:29.149650,15133,0,0,5,87.4322925101,4.69601564362,0.0
2018/12/16/17:22:29.170707,15134,0,0,5,87.4322925101,4.69601564362,0.0
2018/12/16/17:22:29.189030,15135,0,0,5,87.4322925101,4.69601564362,0.0
2018/12/16/17:22:29.209591,15136,0,0,5,87.4322925101,4.69601564362,0.0
2018/12/16/17:22:29.229307,15137,0,0,5,87.4322925101,4.69601564362,0.0
2018/12/16/17:22:29.250071,15138,0,0,5,87.4322925101,4.69601564362,0.0
2018/12/16/17:22:29.269958,15139,0,0,5,87.4322925101,4.69601564362,0.0
2018/12/16/17:22:29.289708,15140,0,0,5,87.4322925101,4.69601564362,0.0
2018/12/16/17:22:29.429402,15141,0,0,5,92.8898039413,4.66492824025,0.0
2018/12/16/17:22:29.448881,15142,0,0,5,92.8898039413,4.66492824025,0.0
2018/12/16/17:22:29.470376,15143,0,0,5,92.8898039413,4.66492824025,0.0
2018/12/16/17:22:29.489313,15144,0,0,5,92.8898039413,4.66492824025,0.0
2018/12/16/17:22:29.509887,15145,0,0,5,92.8898039413,4.66492824025,0.0
2018/12/16/17:22:29.529755,15146,0,0,5,92.8898039413,4.66492824025,0.0
2018/12/16/17:22:29.550125,15147,0,0,5,92.8898039413,4.66492824025,0.0
2018/12/16/17:22:29.569381,15148,0,0,5,92.8898039413,4.66492824025,0.0
2018/12/16/17:22:29.589676,15149,0,0,5,92.8898039413,4.66492824025,0.0
2018/12/16/17:22:29.749375,15150,0,0,5,95.0859438357,4.6630002386,0.0
2018/12/16/17:22:29.769351,15151,0,0,5,95.0859438357,4.6630002386,0.0
2018/12/16/17:22:29.790205,15152,0,0,5,95.0859438357,4.6630002386,0.0
2018/12/16/17:22:29.809392,15153,0,0,5,95.0859438357,4.6630002386,0.0
2018/12/16/17:22:29.830403,15154,0,0,5,95.0859438357,4.6630002386,0.0
2018/12/16/17:22:29.849265,15155,0,0,5,95.0859438357,4.6630002386,0.0
2018/12/16/17:22:29.869972,15156,0,0,5,95.0859438357,4.6630002386,0.0
2018/12/16/17:22:29.889286,15157,0,0,5,95.086,4.663,0.0
2018/12/16/17:22:29.909353,15158,0,0,5,95.086,4.663,0.0
2018/12/16/17:22:29.929679,15159,0,0,5,95.086,4.663,0.0
2018/12/16/17:22:29.949302,15160,0,0,5,95.086,4.663,0.0
2018/12/16/17:22:29.968934,15161,0,0,5,95.086,4.663,0.0
2018/12/16/17:22:29.990304,15162,0,0,5,95.086,4.663,0.0
2018/12/16/17:22:30.009511,15163,0,0,5,95.086,4.663,0.0
2018/12/16/17:22:30.029210,15164,0,0,5,95.0876743125,4.66436322896,0.0
2018/12/16/17:22:30.049673,15165,0,0,5,95.0876743125,4.66436322896,0.0
2018/12/16/17:22:30.069949,15166,0,0,5,95.0876743125,4.66436322896,0.0
2018/12/16/17:22:30.089933,15167,0,0,5,95.0876743125,4.66436322896,0.0
2018/12/16/17:22:30.109326,15168,0,0,5,95.0876743125,4.66436322896,0.0
2018/12/16/17:22:30.130041,15169,0,0,5,95.0876743125,4.66436322896,0.0
2018/12/16/17:22:30.150000,15170,0,0,5,95.0859438357,4.6630002386,0.0
2018/12/16/17:22:30.170021,15171,0,0,5,95.0859438357,4.6630002386,0.0
2018/12/16/17:22:30.189541,15172,0,0,5,95.0859438357,4.6630002386,0.0
2018/12/16/17:22:30.229838,15173,0,0,5,95.0859438357,4.6630002386,0.0
2018/12/16/17:22:30.249870,15174,0,0,5,95.0859438357,4.6630002386,0.0
2018/12/16/17:22:30.269599,15175,0,0,5,95.0859438357,4.6630002386,0.0
2018/12/16/17:22:30.289894,15176,0,0,5,95.0859438357,4.6630002386,0.0
