time,.header.seq,.header.stamp.secs,.header.stamp.nsecs,.header.frame_id,.orientation.x,.orientation.y,.orientation.z,.orientation.w,.orientation_covariance,.angular_velocity.x,.angular_velocity.y,.angular_velocity.z,.angular_velocity_covariance,.linear_acceleration.x,.linear_acceleration.y,.linear_acceleration.z,.linear_acceleration_covariance
2018/12/16/17:22:06.354170,103703,1545002526,353469339,base_footprint,0.0,0.0,0.0,0.0,"(-1.0, 0.0, 0.0, 0.0, 0.0, 0.0, 0.0, 0.0, 0.0)",0.0,0.0,0.0,"(5.0, 0.0, 0.0, 0.0, 5.0, 0.0, 0.0, 0.0, 0.5)",0.77,0.19,-9.71,"(1.0, 0.0, 0.0, 0.0, 1.0, 0.0, 0.0, 0.0, 1.0)"
2018/12/16/17:22:06.364840,103704,1545002526,363744852,base_footprint,0.0,0.0,0.0,0.0,"(-1.0, 0.0, 0.0, 0.0, 0.0, 0.0, 0.0, 0.0, 0.0)",0.0002,0.0,0.0,"(5.0, 0.0, 0.0, 0.0, 5.0, 0.0, 0.0, 0.0, 0.5)",0.78,0.19,-9.7,"(1.0, 0.0, 0.0, 0.0, 1.0, 0.0, 0.0, 0.0, 1.0)"
2018/12/16/17:22:06.373999,103705,1545002526,373538190,base_footprint,0.0,0.0,0.0,0.0,"(-1.0, 0.0, 0.0, 0.0, 0.0, 0.0, 0.0, 0.0, 0.0)",0.0004,0.0,0.0,"(5.0, 0.0, 0.0, 0.0, 5.0, 0.0, 0.0, 0.0, 0.5)",0.79,0.19,-9.7,"(1.0, 0.0, 0.0, 0.0, 1.0, 0.0, 0.0, 0.0, 1.0)"
2018/12/16/17:22:06.384086,103706,1545002526,383450138,base_footprint,0.0,0.0,0.0,0.0,"(-1.0, 0.0, 0.0, 0.0, 0.0, 0.0, 0.0, 0.0, 0.0)",0.0,0.0,0.0,"(5.0, 0.0, 0.0, 0.0, 5.0, 0.0, 0.0, 0.0, 0.5)",0.79,0.19,-9.71,"(1.0, 0.0, 0.0, 0.0, 1.0, 0.0, 0.0, 0.0, 1.0)"
2018/12/16/17:22:06.394083,103707,1545002526,393443547,base_footprint,0.0,0.0,0.0,0.0,"(-1.0, 0.0, 0.0, 0.0, 0.0, 0.0, 0.0, 0.0, 0.0)",0.0,0.0,0.0,"(5.0, 0.0, 0.0, 0.0, 5.0, 0.0, 0.0, 0.0, 0.5)",0.8,0.18,-9.71,"(1.0, 0.0, 0.0, 0.0, 1.0, 0.0, 0.0, 0.0, 1.0)"
2018/12/16/17:22:06.404067,103708,1545002526,403460072,base_footprint,0.0,0.0,0.0,0.0,"(-1.0, 0.0, 0.0, 0.0, 0.0, 0.0, 0.0, 0.0, 0.0)",0.0006,0.0,0.0,"(5.0, 0.0, 0.0, 0.0, 5.0, 0.0, 0.0, 0.0, 0.5)",0.81,0.18,-9.71,"(1.0, 0.0, 0.0, 0.0, 1.0, 0.0, 0.0, 0.0, 1.0)"
2018/12/16/17:22:06.414520,103709,1545002526,414060739,base_footprint,0.0,0.0,0.0,0.0,"(-1.0, 0.0, 0.0, 0.0, 0.0, 0.0, 0.0, 0.0, 0.0)",0.0008,0.0,0.0,"(5.0, 0.0, 0.0, 0.0, 5.0, 0.0, 0.0, 0.0, 0.5)",0.83,0.18,-9.71,"(1.0, 0.0, 0.0, 0.0, 1.0, 0.0, 0.0, 0.0, 1.0)"
2018/12/16/17:22:06.424049,103710,1545002526,423424027,base_footprint,0.0,0.0,0.0,0.0,"(-1.0, 0.0, 0.0, 0.0, 0.0, 0.0, 0.0, 0.0, 0.0)",0.0006,0.0,0.0,"(5.0, 0.0, 0.0, 0.0, 5.0, 0.0, 0.0, 0.0, 0.5)",0.83,0.18,-9.71,"(1.0, 0.0, 0.0, 0.0, 1.0, 0.0, 0.0, 0.0, 1.0)"
2018/12/16/17:22:06.433937,103711,1545002526,433517242,base_footprint,0.0,0.0,0.0,0.0,"(-1.0, 0.0, 0.0, 0.0, 0.0, 0.0, 0.0, 0.0, 0.0)",0.0012,0.0,0.0004,"(5.0, 0.0, 0.0, 0.0, 5.0, 0.0, 0.0, 0.0, 0.5)",0.82,0.19,-9.72,"(1.0, 0.0, 0.0, 0.0, 1.0, 0.0, 0.0, 0.0, 1.0)"
2018/12/16/17:22:06.443797,103712,1545002526,443411572,base_footprint,0.0,0.0,0.0,0.0,"(-1.0, 0.0, 0.0, 0.0, 0.0, 0.0, 0.0, 0.0, 0.0)",0.0022,0.0,0.0008,"(5.0, 0.0, 0.0, 0.0, 5.0, 0.0, 0.0, 0.0, 0.5)",0.82,0.19,-9.72,"(1.0, 0.0, 0.0, 0.0, 1.0, 0.0, 0.0, 0.0, 1.0)"
2018/12/16/17:22:06.453908,103713,1545002526,453453472,base_footprint,0.0,0.0,0.0,0.0,"(-1.0, 0.0, 0.0, 0.0, 0.0, 0.0, 0.0, 0.0, 0.0)",0.0024,0.0,0.0012,"(5.0, 0.0, 0.0, 0.0, 5.0, 0.0, 0.0, 0.0, 0.5)",0.82,0.19,-9.73,"(1.0, 0.0, 0.0, 0.0, 1.0, 0.0, 0.0, 0.0, 1.0)"
2018/12/16/17:22:06.466315,103714,1545002526,464343323,base_footprint,0.0,0.0,0.0,0.0,"(-1.0, 0.0, 0.0, 0.0, 0.0, 0.0, 0.0, 0.0, 0.0)",0.0022,0.0,0.0012,"(5.0, 0.0, 0.0, 0.0, 5.0, 0.0, 0.0, 0.0, 0.5)",0.83,0.19,-9.74,"(1.0, 0.0, 0.0, 0.0, 1.0, 0.0, 0.0, 0.0, 1.0)"
2018/12/16/17:22:06.474051,103715,1545002526,473625760,base_footprint,0.0,0.0,0.0,0.0,"(-1.0, 0.0, 0.0, 0.0, 0.0, 0.0, 0.0, 0.0, 0.0)",0.0022,0.0,0.0012,"(5.0, 0.0, 0.0, 0.0, 5.0, 0.0, 0.0, 0.0, 0.5)",0.83,0.19,-9.73,"(1.0, 0.0, 0.0, 0.0, 1.0, 0.0, 0.0, 0.0, 1.0)"
2018/12/16/17:22:06.484004,103716,1545002526,483530591,base_footprint,0.0,0.0,0.0,0.0,"(-1.0, 0.0, 0.0, 0.0, 0.0, 0.0, 0.0, 0.0, 0.0)",0.0022,0.0,0.0012,"(5.0, 0.0, 0.0, 0.0, 5.0, 0.0, 0.0, 0.0, 0.5)",0.83,0.19,-9.71,"(1.0, 0.0, 0.0, 0.0, 1.0, 0.0, 0.0, 0.0, 1.0)"
2018/12/16/17:22:06.493862,103717,1545002526,493424244,base_footprint,0.0,0.0,0.0,0.0,"(-1.0, 0.0, 0.0, 0.0, 0.0, 0.0, 0.0, 0.0, 0.0)",0.0022,0.0,0.0012,"(5.0, 0.0, 0.0, 0.0, 5.0, 0.0, 0.0, 0.0, 0.5)",0.83,0.2,-9.71,"(1.0, 0.0, 0.0, 0.0, 1.0, 0.0, 0.0, 0.0, 1.0)"
2018/12/16/17:22:06.503896,103718,1545002526,503473415,base_footprint,0.0,0.0,0.0,0.0,"(-1.0, 0.0, 0.0, 0.0, 0.0, 0.0, 0.0, 0.0, 0.0)",0.002,0.0,0.001,"(5.0, 0.0, 0.0, 0.0, 5.0, 0.0, 0.0, 0.0, 0.5)",0.84,0.21,-9.72,"(1.0, 0.0, 0.0, 0.0, 1.0, 0.0, 0.0, 0.0, 1.0)"
2018/12/16/17:22:06.514641,103719,1545002526,514180025,base_footprint,0.0,0.0,0.0,0.0,"(-1.0, 0.0, 0.0, 0.0, 0.0, 0.0, 0.0, 0.0, 0.0)",0.002,0.0,0.0006,"(5.0, 0.0, 0.0, 0.0, 5.0, 0.0, 0.0, 0.0, 0.5)",0.84,0.22,-9.72,"(1.0, 0.0, 0.0, 0.0, 1.0, 0.0, 0.0, 0.0, 1.0)"
2018/12/16/17:22:06.523953,103720,1545002526,523519107,base_footprint,0.0,0.0,0.0,0.0,"(-1.0, 0.0, 0.0, 0.0, 0.0, 0.0, 0.0, 0.0, 0.0)",0.0024,0.0,0.0006,"(5.0, 0.0, 0.0, 0.0, 5.0, 0.0, 0.0, 0.0, 0.5)",0.83,0.21,-9.71,"(1.0, 0.0, 0.0, 0.0, 1.0, 0.0, 0.0, 0.0, 1.0)"
2018/12/16/17:22:06.534055,103721,1545002526,533634797,base_footprint,0.0,0.0,0.0,0.0,"(-1.0, 0.0, 0.0, 0.0, 0.0, 0.0, 0.0, 0.0, 0.0)",0.0024,0.0,0.0008,"(5.0, 0.0, 0.0, 0.0, 5.0, 0.0, 0.0, 0.0, 0.5)",0.83,0.2,-9.7,"(1.0, 0.0, 0.0, 0.0, 1.0, 0.0, 0.0, 0.0, 1.0)"
2018/12/16/17:22:06.543983,103722,1545002526,543498889,base_footprint,0.0,0.0,0.0,0.0,"(-1.0, 0.0, 0.0, 0.0, 0.0, 0.0, 0.0, 0.0, 0.0)",0.002,0.0,0.0008,"(5.0, 0.0, 0.0, 0.0, 5.0, 0.0, 0.0, 0.0, 0.5)",0.82,0.19,-9.72,"(1.0, 0.0, 0.0, 0.0, 1.0, 0.0, 0.0, 0.0, 1.0)"
2018/12/16/17:22:06.553886,103723,1545002526,553486918,base_footprint,0.0,0.0,0.0,0.0,"(-1.0, 0.0, 0.0, 0.0, 0.0, 0.0, 0.0, 0.0, 0.0)",0.0014,0.0,0.0006,"(5.0, 0.0, 0.0, 0.0, 5.0, 0.0, 0.0, 0.0, 0.5)",0.8,0.18,-9.74,"(1.0, 0.0, 0.0, 0.0, 1.0, 0.0, 0.0, 0.0, 1.0)"
2018/12/16/17:22:06.563948,103724,1545002526,563487260,base_footprint,0.0,0.0,0.0,0.0,"(-1.0, 0.0, 0.0, 0.0, 0.0, 0.0, 0.0, 0.0, 0.0)",0.0014,0.0,0.0004,"(5.0, 0.0, 0.0, 0.0, 5.0, 0.0, 0.0, 0.0, 0.5)",0.78,0.18,-9.75,"(1.0, 0.0, 0.0, 0.0, 1.0, 0.0, 0.0, 0.0, 1.0)"
2018/12/16/17:22:06.574028,103725,1545002526,573555012,base_footprint,0.0,0.0,0.0,0.0,"(-1.0, 0.0, 0.0, 0.0, 0.0, 0.0, 0.0, 0.0, 0.0)",0.0014,0.0,0.0004,"(5.0, 0.0, 0.0, 0.0, 5.0, 0.0, 0.0, 0.0, 0.5)",0.78,0.18,-9.75,"(1.0, 0.0, 0.0, 0.0, 1.0, 0.0, 0.0, 0.0, 1.0)"
2018/12/16/17:22:06.583996,103726,1545002526,583500036,base_footprint,0.0,0.0,0.0,0.0,"(-1.0, 0.0, 0.0, 0.0, 0.0, 0.0, 0.0, 0.0, 0.0)",0.0008,0.0,0.0008,"(5.0, 0.0, 0.0, 0.0, 5.0, 0.0, 0.0, 0.0, 0.5)",0.8,0.18,-9.73,"(1.0, 0.0, 0.0, 0.0, 1.0, 0.0, 0.0, 0.0, 1.0)"
2018/12/16/17:22:06.594199,103727,1545002526,593663702,base_footprint,0.0,0.0,0.0,0.0,"(-1.0, 0.0, 0.0, 0.0, 0.0, 0.0, 0.0, 0.0, 0.0)",0.0004,0.0,0.001,"(5.0, 0.0, 0.0, 0.0, 5.0, 0.0, 0.0, 0.0, 0.5)",0.82,0.17,-9.72,"(1.0, 0.0, 0.0, 0.0, 1.0, 0.0, 0.0, 0.0, 1.0)"
2018/12/16/17:22:06.604523,103728,1545002526,603564567,base_footprint,0.0,0.0,0.0,0.0,"(-1.0, 0.0, 0.0, 0.0, 0.0, 0.0, 0.0, 0.0, 0.0)",0.0012,0.0,0.0012,"(5.0, 0.0, 0.0, 0.0, 5.0, 0.0, 0.0, 0.0, 0.5)",0.84,0.17,-9.72,"(1.0, 0.0, 0.0, 0.0, 1.0, 0.0, 0.0, 0.0, 1.0)"
2018/12/16/17:22:06.614487,103729,1545002526,614059308,base_footprint,0.0,0.0,0.0,0.0,"(-1.0, 0.0, 0.0, 0.0, 0.0, 0.0, 0.0, 0.0, 0.0)",0.0026,0.0,0.0006,"(5.0, 0.0, 0.0, 0.0, 5.0, 0.0, 0.0, 0.0, 0.5)",0.85,0.17,-9.73,"(1.0, 0.0, 0.0, 0.0, 1.0, 0.0, 0.0, 0.0, 1.0)"
2018/12/16/17:22:06.623833,103730,1545002526,623405114,base_footprint,0.0,0.0,0.0,0.0,"(-1.0, 0.0, 0.0, 0.0, 0.0, 0.0, 0.0, 0.0, 0.0)",0.0038,0.0,0.0,"(5.0, 0.0, 0.0, 0.0, 5.0, 0.0, 0.0, 0.0, 0.5)",0.85,0.16,-9.73,"(1.0, 0.0, 0.0, 0.0, 1.0, 0.0, 0.0, 0.0, 1.0)"
2018/12/16/17:22:06.633896,103731,1545002526,633406555,base_footprint,0.0,0.0,0.0,0.0,"(-1.0, 0.0, 0.0, 0.0, 0.0, 0.0, 0.0, 0.0, 0.0)",0.0038,0.0,0.0,"(5.0, 0.0, 0.0, 0.0, 5.0, 0.0, 0.0, 0.0, 0.5)",0.85,0.15,-9.73,"(1.0, 0.0, 0.0, 0.0, 1.0, 0.0, 0.0, 0.0, 1.0)"
2018/12/16/17:22:06.644013,103732,1545002526,643469573,base_footprint,0.0,0.0,0.0,0.0,"(-1.0, 0.0, 0.0, 0.0, 0.0, 0.0, 0.0, 0.0, 0.0)",0.0026,0.0,0.0,"(5.0, 0.0, 0.0, 0.0, 5.0, 0.0, 0.0, 0.0, 0.5)",0.86,0.16,-9.73,"(1.0, 0.0, 0.0, 0.0, 1.0, 0.0, 0.0, 0.0, 1.0)"
2018/12/16/17:22:06.653872,103733,1545002526,653441734,base_footprint,0.0,0.0,0.0,0.0,"(-1.0, 0.0, 0.0, 0.0, 0.0, 0.0, 0.0, 0.0, 0.0)",0.0008,0.0,0.0002,"(5.0, 0.0, 0.0, 0.0, 5.0, 0.0, 0.0, 0.0, 0.5)",0.88,0.17,-9.73,"(1.0, 0.0, 0.0, 0.0, 1.0, 0.0, 0.0, 0.0, 1.0)"
2018/12/16/17:22:06.663921,103734,1545002526,663426792,base_footprint,0.0,0.0,0.0,0.0,"(-1.0, 0.0, 0.0, 0.0, 0.0, 0.0, 0.0, 0.0, 0.0)",0.0,0.0,0.0002,"(5.0, 0.0, 0.0, 0.0, 5.0, 0.0, 0.0, 0.0, 0.5)",0.9,0.19,-9.75,"(1.0, 0.0, 0.0, 0.0, 1.0, 0.0, 0.0, 0.0, 1.0)"
2018/12/16/17:22:06.674087,103735,1545002526,673644085,base_footprint,0.0,0.0,0.0,0.0,"(-1.0, 0.0, 0.0, 0.0, 0.0, 0.0, 0.0, 0.0, 0.0)",0.0002,0.0,0.0004,"(5.0, 0.0, 0.0, 0.0, 5.0, 0.0, 0.0, 0.0, 0.5)",0.91,0.21,-9.75,"(1.0, 0.0, 0.0, 0.0, 1.0, 0.0, 0.0, 0.0, 1.0)"
2018/12/16/17:22:06.684461,103736,1545002526,683720196,base_footprint,0.0,0.0,0.0,0.0,"(-1.0, 0.0, 0.0, 0.0, 0.0, 0.0, 0.0, 0.0, 0.0)",0.0004,0.0,0.0004,"(5.0, 0.0, 0.0, 0.0, 5.0, 0.0, 0.0, 0.0, 0.5)",0.9,0.21,-9.74,"(1.0, 0.0, 0.0, 0.0, 1.0, 0.0, 0.0, 0.0, 1.0)"
2018/12/16/17:22:06.693937,103737,1545002526,693492597,base_footprint,0.0,0.0,0.0,0.0,"(-1.0, 0.0, 0.0, 0.0, 0.0, 0.0, 0.0, 0.0, 0.0)",0.0004,0.0,0.0004,"(5.0, 0.0, 0.0, 0.0, 5.0, 0.0, 0.0, 0.0, 0.5)",0.9,0.21,-9.72,"(1.0, 0.0, 0.0, 0.0, 1.0, 0.0, 0.0, 0.0, 1.0)"
2018/12/16/17:22:06.703943,103738,1545002526,703485958,base_footprint,0.0,0.0,0.0,0.0,"(-1.0, 0.0, 0.0, 0.0, 0.0, 0.0, 0.0, 0.0, 0.0)",0.0,0.0,0.0002,"(5.0, 0.0, 0.0, 0.0, 5.0, 0.0, 0.0, 0.0, 0.5)",0.91,0.2,-9.71,"(1.0, 0.0, 0.0, 0.0, 1.0, 0.0, 0.0, 0.0, 1.0)"
2018/12/16/17:22:06.714541,103739,1545002526,714154478,base_footprint,0.0,0.0,0.0,0.0,"(-1.0, 0.0, 0.0, 0.0, 0.0, 0.0, 0.0, 0.0, 0.0)",0.0,0.0,0.0,"(5.0, 0.0, 0.0, 0.0, 5.0, 0.0, 0.0, 0.0, 0.5)",0.92,0.19,-9.7,"(1.0, 0.0, 0.0, 0.0, 1.0, 0.0, 0.0, 0.0, 1.0)"
2018/12/16/17:22:06.724003,103740,1545002526,723493142,base_footprint,0.0,0.0,0.0,0.0,"(-1.0, 0.0, 0.0, 0.0, 0.0, 0.0, 0.0, 0.0, 0.0)",0.0,0.0,0.0,"(5.0, 0.0, 0.0, 0.0, 5.0, 0.0, 0.0, 0.0, 0.5)",0.92,0.17,-9.68,"(1.0, 0.0, 0.0, 0.0, 1.0, 0.0, 0.0, 0.0, 1.0)"
2018/12/16/17:22:06.734098,103741,1545002526,733463644,base_footprint,0.0,0.0,0.0,0.0,"(-1.0, 0.0, 0.0, 0.0, 0.0, 0.0, 0.0, 0.0, 0.0)",-0.0008,0.0,0.0002,"(5.0, 0.0, 0.0, 0.0, 5.0, 0.0, 0.0, 0.0, 0.5)",0.9,0.16,-9.68,"(1.0, 0.0, 0.0, 0.0, 1.0, 0.0, 0.0, 0.0, 1.0)"
2018/12/16/17:22:06.743888,103742,1545002526,743450131,base_footprint,0.0,0.0,0.0,0.0,"(-1.0, 0.0, 0.0, 0.0, 0.0, 0.0, 0.0, 0.0, 0.0)",-0.0016,0.0,0.0004,"(5.0, 0.0, 0.0, 0.0, 5.0, 0.0, 0.0, 0.0, 0.5)",0.89,0.15,-9.68,"(1.0, 0.0, 0.0, 0.0, 1.0, 0.0, 0.0, 0.0, 1.0)"
2018/12/16/17:22:06.754184,103743,1545002526,753657373,base_footprint,0.0,0.0,0.0,0.0,"(-1.0, 0.0, 0.0, 0.0, 0.0, 0.0, 0.0, 0.0, 0.0)",-0.002,0.0,0.0,"(5.0, 0.0, 0.0, 0.0, 5.0, 0.0, 0.0, 0.0, 0.5)",0.89,0.15,-9.69,"(1.0, 0.0, 0.0, 0.0, 1.0, 0.0, 0.0, 0.0, 1.0)"
2018/12/16/17:22:06.764000,103744,1545002526,763486019,base_footprint,0.0,0.0,0.0,0.0,"(-1.0, 0.0, 0.0, 0.0, 0.0, 0.0, 0.0, 0.0, 0.0)",-0.002,0.0,0.0,"(5.0, 0.0, 0.0, 0.0, 5.0, 0.0, 0.0, 0.0, 0.5)",0.89,0.15,-9.7,"(1.0, 0.0, 0.0, 0.0, 1.0, 0.0, 0.0, 0.0, 1.0)"
2018/12/16/17:22:06.774124,103745,1545002526,773639862,base_footprint,0.0,0.0,0.0,0.0,"(-1.0, 0.0, 0.0, 0.0, 0.0, 0.0, 0.0, 0.0, 0.0)",-0.0014,0.0,0.0,"(5.0, 0.0, 0.0, 0.0, 5.0, 0.0, 0.0, 0.0, 0.5)",0.9,0.15,-9.72,"(1.0, 0.0, 0.0, 0.0, 1.0, 0.0, 0.0, 0.0, 1.0)"
2018/12/16/17:22:06.783941,103746,1545002526,783483041,base_footprint,0.0,0.0,0.0,0.0,"(-1.0, 0.0, 0.0, 0.0, 0.0, 0.0, 0.0, 0.0, 0.0)",-0.0006,0.0,0.0,"(5.0, 0.0, 0.0, 0.0, 5.0, 0.0, 0.0, 0.0, 0.5)",0.9,0.14,-9.73,"(1.0, 0.0, 0.0, 0.0, 1.0, 0.0, 0.0, 0.0, 1.0)"
2018/12/16/17:22:06.793873,103747,1545002526,793443081,base_footprint,0.0,0.0,0.0,0.0,"(-1.0, 0.0, 0.0, 0.0, 0.0, 0.0, 0.0, 0.0, 0.0)",0.0,0.0,0.0,"(5.0, 0.0, 0.0, 0.0, 5.0, 0.0, 0.0, 0.0, 0.5)",0.91,0.14,-9.72,"(1.0, 0.0, 0.0, 0.0, 1.0, 0.0, 0.0, 0.0, 1.0)"
2018/12/16/17:22:06.804716,103748,1545002526,803417799,base_footprint,0.0,0.0,0.0,0.0,"(-1.0, 0.0, 0.0, 0.0, 0.0, 0.0, 0.0, 0.0, 0.0)",0.0,0.0,0.0,"(5.0, 0.0, 0.0, 0.0, 5.0, 0.0, 0.0, 0.0, 0.5)",0.92,0.15,-9.72,"(1.0, 0.0, 0.0, 0.0, 1.0, 0.0, 0.0, 0.0, 1.0)"
2018/12/16/17:22:06.814534,103749,1545002526,814078108,base_footprint,0.0,0.0,0.0,0.0,"(-1.0, 0.0, 0.0, 0.0, 0.0, 0.0, 0.0, 0.0, 0.0)",0.0,0.0,0.0,"(5.0, 0.0, 0.0, 0.0, 5.0, 0.0, 0.0, 0.0, 0.5)",0.92,0.18,-9.73,"(1.0, 0.0, 0.0, 0.0, 1.0, 0.0, 0.0, 0.0, 1.0)"
2018/12/16/17:22:06.824129,103750,1545002526,823698258,base_footprint,0.0,0.0,0.0,0.0,"(-1.0, 0.0, 0.0, 0.0, 0.0, 0.0, 0.0, 0.0, 0.0)",-0.0002,0.0,0.0,"(5.0, 0.0, 0.0, 0.0, 5.0, 0.0, 0.0, 0.0, 0.5)",0.92,0.19,-9.76,"(1.0, 0.0, 0.0, 0.0, 1.0, 0.0, 0.0, 0.0, 1.0)"
2018/12/16/17:22:06.834112,103751,1545002526,833654831,base_footprint,0.0,0.0,0.0,0.0,"(-1.0, 0.0, 0.0, 0.0, 0.0, 0.0, 0.0, 0.0, 0.0)",-0.0012,0.0,0.0,"(5.0, 0.0, 0.0, 0.0, 5.0, 0.0, 0.0, 0.0, 0.5)",0.93,0.2,-9.76,"(1.0, 0.0, 0.0, 0.0, 1.0, 0.0, 0.0, 0.0, 1.0)"
2018/12/16/17:22:06.843913,103752,1545002526,843441594,base_footprint,0.0,0.0,0.0,0.0,"(-1.0, 0.0, 0.0, 0.0, 0.0, 0.0, 0.0, 0.0, 0.0)",-0.0024,0.0,0.0,"(5.0, 0.0, 0.0, 0.0, 5.0, 0.0, 0.0, 0.0, 0.5)",0.93,0.21,-9.75,"(1.0, 0.0, 0.0, 0.0, 1.0, 0.0, 0.0, 0.0, 1.0)"
2018/12/16/17:22:06.853928,103753,1545002526,853451704,base_footprint,0.0,0.0,0.0,0.0,"(-1.0, 0.0, 0.0, 0.0, 0.0, 0.0, 0.0, 0.0, 0.0)",-0.0026,0.0,0.0,"(5.0, 0.0, 0.0, 0.0, 5.0, 0.0, 0.0, 0.0, 0.5)",0.94,0.21,-9.73,"(1.0, 0.0, 0.0, 0.0, 1.0, 0.0, 0.0, 0.0, 1.0)"
2018/12/16/17:22:06.863937,103754,1545002526,863455809,base_footprint,0.0,0.0,0.0,0.0,"(-1.0, 0.0, 0.0, 0.0, 0.0, 0.0, 0.0, 0.0, 0.0)",-0.0032,0.0,0.0,"(5.0, 0.0, 0.0, 0.0, 5.0, 0.0, 0.0, 0.0, 0.5)",0.96,0.2,-9.73,"(1.0, 0.0, 0.0, 0.0, 1.0, 0.0, 0.0, 0.0, 1.0)"
2018/12/16/17:22:06.873991,103755,1545002526,873515819,base_footprint,0.0,0.0,0.0,0.0,"(-1.0, 0.0, 0.0, 0.0, 0.0, 0.0, 0.0, 0.0, 0.0)",-0.0034,0.0,0.0,"(5.0, 0.0, 0.0, 0.0, 5.0, 0.0, 0.0, 0.0, 0.5)",0.96,0.21,-9.75,"(1.0, 0.0, 0.0, 0.0, 1.0, 0.0, 0.0, 0.0, 1.0)"
2018/12/16/17:22:06.884291,103756,1545002526,883766497,base_footprint,0.0,0.0,0.0,0.0,"(-1.0, 0.0, 0.0, 0.0, 0.0, 0.0, 0.0, 0.0, 0.0)",-0.003,0.0,0.0,"(5.0, 0.0, 0.0, 0.0, 5.0, 0.0, 0.0, 0.0, 0.5)",0.95,0.22,-9.76,"(1.0, 0.0, 0.0, 0.0, 1.0, 0.0, 0.0, 0.0, 1.0)"
2018/12/16/17:22:06.894104,103757,1545002526,893616948,base_footprint,0.0,0.0,0.0,0.0,"(-1.0, 0.0, 0.0, 0.0, 0.0, 0.0, 0.0, 0.0, 0.0)",-0.0026,0.0,-0.0004,"(5.0, 0.0, 0.0, 0.0, 5.0, 0.0, 0.0, 0.0, 0.5)",0.94,0.21,-9.75,"(1.0, 0.0, 0.0, 0.0, 1.0, 0.0, 0.0, 0.0, 1.0)"
2018/12/16/17:22:06.903939,103758,1545002526,903449165,base_footprint,0.0,0.0,0.0,0.0,"(-1.0, 0.0, 0.0, 0.0, 0.0, 0.0, 0.0, 0.0, 0.0)",-0.0022,0.0,-0.001,"(5.0, 0.0, 0.0, 0.0, 5.0, 0.0, 0.0, 0.0, 0.5)",0.95,0.2,-9.74,"(1.0, 0.0, 0.0, 0.0, 1.0, 0.0, 0.0, 0.0, 1.0)"
2018/12/16/17:22:06.914893,103759,1545002526,914372509,base_footprint,0.0,0.0,0.0,0.0,"(-1.0, 0.0, 0.0, 0.0, 0.0, 0.0, 0.0, 0.0, 0.0)",-0.0022,0.0,-0.0012,"(5.0, 0.0, 0.0, 0.0, 5.0, 0.0, 0.0, 0.0, 0.5)",0.97,0.21,-9.73,"(1.0, 0.0, 0.0, 0.0, 1.0, 0.0, 0.0, 0.0, 1.0)"
2018/12/16/17:22:06.923997,103760,1545002526,923417597,base_footprint,0.0,0.0,0.0,0.0,"(-1.0, 0.0, 0.0, 0.0, 0.0, 0.0, 0.0, 0.0, 0.0)",-0.0026,0.0,-0.0012,"(5.0, 0.0, 0.0, 0.0, 5.0, 0.0, 0.0, 0.0, 0.5)",0.98,0.22,-9.73,"(1.0, 0.0, 0.0, 0.0, 1.0, 0.0, 0.0, 0.0, 1.0)"
2018/12/16/17:22:06.933988,103761,1545002526,933437382,base_footprint,0.0,0.0,0.0,0.0,"(-1.0, 0.0, 0.0, 0.0, 0.0, 0.0, 0.0, 0.0, 0.0)",-0.003,0.0,-0.0012,"(5.0, 0.0, 0.0, 0.0, 5.0, 0.0, 0.0, 0.0, 0.5)",0.99,0.24,-9.73,"(1.0, 0.0, 0.0, 0.0, 1.0, 0.0, 0.0, 0.0, 1.0)"
2018/12/16/17:22:06.944025,103762,1545002526,943412642,base_footprint,0.0,0.0,0.0,0.0,"(-1.0, 0.0, 0.0, 0.0, 0.0, 0.0, 0.0, 0.0, 0.0)",-0.003,0.0,-0.0008,"(5.0, 0.0, 0.0, 0.0, 5.0, 0.0, 0.0, 0.0, 0.5)",1.0,0.24,-9.75,"(1.0, 0.0, 0.0, 0.0, 1.0, 0.0, 0.0, 0.0, 1.0)"
2018/12/16/17:22:06.954098,103763,1545002526,953467970,base_footprint,0.0,0.0,0.0,0.0,"(-1.0, 0.0, 0.0, 0.0, 0.0, 0.0, 0.0, 0.0, 0.0)",-0.0026,0.0,-0.0004,"(5.0, 0.0, 0.0, 0.0, 5.0, 0.0, 0.0, 0.0, 0.5)",1.0,0.24,-9.77,"(1.0, 0.0, 0.0, 0.0, 1.0, 0.0, 0.0, 0.0, 1.0)"
2018/12/16/17:22:06.964309,103764,1545002526,963624500,base_footprint,0.0,0.0,0.0,0.0,"(-1.0, 0.0, 0.0, 0.0, 0.0, 0.0, 0.0, 0.0, 0.0)",-0.0018,0.0,-0.0002,"(5.0, 0.0, 0.0, 0.0, 5.0, 0.0, 0.0, 0.0, 0.5)",0.98,0.21,-9.76,"(1.0, 0.0, 0.0, 0.0, 1.0, 0.0, 0.0, 0.0, 1.0)"
2018/12/16/17:22:06.974118,103765,1545002526,973657644,base_footprint,0.0,0.0,0.0,0.0,"(-1.0, 0.0, 0.0, 0.0, 0.0, 0.0, 0.0, 0.0, 0.0)",-0.0012,0.0,-0.0002,"(5.0, 0.0, 0.0, 0.0, 5.0, 0.0, 0.0, 0.0, 0.5)",0.97,0.19,-9.73,"(1.0, 0.0, 0.0, 0.0, 1.0, 0.0, 0.0, 0.0, 1.0)"
2018/12/16/17:22:06.984000,103766,1545002526,983465718,base_footprint,0.0,0.0,0.0,0.0,"(-1.0, 0.0, 0.0, 0.0, 0.0, 0.0, 0.0, 0.0, 0.0)",-0.0014,0.0,-0.0002,"(5.0, 0.0, 0.0, 0.0, 5.0, 0.0, 0.0, 0.0, 0.5)",0.98,0.16,-9.7,"(1.0, 0.0, 0.0, 0.0, 1.0, 0.0, 0.0, 0.0, 1.0)"
2018/12/16/17:22:06.994127,103767,1545002526,993500013,base_footprint,0.0,0.0,0.0,0.0,"(-1.0, 0.0, 0.0, 0.0, 0.0, 0.0, 0.0, 0.0, 0.0)",-0.0016,0.0,-0.0004,"(5.0, 0.0, 0.0, 0.0, 5.0, 0.0, 0.0, 0.0, 0.5)",1.0,0.16,-9.7,"(1.0, 0.0, 0.0, 0.0, 1.0, 0.0, 0.0, 0.0, 1.0)"
2018/12/16/17:22:07.004401,103768,1545002527,3542292,base_footprint,0.0,0.0,0.0,0.0,"(-1.0, 0.0, 0.0, 0.0, 0.0, 0.0, 0.0, 0.0, 0.0)",-0.0018,0.0,-0.0004,"(5.0, 0.0, 0.0, 0.0, 5.0, 0.0, 0.0, 0.0, 0.5)",1.01,0.18,-9.7,"(1.0, 0.0, 0.0, 0.0, 1.0, 0.0, 0.0, 0.0, 1.0)"
2018/12/16/17:22:07.014589,103769,1545002527,14145695,base_footprint,0.0,0.0,0.0,0.0,"(-1.0, 0.0, 0.0, 0.0, 0.0, 0.0, 0.0, 0.0, 0.0)",-0.001,0.0,0.0,"(5.0, 0.0, 0.0, 0.0, 5.0, 0.0, 0.0, 0.0, 0.5)",1.0,0.2,-9.7,"(1.0, 0.0, 0.0, 0.0, 1.0, 0.0, 0.0, 0.0, 1.0)"
2018/12/16/17:22:07.024216,103770,1545002527,23650255,base_footprint,0.0,0.0,0.0,0.0,"(-1.0, 0.0, 0.0, 0.0, 0.0, 0.0, 0.0, 0.0, 0.0)",0.0,0.0,0.0,"(5.0, 0.0, 0.0, 0.0, 5.0, 0.0, 0.0, 0.0, 0.5)",0.99,0.21,-9.7,"(1.0, 0.0, 0.0, 0.0, 1.0, 0.0, 0.0, 0.0, 1.0)"
2018/12/16/17:22:07.033963,103771,1545002527,33460291,base_footprint,0.0,0.0,0.0,0.0,"(-1.0, 0.0, 0.0, 0.0, 0.0, 0.0, 0.0, 0.0, 0.0)",0.0004,0.0,0.0,"(5.0, 0.0, 0.0, 0.0, 5.0, 0.0, 0.0, 0.0, 0.5)",1.0,0.24,-9.72,"(1.0, 0.0, 0.0, 0.0, 1.0, 0.0, 0.0, 0.0, 1.0)"
2018/12/16/17:22:07.044188,103772,1545002527,43630787,base_footprint,0.0,0.0,0.0,0.0,"(-1.0, 0.0, 0.0, 0.0, 0.0, 0.0, 0.0, 0.0, 0.0)",0.0,0.0,0.0,"(5.0, 0.0, 0.0, 0.0, 5.0, 0.0, 0.0, 0.0, 0.5)",1.02,0.25,-9.73,"(1.0, 0.0, 0.0, 0.0, 1.0, 0.0, 0.0, 0.0, 1.0)"
2018/12/16/17:22:07.053940,103773,1545002527,53449210,base_footprint,0.0,0.0,0.0,0.0,"(-1.0, 0.0, 0.0, 0.0, 0.0, 0.0, 0.0, 0.0, 0.0)",-0.0002,0.0,0.0,"(5.0, 0.0, 0.0, 0.0, 5.0, 0.0, 0.0, 0.0, 0.5)",1.02,0.24,-9.73,"(1.0, 0.0, 0.0, 0.0, 1.0, 0.0, 0.0, 0.0, 1.0)"
2018/12/16/17:22:07.064010,103774,1545002527,63515260,base_footprint,0.0,0.0,0.0,0.0,"(-1.0, 0.0, 0.0, 0.0, 0.0, 0.0, 0.0, 0.0, 0.0)",-0.0006,0.0,0.0,"(5.0, 0.0, 0.0, 0.0, 5.0, 0.0, 0.0, 0.0, 0.5)",1.01,0.22,-9.74,"(1.0, 0.0, 0.0, 0.0, 1.0, 0.0, 0.0, 0.0, 1.0)"
2018/12/16/17:22:07.074175,103775,1545002527,73659113,base_footprint,0.0,0.0,0.0,0.0,"(-1.0, 0.0, 0.0, 0.0, 0.0, 0.0, 0.0, 0.0, 0.0)",-0.0006,0.0,0.0,"(5.0, 0.0, 0.0, 0.0, 5.0, 0.0, 0.0, 0.0, 0.5)",1.0,0.22,-9.75,"(1.0, 0.0, 0.0, 0.0, 1.0, 0.0, 0.0, 0.0, 1.0)"
2018/12/16/17:22:07.084157,103776,1545002527,83608875,base_footprint,0.0,0.0,0.0,0.0,"(-1.0, 0.0, 0.0, 0.0, 0.0, 0.0, 0.0, 0.0, 0.0)",-0.0004,0.0,0.0,"(5.0, 0.0, 0.0, 0.0, 5.0, 0.0, 0.0, 0.0, 0.5)",0.99,0.24,-9.75,"(1.0, 0.0, 0.0, 0.0, 1.0, 0.0, 0.0, 0.0, 1.0)"
2018/12/16/17:22:07.093937,103777,1545002527,93468852,base_footprint,0.0,0.0,0.0,0.0,"(-1.0, 0.0, 0.0, 0.0, 0.0, 0.0, 0.0, 0.0, 0.0)",-0.0002,0.0,0.0,"(5.0, 0.0, 0.0, 0.0, 5.0, 0.0, 0.0, 0.0, 0.5)",1.0,0.25,-9.73,"(1.0, 0.0, 0.0, 0.0, 1.0, 0.0, 0.0, 0.0, 1.0)"
2018/12/16/17:22:07.104050,103778,1545002527,103576070,base_footprint,0.0,0.0,0.0,0.0,"(-1.0, 0.0, 0.0, 0.0, 0.0, 0.0, 0.0, 0.0, 0.0)",-0.0002,0.0,-0.0004,"(5.0, 0.0, 0.0, 0.0, 5.0, 0.0, 0.0, 0.0, 0.5)",0.99,0.25,-9.71,"(1.0, 0.0, 0.0, 0.0, 1.0, 0.0, 0.0, 0.0, 1.0)"
2018/12/16/17:22:07.114607,103779,1545002527,114191584,base_footprint,0.0,0.0,0.0,0.0,"(-1.0, 0.0, 0.0, 0.0, 0.0, 0.0, 0.0, 0.0, 0.0)",-0.0006,0.0,-0.0004,"(5.0, 0.0, 0.0, 0.0, 5.0, 0.0, 0.0, 0.0, 0.5)",0.99,0.24,-9.71,"(1.0, 0.0, 0.0, 0.0, 1.0, 0.0, 0.0, 0.0, 1.0)"
2018/12/16/17:22:07.124130,103780,1545002527,123627895,base_footprint,0.0,0.0,0.0,0.0,"(-1.0, 0.0, 0.0, 0.0, 0.0, 0.0, 0.0, 0.0, 0.0)",-0.001,0.0,-0.0006,"(5.0, 0.0, 0.0, 0.0, 5.0, 0.0, 0.0, 0.0, 0.5)",0.98,0.23,-9.73,"(1.0, 0.0, 0.0, 0.0, 1.0, 0.0, 0.0, 0.0, 1.0)"
2018/12/16/17:22:07.134081,103781,1545002527,133620242,base_footprint,0.0,0.0,0.0,0.0,"(-1.0, 0.0, 0.0, 0.0, 0.0, 0.0, 0.0, 0.0, 0.0)",-0.001,0.0,-0.0008,"(5.0, 0.0, 0.0, 0.0, 5.0, 0.0, 0.0, 0.0, 0.5)",0.98,0.22,-9.77,"(1.0, 0.0, 0.0, 0.0, 1.0, 0.0, 0.0, 0.0, 1.0)"
2018/12/16/17:22:07.144081,103782,1545002527,143639926,base_footprint,0.0,0.0,0.0,0.0,"(-1.0, 0.0, 0.0, 0.0, 0.0, 0.0, 0.0, 0.0, 0.0)",-0.0012,0.0,-0.001,"(5.0, 0.0, 0.0, 0.0, 5.0, 0.0, 0.0, 0.0, 0.5)",0.99,0.21,-9.8,"(1.0, 0.0, 0.0, 0.0, 1.0, 0.0, 0.0, 0.0, 1.0)"
2018/12/16/17:22:07.153914,103783,1545002527,153443720,base_footprint,0.0,0.0,0.0,0.0,"(-1.0, 0.0, 0.0, 0.0, 0.0, 0.0, 0.0, 0.0, 0.0)",-0.0004,0.0,-0.0012,"(5.0, 0.0, 0.0, 0.0, 5.0, 0.0, 0.0, 0.0, 0.5)",0.99,0.2,-9.8,"(1.0, 0.0, 0.0, 0.0, 1.0, 0.0, 0.0, 0.0, 1.0)"
2018/12/16/17:22:07.164168,103784,1545002527,163684941,base_footprint,0.0,0.0,0.0,0.0,"(-1.0, 0.0, 0.0, 0.0, 0.0, 0.0, 0.0, 0.0, 0.0)",0.0,0.0,-0.0014,"(5.0, 0.0, 0.0, 0.0, 5.0, 0.0, 0.0, 0.0, 0.5)",0.99,0.19,-9.77,"(1.0, 0.0, 0.0, 0.0, 1.0, 0.0, 0.0, 0.0, 1.0)"
2018/12/16/17:22:07.174086,103785,1545002527,173633492,base_footprint,0.0,0.0,0.0,0.0,"(-1.0, 0.0, 0.0, 0.0, 0.0, 0.0, 0.0, 0.0, 0.0)",0.0006,0.0,-0.0018,"(5.0, 0.0, 0.0, 0.0, 5.0, 0.0, 0.0, 0.0, 0.5)",0.98,0.2,-9.75,"(1.0, 0.0, 0.0, 0.0, 1.0, 0.0, 0.0, 0.0, 1.0)"
2018/12/16/17:22:07.184269,103786,1545002527,183788793,base_footprint,0.0,0.0,0.0,0.0,"(-1.0, 0.0, 0.0, 0.0, 0.0, 0.0, 0.0, 0.0, 0.0)",0.0006,0.0,-0.002,"(5.0, 0.0, 0.0, 0.0, 5.0, 0.0, 0.0, 0.0, 0.5)",0.96,0.22,-9.73,"(1.0, 0.0, 0.0, 0.0, 1.0, 0.0, 0.0, 0.0, 1.0)"
2018/12/16/17:22:07.194131,103787,1545002527,193636059,base_footprint,0.0,0.0,0.0,0.0,"(-1.0, 0.0, 0.0, 0.0, 0.0, 0.0, 0.0, 0.0, 0.0)",0.0012,0.0,-0.0024,"(5.0, 0.0, 0.0, 0.0, 5.0, 0.0, 0.0, 0.0, 0.5)",0.96,0.23,-9.73,"(1.0, 0.0, 0.0, 0.0, 1.0, 0.0, 0.0, 0.0, 1.0)"
2018/12/16/17:22:07.204232,103788,1545002527,203747241,base_footprint,0.0,0.0,0.0,0.0,"(-1.0, 0.0, 0.0, 0.0, 0.0, 0.0, 0.0, 0.0, 0.0)",0.0016,0.0,-0.0026,"(5.0, 0.0, 0.0, 0.0, 5.0, 0.0, 0.0, 0.0, 0.5)",0.97,0.23,-9.74,"(1.0, 0.0, 0.0, 0.0, 1.0, 0.0, 0.0, 0.0, 1.0)"
2018/12/16/17:22:07.214612,103789,1545002527,214151111,base_footprint,0.0,0.0,0.0,0.0,"(-1.0, 0.0, 0.0, 0.0, 0.0, 0.0, 0.0, 0.0, 0.0)",0.0012,0.0,-0.003,"(5.0, 0.0, 0.0, 0.0, 5.0, 0.0, 0.0, 0.0, 0.5)",0.99,0.23,-9.78,"(1.0, 0.0, 0.0, 0.0, 1.0, 0.0, 0.0, 0.0, 1.0)"
2018/12/16/17:22:07.224245,103790,1545002527,223756689,base_footprint,0.0,0.0,0.0,0.0,"(-1.0, 0.0, 0.0, 0.0, 0.0, 0.0, 0.0, 0.0, 0.0)",0.001,0.0,-0.0034,"(5.0, 0.0, 0.0, 0.0, 5.0, 0.0, 0.0, 0.0, 0.5)",1.0,0.24,-9.79,"(1.0, 0.0, 0.0, 0.0, 1.0, 0.0, 0.0, 0.0, 1.0)"
2018/12/16/17:22:07.233957,103791,1545002527,233503926,base_footprint,0.0,0.0,0.0,0.0,"(-1.0, 0.0, 0.0, 0.0, 0.0, 0.0, 0.0, 0.0, 0.0)",0.001,0.0,-0.0036,"(5.0, 0.0, 0.0, 0.0, 5.0, 0.0, 0.0, 0.0, 0.5)",1.0,0.22,-9.76,"(1.0, 0.0, 0.0, 0.0, 1.0, 0.0, 0.0, 0.0, 1.0)"
2018/12/16/17:22:07.244251,103792,1545002527,243815206,base_footprint,0.0,0.0,0.0,0.0,"(-1.0, 0.0, 0.0, 0.0, 0.0, 0.0, 0.0, 0.0, 0.0)",0.001,0.0,-0.004,"(5.0, 0.0, 0.0, 0.0, 5.0, 0.0, 0.0, 0.0, 0.5)",1.0,0.23,-9.73,"(1.0, 0.0, 0.0, 0.0, 1.0, 0.0, 0.0, 0.0, 1.0)"
2018/12/16/17:22:07.253842,103793,1545002527,253427175,base_footprint,0.0,0.0,0.0,0.0,"(-1.0, 0.0, 0.0, 0.0, 0.0, 0.0, 0.0, 0.0, 0.0)",0.001,0.0,-0.0038,"(5.0, 0.0, 0.0, 0.0, 5.0, 0.0, 0.0, 0.0, 0.5)",1.0,0.28,-9.73,"(1.0, 0.0, 0.0, 0.0, 1.0, 0.0, 0.0, 0.0, 1.0)"
2018/12/16/17:22:07.264311,103794,1545002527,263837208,base_footprint,0.0,0.0,0.0,0.0,"(-1.0, 0.0, 0.0, 0.0, 0.0, 0.0, 0.0, 0.0, 0.0)",0.0,0.0,-0.0036,"(5.0, 0.0, 0.0, 0.0, 5.0, 0.0, 0.0, 0.0, 0.5)",1.01,0.31,-9.73,"(1.0, 0.0, 0.0, 0.0, 1.0, 0.0, 0.0, 0.0, 1.0)"
2018/12/16/17:22:07.274011,103795,1545002527,273533918,base_footprint,0.0,0.0,0.0,0.0,"(-1.0, 0.0, 0.0, 0.0, 0.0, 0.0, 0.0, 0.0, 0.0)",-0.0004,0.0,-0.0036,"(5.0, 0.0, 0.0, 0.0, 5.0, 0.0, 0.0, 0.0, 0.5)",1.02,0.31,-9.69,"(1.0, 0.0, 0.0, 0.0, 1.0, 0.0, 0.0, 0.0, 1.0)"
2018/12/16/17:22:07.284357,103796,1545002527,283923705,base_footprint,0.0,0.0,0.0,0.0,"(-1.0, 0.0, 0.0, 0.0, 0.0, 0.0, 0.0, 0.0, 0.0)",-0.0002,0.0,-0.0036,"(5.0, 0.0, 0.0, 0.0, 5.0, 0.0, 0.0, 0.0, 0.5)",1.04,0.28,-9.66,"(1.0, 0.0, 0.0, 0.0, 1.0, 0.0, 0.0, 0.0, 1.0)"
2018/12/16/17:22:07.293958,103797,1545002527,293469333,base_footprint,0.0,0.0,0.0,0.0,"(-1.0, 0.0, 0.0, 0.0, 0.0, 0.0, 0.0, 0.0, 0.0)",0.0,0.0,-0.0038,"(5.0, 0.0, 0.0, 0.0, 5.0, 0.0, 0.0, 0.0, 0.5)",1.06,0.23,-9.66,"(1.0, 0.0, 0.0, 0.0, 1.0, 0.0, 0.0, 0.0, 1.0)"
2018/12/16/17:22:07.304413,103798,1545002527,303919559,base_footprint,0.0,0.0,0.0,0.0,"(-1.0, 0.0, 0.0, 0.0, 0.0, 0.0, 0.0, 0.0, 0.0)",0.0,0.0,-0.0038,"(5.0, 0.0, 0.0, 0.0, 5.0, 0.0, 0.0, 0.0, 0.5)",1.06,0.22,-9.67,"(1.0, 0.0, 0.0, 0.0, 1.0, 0.0, 0.0, 0.0, 1.0)"
2018/12/16/17:22:07.314480,103799,1545002527,314055550,base_footprint,0.0,0.0,0.0,0.0,"(-1.0, 0.0, 0.0, 0.0, 0.0, 0.0, 0.0, 0.0, 0.0)",0.0002,0.0,-0.004,"(5.0, 0.0, 0.0, 0.0, 5.0, 0.0, 0.0, 0.0, 0.5)",1.05,0.23,-9.65,"(1.0, 0.0, 0.0, 0.0, 1.0, 0.0, 0.0, 0.0, 1.0)"
2018/12/16/17:22:07.324485,103800,1545002527,323921483,base_footprint,0.0,0.0,0.0,0.0,"(-1.0, 0.0, 0.0, 0.0, 0.0, 0.0, 0.0, 0.0, 0.0)",0.0,0.0,-0.004,"(5.0, 0.0, 0.0, 0.0, 5.0, 0.0, 0.0, 0.0, 0.5)",1.02,0.25,-9.65,"(1.0, 0.0, 0.0, 0.0, 1.0, 0.0, 0.0, 0.0, 1.0)"
2018/12/16/17:22:07.334041,103801,1545002527,333574405,base_footprint,0.0,0.0,0.0,0.0,"(-1.0, 0.0, 0.0, 0.0, 0.0, 0.0, 0.0, 0.0, 0.0)",-0.0004,0.0,-0.0042,"(5.0, 0.0, 0.0, 0.0, 5.0, 0.0, 0.0, 0.0, 0.5)",0.98,0.26,-9.68,"(1.0, 0.0, 0.0, 0.0, 1.0, 0.0, 0.0, 0.0, 1.0)"
2018/12/16/17:22:07.344415,103802,1545002527,343920793,base_footprint,0.0,0.0,0.0,0.0,"(-1.0, 0.0, 0.0, 0.0, 0.0, 0.0, 0.0, 0.0, 0.0)",-0.0008,0.0,-0.0046,"(5.0, 0.0, 0.0, 0.0, 5.0, 0.0, 0.0, 0.0, 0.5)",0.97,0.24,-9.68,"(1.0, 0.0, 0.0, 0.0, 1.0, 0.0, 0.0, 0.0, 1.0)"
2018/12/16/17:22:07.353919,103803,1545002527,353428689,base_footprint,0.0,0.0,0.0,0.0,"(-1.0, 0.0, 0.0, 0.0, 0.0, 0.0, 0.0, 0.0, 0.0)",0.0,0.0,-0.0052,"(5.0, 0.0, 0.0, 0.0, 5.0, 0.0, 0.0, 0.0, 0.5)",0.99,0.22,-9.65,"(1.0, 0.0, 0.0, 0.0, 1.0, 0.0, 0.0, 0.0, 1.0)"
2018/12/16/17:22:07.364474,103804,1545002527,363920164,base_footprint,0.0,0.0,0.0,0.0,"(-1.0, 0.0, 0.0, 0.0, 0.0, 0.0, 0.0, 0.0, 0.0)",0.0006,0.0,-0.0056,"(5.0, 0.0, 0.0, 0.0, 5.0, 0.0, 0.0, 0.0, 0.5)",1.02,0.22,-9.66,"(1.0, 0.0, 0.0, 0.0, 1.0, 0.0, 0.0, 0.0, 1.0)"
2018/12/16/17:22:07.373966,103805,1545002527,373494866,base_footprint,0.0,0.0,0.0,0.0,"(-1.0, 0.0, 0.0, 0.0, 0.0, 0.0, 0.0, 0.0, 0.0)",0.0008,0.0,-0.006,"(5.0, 0.0, 0.0, 0.0, 5.0, 0.0, 0.0, 0.0, 0.5)",1.02,0.22,-9.7,"(1.0, 0.0, 0.0, 0.0, 1.0, 0.0, 0.0, 0.0, 1.0)"
2018/12/16/17:22:07.384480,103806,1545002527,384028146,base_footprint,0.0,0.0,0.0,0.0,"(-1.0, 0.0, 0.0, 0.0, 0.0, 0.0, 0.0, 0.0, 0.0)",0.0004,0.0,-0.0064,"(5.0, 0.0, 0.0, 0.0, 5.0, 0.0, 0.0, 0.0, 0.5)",1.0,0.2,-9.72,"(1.0, 0.0, 0.0, 0.0, 1.0, 0.0, 0.0, 0.0, 1.0)"
2018/12/16/17:22:07.393933,103807,1545002527,393458447,base_footprint,0.0,0.0,0.0,0.0,"(-1.0, 0.0, 0.0, 0.0, 0.0, 0.0, 0.0, 0.0, 0.0)",0.0006,0.0,-0.0066,"(5.0, 0.0, 0.0, 0.0, 5.0, 0.0, 0.0, 0.0, 0.5)",0.97,0.17,-9.7,"(1.0, 0.0, 0.0, 0.0, 1.0, 0.0, 0.0, 0.0, 1.0)"
2018/12/16/17:22:07.404506,103808,1545002527,404035854,base_footprint,0.0,0.0,0.0,0.0,"(-1.0, 0.0, 0.0, 0.0, 0.0, 0.0, 0.0, 0.0, 0.0)",0.0016,0.0,-0.0066,"(5.0, 0.0, 0.0, 0.0, 5.0, 0.0, 0.0, 0.0, 0.5)",0.96,0.17,-9.67,"(1.0, 0.0, 0.0, 0.0, 1.0, 0.0, 0.0, 0.0, 1.0)"
2018/12/16/17:22:07.414827,103809,1545002527,414399745,base_footprint,0.0,0.0,0.0,0.0,"(-1.0, 0.0, 0.0, 0.0, 0.0, 0.0, 0.0, 0.0, 0.0)",0.003,0.0,-0.0062,"(5.0, 0.0, 0.0, 0.0, 5.0, 0.0, 0.0, 0.0, 0.5)",0.96,0.19,-9.67,"(1.0, 0.0, 0.0, 0.0, 1.0, 0.0, 0.0, 0.0, 1.0)"
2018/12/16/17:22:07.424409,103810,1545002527,423923564,base_footprint,0.0,0.0,0.0,0.0,"(-1.0, 0.0, 0.0, 0.0, 0.0, 0.0, 0.0, 0.0, 0.0)",0.0044,0.0,-0.006,"(5.0, 0.0, 0.0, 0.0, 5.0, 0.0, 0.0, 0.0, 0.5)",0.97,0.23,-9.69,"(1.0, 0.0, 0.0, 0.0, 1.0, 0.0, 0.0, 0.0, 1.0)"
2018/12/16/17:22:07.434079,103811,1545002527,433598974,base_footprint,0.0,0.0,0.0,0.0,"(-1.0, 0.0, 0.0, 0.0, 0.0, 0.0, 0.0, 0.0, 0.0)",0.005,0.0,-0.0062,"(5.0, 0.0, 0.0, 0.0, 5.0, 0.0, 0.0, 0.0, 0.5)",0.97,0.26,-9.71,"(1.0, 0.0, 0.0, 0.0, 1.0, 0.0, 0.0, 0.0, 1.0)"
2018/12/16/17:22:07.444051,103812,1545002527,443438894,base_footprint,0.0,0.0,0.0,0.0,"(-1.0, 0.0, 0.0, 0.0, 0.0, 0.0, 0.0, 0.0, 0.0)",0.004,0.0,-0.0066,"(5.0, 0.0, 0.0, 0.0, 5.0, 0.0, 0.0, 0.0, 0.5)",0.96,0.27,-9.71,"(1.0, 0.0, 0.0, 0.0, 1.0, 0.0, 0.0, 0.0, 1.0)"
2018/12/16/17:22:07.453960,103813,1545002527,453434245,base_footprint,0.0,0.0,0.0,0.0,"(-1.0, 0.0, 0.0, 0.0, 0.0, 0.0, 0.0, 0.0, 0.0)",0.0022,0.0,-0.0072,"(5.0, 0.0, 0.0, 0.0, 5.0, 0.0, 0.0, 0.0, 0.5)",0.97,0.27,-9.72,"(1.0, 0.0, 0.0, 0.0, 1.0, 0.0, 0.0, 0.0, 1.0)"
2018/12/16/17:22:07.463979,103814,1545002527,463413254,base_footprint,0.0,0.0,0.0,0.0,"(-1.0, 0.0, 0.0, 0.0, 0.0, 0.0, 0.0, 0.0, 0.0)",0.0008,0.0,-0.0076,"(5.0, 0.0, 0.0, 0.0, 5.0, 0.0, 0.0, 0.0, 0.5)",0.98,0.26,-9.73,"(1.0, 0.0, 0.0, 0.0, 1.0, 0.0, 0.0, 0.0, 1.0)"
2018/12/16/17:22:07.474012,103815,1545002527,473519163,base_footprint,0.0,0.0,0.0,0.0,"(-1.0, 0.0, 0.0, 0.0, 0.0, 0.0, 0.0, 0.0, 0.0)",0.0,0.0,-0.008,"(5.0, 0.0, 0.0, 0.0, 5.0, 0.0, 0.0, 0.0, 0.5)",0.98,0.28,-9.73,"(1.0, 0.0, 0.0, 0.0, 1.0, 0.0, 0.0, 0.0, 1.0)"
2018/12/16/17:22:07.483996,103816,1545002527,483475881,base_footprint,0.0,0.0,0.0,0.0,"(-1.0, 0.0, 0.0, 0.0, 0.0, 0.0, 0.0, 0.0, 0.0)",0.0,0.0,-0.008,"(5.0, 0.0, 0.0, 0.0, 5.0, 0.0, 0.0, 0.0, 0.5)",1.0,0.28,-9.73,"(1.0, 0.0, 0.0, 0.0, 1.0, 0.0, 0.0, 0.0, 1.0)"
2018/12/16/17:22:07.494048,103817,1545002527,493580582,base_footprint,0.0,0.0,0.0,0.0,"(-1.0, 0.0, 0.0, 0.0, 0.0, 0.0, 0.0, 0.0, 0.0)",0.0,0.0,-0.0076,"(5.0, 0.0, 0.0, 0.0, 5.0, 0.0, 0.0, 0.0, 0.5)",1.01,0.26,-9.73,"(1.0, 0.0, 0.0, 0.0, 1.0, 0.0, 0.0, 0.0, 1.0)"
2018/12/16/17:22:07.503889,103818,1545002527,503411261,base_footprint,0.0,0.0,0.0,0.0,"(-1.0, 0.0, 0.0, 0.0, 0.0, 0.0, 0.0, 0.0, 0.0)",0.0002,0.0,-0.0072,"(5.0, 0.0, 0.0, 0.0, 5.0, 0.0, 0.0, 0.0, 0.5)",1.0,0.24,-9.7,"(1.0, 0.0, 0.0, 0.0, 1.0, 0.0, 0.0, 0.0, 1.0)"
2018/12/16/17:22:07.514480,103819,1545002527,514043640,base_footprint,0.0,0.0,0.0,0.0,"(-1.0, 0.0, 0.0, 0.0, 0.0, 0.0, 0.0, 0.0, 0.0)",0.0004,0.0,-0.0068,"(5.0, 0.0, 0.0, 0.0, 5.0, 0.0, 0.0, 0.0, 0.5)",0.97,0.22,-9.67,"(1.0, 0.0, 0.0, 0.0, 1.0, 0.0, 0.0, 0.0, 1.0)"
2018/12/16/17:22:07.523938,103820,1545002527,523414829,base_footprint,0.0,0.0,0.0,0.0,"(-1.0, 0.0, 0.0, 0.0, 0.0, 0.0, 0.0, 0.0, 0.0)",0.0006,0.0,-0.007,"(5.0, 0.0, 0.0, 0.0, 5.0, 0.0, 0.0, 0.0, 0.5)",0.96,0.22,-9.66,"(1.0, 0.0, 0.0, 0.0, 1.0, 0.0, 0.0, 0.0, 1.0)"
2018/12/16/17:22:07.534079,103821,1545002527,533557893,base_footprint,0.0,0.0,0.0,0.0,"(-1.0, 0.0, 0.0, 0.0, 0.0, 0.0, 0.0, 0.0, 0.0)",0.0006,0.0,-0.007,"(5.0, 0.0, 0.0, 0.0, 5.0, 0.0, 0.0, 0.0, 0.5)",0.96,0.21,-9.66,"(1.0, 0.0, 0.0, 0.0, 1.0, 0.0, 0.0, 0.0, 1.0)"
2018/12/16/17:22:07.544160,103822,1545002527,543506180,base_footprint,0.0,0.0,0.0,0.0,"(-1.0, 0.0, 0.0, 0.0, 0.0, 0.0, 0.0, 0.0, 0.0)",0.0014,0.0,-0.0072,"(5.0, 0.0, 0.0, 0.0, 5.0, 0.0, 0.0, 0.0, 0.5)",0.98,0.22,-9.66,"(1.0, 0.0, 0.0, 0.0, 1.0, 0.0, 0.0, 0.0, 1.0)"
2018/12/16/17:22:07.553932,103823,1545002527,553431990,base_footprint,0.0,0.0,0.0,0.0,"(-1.0, 0.0, 0.0, 0.0, 0.0, 0.0, 0.0, 0.0, 0.0)",0.0018,0.0,-0.0074,"(5.0, 0.0, 0.0, 0.0, 5.0, 0.0, 0.0, 0.0, 0.5)",1.01,0.21,-9.65,"(1.0, 0.0, 0.0, 0.0, 1.0, 0.0, 0.0, 0.0, 1.0)"
2018/12/16/17:22:07.564076,103824,1545002527,563432061,base_footprint,0.0,0.0,0.0,0.0,"(-1.0, 0.0, 0.0, 0.0, 0.0, 0.0, 0.0, 0.0, 0.0)",0.0016,0.0,-0.0076,"(5.0, 0.0, 0.0, 0.0, 5.0, 0.0, 0.0, 0.0, 0.5)",1.01,0.21,-9.65,"(1.0, 0.0, 0.0, 0.0, 1.0, 0.0, 0.0, 0.0, 1.0)"
2018/12/16/17:22:07.574165,103825,1545002527,573657561,base_footprint,0.0,0.0,0.0,0.0,"(-1.0, 0.0, 0.0, 0.0, 0.0, 0.0, 0.0, 0.0, 0.0)",0.0014,0.0,-0.007,"(5.0, 0.0, 0.0, 0.0, 5.0, 0.0, 0.0, 0.0, 0.5)",0.99,0.21,-9.64,"(1.0, 0.0, 0.0, 0.0, 1.0, 0.0, 0.0, 0.0, 1.0)"
2018/12/16/17:22:07.584737,103826,1545002527,584175033,base_footprint,0.0,0.0,0.0,0.0,"(-1.0, 0.0, 0.0, 0.0, 0.0, 0.0, 0.0, 0.0, 0.0)",0.0014,0.0,-0.0068,"(5.0, 0.0, 0.0, 0.0, 5.0, 0.0, 0.0, 0.0, 0.5)",0.97,0.21,-9.62,"(1.0, 0.0, 0.0, 0.0, 1.0, 0.0, 0.0, 0.0, 1.0)"
2018/12/16/17:22:07.593985,103827,1545002527,593534184,base_footprint,0.0,0.0,0.0,0.0,"(-1.0, 0.0, 0.0, 0.0, 0.0, 0.0, 0.0, 0.0, 0.0)",0.0014,0.0,-0.0068,"(5.0, 0.0, 0.0, 0.0, 5.0, 0.0, 0.0, 0.0, 0.5)",0.94,0.2,-9.6,"(1.0, 0.0, 0.0, 0.0, 1.0, 0.0, 0.0, 0.0, 1.0)"
2018/12/16/17:22:07.604073,103828,1545002527,603585162,base_footprint,0.0,0.0,0.0,0.0,"(-1.0, 0.0, 0.0, 0.0, 0.0, 0.0, 0.0, 0.0, 0.0)",0.0018,0.0,-0.0072,"(5.0, 0.0, 0.0, 0.0, 5.0, 0.0, 0.0, 0.0, 0.5)",0.93,0.2,-9.61,"(1.0, 0.0, 0.0, 0.0, 1.0, 0.0, 0.0, 0.0, 1.0)"
2018/12/16/17:22:07.614523,103829,1545002527,614052797,base_footprint,0.0,0.0,0.0,0.0,"(-1.0, 0.0, 0.0, 0.0, 0.0, 0.0, 0.0, 0.0, 0.0)",0.0024,0.0,-0.0078,"(5.0, 0.0, 0.0, 0.0, 5.0, 0.0, 0.0, 0.0, 0.5)",0.93,0.21,-9.62,"(1.0, 0.0, 0.0, 0.0, 1.0, 0.0, 0.0, 0.0, 1.0)"
2018/12/16/17:22:07.623952,103830,1545002527,623419262,base_footprint,0.0,0.0,0.0,0.0,"(-1.0, 0.0, 0.0, 0.0, 0.0, 0.0, 0.0, 0.0, 0.0)",0.0028,0.0,-0.0082,"(5.0, 0.0, 0.0, 0.0, 5.0, 0.0, 0.0, 0.0, 0.5)",0.91,0.23,-9.62,"(1.0, 0.0, 0.0, 0.0, 1.0, 0.0, 0.0, 0.0, 1.0)"
2018/12/16/17:22:07.634058,103831,1545002527,633496264,base_footprint,0.0,0.0,0.0,0.0,"(-1.0, 0.0, 0.0, 0.0, 0.0, 0.0, 0.0, 0.0, 0.0)",0.0024,0.0,-0.0082,"(5.0, 0.0, 0.0, 0.0, 5.0, 0.0, 0.0, 0.0, 0.5)",0.88,0.25,-9.67,"(1.0, 0.0, 0.0, 0.0, 1.0, 0.0, 0.0, 0.0, 1.0)"
2018/12/16/17:22:07.643936,103832,1545002527,643423621,base_footprint,0.0,0.0,0.0,0.0,"(-1.0, 0.0, 0.0, 0.0, 0.0, 0.0, 0.0, 0.0, 0.0)",0.0012,0.0,-0.0082,"(5.0, 0.0, 0.0, 0.0, 5.0, 0.0, 0.0, 0.0, 0.5)",0.86,0.25,-9.74,"(1.0, 0.0, 0.0, 0.0, 1.0, 0.0, 0.0, 0.0, 1.0)"
2018/12/16/17:22:07.653991,103833,1545002527,653420270,base_footprint,0.0,0.0,0.0,0.0,"(-1.0, 0.0, 0.0, 0.0, 0.0, 0.0, 0.0, 0.0, 0.0)",0.0,0.0,-0.0076,"(5.0, 0.0, 0.0, 0.0, 5.0, 0.0, 0.0, 0.0, 0.5)",0.83,0.23,-9.79,"(1.0, 0.0, 0.0, 0.0, 1.0, 0.0, 0.0, 0.0, 1.0)"
2018/12/16/17:22:07.663937,103834,1545002527,663426876,base_footprint,0.0,0.0,0.0,0.0,"(-1.0, 0.0, 0.0, 0.0, 0.0, 0.0, 0.0, 0.0, 0.0)",-0.0018,0.0,-0.0074,"(5.0, 0.0, 0.0, 0.0, 5.0, 0.0, 0.0, 0.0, 0.5)",0.79,0.22,-9.82,"(1.0, 0.0, 0.0, 0.0, 1.0, 0.0, 0.0, 0.0, 1.0)"
2018/12/16/17:22:07.674109,103835,1545002527,673609932,base_footprint,0.0,0.0,0.0,0.0,"(-1.0, 0.0, 0.0, 0.0, 0.0, 0.0, 0.0, 0.0, 0.0)",-0.0028,0.0,-0.0076,"(5.0, 0.0, 0.0, 0.0, 5.0, 0.0, 0.0, 0.0, 0.5)",0.73,0.24,-9.85,"(1.0, 0.0, 0.0, 0.0, 1.0, 0.0, 0.0, 0.0, 1.0)"
2018/12/16/17:22:07.683903,103836,1545002527,683428479,base_footprint,0.0,0.0,0.0,0.0,"(-1.0, 0.0, 0.0, 0.0, 0.0, 0.0, 0.0, 0.0, 0.0)",-0.0036,0.0,-0.008,"(5.0, 0.0, 0.0, 0.0, 5.0, 0.0, 0.0, 0.0, 0.5)",0.69,0.25,-9.87,"(1.0, 0.0, 0.0, 0.0, 1.0, 0.0, 0.0, 0.0, 1.0)"
2018/12/16/17:22:07.693954,103837,1545002527,693458077,base_footprint,0.0,0.0,0.0,0.0,"(-1.0, 0.0, 0.0, 0.0, 0.0, 0.0, 0.0, 0.0, 0.0)",-0.0038,0.0,-0.0086,"(5.0, 0.0, 0.0, 0.0, 5.0, 0.0, 0.0, 0.0, 0.5)",0.66,0.25,-9.87,"(1.0, 0.0, 0.0, 0.0, 1.0, 0.0, 0.0, 0.0, 1.0)"
2018/12/16/17:22:07.703891,103838,1545002527,703409185,base_footprint,0.0,0.0,0.0,0.0,"(-1.0, 0.0, 0.0, 0.0, 0.0, 0.0, 0.0, 0.0, 0.0)",-0.0038,0.0,-0.0094,"(5.0, 0.0, 0.0, 0.0, 5.0, 0.0, 0.0, 0.0, 0.5)",0.63,0.22,-9.86,"(1.0, 0.0, 0.0, 0.0, 1.0, 0.0, 0.0, 0.0, 1.0)"
2018/12/16/17:22:07.714590,103839,1545002527,714099052,base_footprint,0.0,0.0,0.0,0.0,"(-1.0, 0.0, 0.0, 0.0, 0.0, 0.0, 0.0, 0.0, 0.0)",-0.004,0.0,-0.0098,"(5.0, 0.0, 0.0, 0.0, 5.0, 0.0, 0.0, 0.0, 0.5)",0.61,0.17,-9.85,"(1.0, 0.0, 0.0, 0.0, 1.0, 0.0, 0.0, 0.0, 1.0)"
2018/12/16/17:22:07.724025,103840,1545002527,723446020,base_footprint,0.0,0.0,0.0,0.0,"(-1.0, 0.0, 0.0, 0.0, 0.0, 0.0, 0.0, 0.0, 0.0)",-0.0042,0.0,-0.01,"(5.0, 0.0, 0.0, 0.0, 5.0, 0.0, 0.0, 0.0, 0.5)",0.59,0.14,-9.86,"(1.0, 0.0, 0.0, 0.0, 1.0, 0.0, 0.0, 0.0, 1.0)"
2018/12/16/17:22:07.734079,103841,1545002527,733603746,base_footprint,0.0,0.0,0.0,0.0,"(-1.0, 0.0, 0.0, 0.0, 0.0, 0.0, 0.0, 0.0, 0.0)",-0.0048,0.0,-0.0102,"(5.0, 0.0, 0.0, 0.0, 5.0, 0.0, 0.0, 0.0, 0.5)",0.56,0.14,-9.88,"(1.0, 0.0, 0.0, 0.0, 1.0, 0.0, 0.0, 0.0, 1.0)"
2018/12/16/17:22:07.743977,103842,1545002527,743490289,base_footprint,0.0,0.0,0.0,0.0,"(-1.0, 0.0, 0.0, 0.0, 0.0, 0.0, 0.0, 0.0, 0.0)",-0.005,0.0,-0.0108,"(5.0, 0.0, 0.0, 0.0, 5.0, 0.0, 0.0, 0.0, 0.5)",0.54,0.15,-9.88,"(1.0, 0.0, 0.0, 0.0, 1.0, 0.0, 0.0, 0.0, 1.0)"
2018/12/16/17:22:07.753906,103843,1545002527,753429869,base_footprint,0.0,0.0,0.0,0.0,"(-1.0, 0.0, 0.0, 0.0, 0.0, 0.0, 0.0, 0.0, 0.0)",-0.0044,0.0,-0.0112,"(5.0, 0.0, 0.0, 0.0, 5.0, 0.0, 0.0, 0.0, 0.5)",0.55,0.16,-9.85,"(1.0, 0.0, 0.0, 0.0, 1.0, 0.0, 0.0, 0.0, 1.0)"
2018/12/16/17:22:07.764004,103844,1545002527,763485687,base_footprint,0.0,0.0,0.0,0.0,"(-1.0, 0.0, 0.0, 0.0, 0.0, 0.0, 0.0, 0.0, 0.0)",-0.0032,0.0,-0.0118,"(5.0, 0.0, 0.0, 0.0, 5.0, 0.0, 0.0, 0.0, 0.5)",0.57,0.16,-9.78,"(1.0, 0.0, 0.0, 0.0, 1.0, 0.0, 0.0, 0.0, 1.0)"
2018/12/16/17:22:07.774084,103845,1545002527,773625862,base_footprint,0.0,0.0,0.0,0.0,"(-1.0, 0.0, 0.0, 0.0, 0.0, 0.0, 0.0, 0.0, 0.0)",-0.0016,0.0,-0.012,"(5.0, 0.0, 0.0, 0.0, 5.0, 0.0, 0.0, 0.0, 0.5)",0.59,0.18,-9.71,"(1.0, 0.0, 0.0, 0.0, 1.0, 0.0, 0.0, 0.0, 1.0)"
2018/12/16/17:22:07.784060,103846,1545002527,783518270,base_footprint,0.0,0.0,0.0,0.0,"(-1.0, 0.0, 0.0, 0.0, 0.0, 0.0, 0.0, 0.0, 0.0)",0.0002,0.0,-0.0116,"(5.0, 0.0, 0.0, 0.0, 5.0, 0.0, 0.0, 0.0, 0.5)",0.59,0.21,-9.68,"(1.0, 0.0, 0.0, 0.0, 1.0, 0.0, 0.0, 0.0, 1.0)"
2018/12/16/17:22:07.794137,103847,1545002527,793587716,base_footprint,0.0,0.0,0.0,0.0,"(-1.0, 0.0, 0.0, 0.0, 0.0, 0.0, 0.0, 0.0, 0.0)",0.0016,0.0,-0.0112,"(5.0, 0.0, 0.0, 0.0, 5.0, 0.0, 0.0, 0.0, 0.5)",0.58,0.23,-9.66,"(1.0, 0.0, 0.0, 0.0, 1.0, 0.0, 0.0, 0.0, 1.0)"
2018/12/16/17:22:07.804000,103848,1545002527,803492174,base_footprint,0.0,0.0,0.0,0.0,"(-1.0, 0.0, 0.0, 0.0, 0.0, 0.0, 0.0, 0.0, 0.0)",0.0014,0.0,-0.011,"(5.0, 0.0, 0.0, 0.0, 5.0, 0.0, 0.0, 0.0, 0.5)",0.56,0.26,-9.66,"(1.0, 0.0, 0.0, 0.0, 1.0, 0.0, 0.0, 0.0, 1.0)"
2018/12/16/17:22:07.814830,103849,1545002527,814373501,base_footprint,0.0,0.0,0.0,0.0,"(-1.0, 0.0, 0.0, 0.0, 0.0, 0.0, 0.0, 0.0, 0.0)",0.0,0.0,-0.0108,"(5.0, 0.0, 0.0, 0.0, 5.0, 0.0, 0.0, 0.0, 0.5)",0.52,0.29,-9.66,"(1.0, 0.0, 0.0, 0.0, 1.0, 0.0, 0.0, 0.0, 1.0)"
2018/12/16/17:22:07.823986,103850,1545002527,823441745,base_footprint,0.0,0.0,0.0,0.0,"(-1.0, 0.0, 0.0, 0.0, 0.0, 0.0, 0.0, 0.0, 0.0)",-0.0004,0.0,-0.0104,"(5.0, 0.0, 0.0, 0.0, 5.0, 0.0, 0.0, 0.0, 0.5)",0.49,0.31,-9.65,"(1.0, 0.0, 0.0, 0.0, 1.0, 0.0, 0.0, 0.0, 1.0)"
2018/12/16/17:22:07.834128,103851,1545002527,833645214,base_footprint,0.0,0.0,0.0,0.0,"(-1.0, 0.0, 0.0, 0.0, 0.0, 0.0, 0.0, 0.0, 0.0)",-0.0008,0.0,-0.0106,"(5.0, 0.0, 0.0, 0.0, 5.0, 0.0, 0.0, 0.0, 0.5)",0.47,0.31,-9.62,"(1.0, 0.0, 0.0, 0.0, 1.0, 0.0, 0.0, 0.0, 1.0)"
2018/12/16/17:22:07.843883,103852,1545002527,843396985,base_footprint,0.0,0.0,0.0,0.0,"(-1.0, 0.0, 0.0, 0.0, 0.0, 0.0, 0.0, 0.0, 0.0)",-0.0018,0.0,-0.011,"(5.0, 0.0, 0.0, 0.0, 5.0, 0.0, 0.0, 0.0, 0.5)",0.47,0.3,-9.6,"(1.0, 0.0, 0.0, 0.0, 1.0, 0.0, 0.0, 0.0, 1.0)"
2018/12/16/17:22:07.854086,103853,1545002527,853633273,base_footprint,0.0,0.0,0.0,0.0,"(-1.0, 0.0, 0.0, 0.0, 0.0, 0.0, 0.0, 0.0, 0.0)",-0.0036,0.0,-0.0116,"(5.0, 0.0, 0.0, 0.0, 5.0, 0.0, 0.0, 0.0, 0.5)",0.47,0.28,-9.62,"(1.0, 0.0, 0.0, 0.0, 1.0, 0.0, 0.0, 0.0, 1.0)"
2018/12/16/17:22:07.863872,103854,1545002527,863398334,base_footprint,0.0,0.0,0.0,0.0,"(-1.0, 0.0, 0.0, 0.0, 0.0, 0.0, 0.0, 0.0, 0.0)",-0.0052,0.0,-0.0118,"(5.0, 0.0, 0.0, 0.0, 5.0, 0.0, 0.0, 0.0, 0.5)",0.45,0.26,-9.67,"(1.0, 0.0, 0.0, 0.0, 1.0, 0.0, 0.0, 0.0, 1.0)"
2018/12/16/17:22:07.874242,103855,1545002527,873774835,base_footprint,0.0,0.0,0.0,0.0,"(-1.0, 0.0, 0.0, 0.0, 0.0, 0.0, 0.0, 0.0, 0.0)",-0.006,0.0,-0.0114,"(5.0, 0.0, 0.0, 0.0, 5.0, 0.0, 0.0, 0.0, 0.5)",0.4,0.25,-9.72,"(1.0, 0.0, 0.0, 0.0, 1.0, 0.0, 0.0, 0.0, 1.0)"
2018/12/16/17:22:07.883914,103856,1545002527,883439378,base_footprint,0.0,0.0,0.0,0.0,"(-1.0, 0.0, 0.0, 0.0, 0.0, 0.0, 0.0, 0.0, 0.0)",-0.0056,0.0,-0.011,"(5.0, 0.0, 0.0, 0.0, 5.0, 0.0, 0.0, 0.0, 0.5)",0.36,0.24,-9.75,"(1.0, 0.0, 0.0, 0.0, 1.0, 0.0, 0.0, 0.0, 1.0)"
2018/12/16/17:22:07.893924,103857,1545002527,893454883,base_footprint,0.0,0.0,0.0,0.0,"(-1.0, 0.0, 0.0, 0.0, 0.0, 0.0, 0.0, 0.0, 0.0)",-0.0044,0.0,-0.0108,"(5.0, 0.0, 0.0, 0.0, 5.0, 0.0, 0.0, 0.0, 0.5)",0.33,0.24,-9.74,"(1.0, 0.0, 0.0, 0.0, 1.0, 0.0, 0.0, 0.0, 1.0)"
2018/12/16/17:22:07.903948,103858,1545002527,903477309,base_footprint,0.0,0.0,0.0,0.0,"(-1.0, 0.0, 0.0, 0.0, 0.0, 0.0, 0.0, 0.0, 0.0)",-0.0032,0.0,-0.0106,"(5.0, 0.0, 0.0, 0.0, 5.0, 0.0, 0.0, 0.0, 0.5)",0.33,0.27,-9.7,"(1.0, 0.0, 0.0, 0.0, 1.0, 0.0, 0.0, 0.0, 1.0)"
2018/12/16/17:22:07.915109,103859,1545002527,914639448,base_footprint,0.0,0.0,0.0,0.0,"(-1.0, 0.0, 0.0, 0.0, 0.0, 0.0, 0.0, 0.0, 0.0)",-0.0016,0.0,-0.0104,"(5.0, 0.0, 0.0, 0.0, 5.0, 0.0, 0.0, 0.0, 0.5)",0.35,0.3,-9.67,"(1.0, 0.0, 0.0, 0.0, 1.0, 0.0, 0.0, 0.0, 1.0)"
2018/12/16/17:22:07.923884,103860,1545002527,923429647,base_footprint,0.0,0.0,0.0,0.0,"(-1.0, 0.0, 0.0, 0.0, 0.0, 0.0, 0.0, 0.0, 0.0)",0.0002,0.0,-0.0108,"(5.0, 0.0, 0.0, 0.0, 5.0, 0.0, 0.0, 0.0, 0.5)",0.38,0.29,-9.64,"(1.0, 0.0, 0.0, 0.0, 1.0, 0.0, 0.0, 0.0, 1.0)"
2018/12/16/17:22:07.933852,103861,1545002527,933417238,base_footprint,0.0,0.0,0.0,0.0,"(-1.0, 0.0, 0.0, 0.0, 0.0, 0.0, 0.0, 0.0, 0.0)",0.0026,0.0,-0.012,"(5.0, 0.0, 0.0, 0.0, 5.0, 0.0, 0.0, 0.0, 0.5)",0.39,0.25,-9.62,"(1.0, 0.0, 0.0, 0.0, 1.0, 0.0, 0.0, 0.0, 1.0)"
2018/12/16/17:22:07.943986,103862,1545002527,943488439,base_footprint,0.0,0.0,0.0,0.0,"(-1.0, 0.0, 0.0, 0.0, 0.0, 0.0, 0.0, 0.0, 0.0)",0.0044,0.0,-0.0126,"(5.0, 0.0, 0.0, 0.0, 5.0, 0.0, 0.0, 0.0, 0.5)",0.38,0.23,-9.63,"(1.0, 0.0, 0.0, 0.0, 1.0, 0.0, 0.0, 0.0, 1.0)"
2018/12/16/17:22:07.953990,103863,1545002527,953466252,base_footprint,0.0,0.0,0.0,0.0,"(-1.0, 0.0, 0.0, 0.0, 0.0, 0.0, 0.0, 0.0, 0.0)",0.0052,0.0,-0.0126,"(5.0, 0.0, 0.0, 0.0, 5.0, 0.0, 0.0, 0.0, 0.5)",0.33,0.25,-9.68,"(1.0, 0.0, 0.0, 0.0, 1.0, 0.0, 0.0, 0.0, 1.0)"
2018/12/16/17:22:07.963989,103864,1545002527,963472959,base_footprint,0.0,0.0,0.0,0.0,"(-1.0, 0.0, 0.0, 0.0, 0.0, 0.0, 0.0, 0.0, 0.0)",0.0048,0.0,-0.0122,"(5.0, 0.0, 0.0, 0.0, 5.0, 0.0, 0.0, 0.0, 0.5)",0.26,0.29,-9.72,"(1.0, 0.0, 0.0, 0.0, 1.0, 0.0, 0.0, 0.0, 1.0)"
2018/12/16/17:22:07.973931,103865,1545002527,973481442,base_footprint,0.0,0.0,0.0,0.0,"(-1.0, 0.0, 0.0, 0.0, 0.0, 0.0, 0.0, 0.0, 0.0)",0.0036,0.0,-0.012,"(5.0, 0.0, 0.0, 0.0, 5.0, 0.0, 0.0, 0.0, 0.5)",0.2,0.33,-9.73,"(1.0, 0.0, 0.0, 0.0, 1.0, 0.0, 0.0, 0.0, 1.0)"
2018/12/16/17:22:07.984052,103866,1545002527,983484113,base_footprint,0.0,0.0,0.0,0.0,"(-1.0, 0.0, 0.0, 0.0, 0.0, 0.0, 0.0, 0.0, 0.0)",0.0022,0.0,-0.0116,"(5.0, 0.0, 0.0, 0.0, 5.0, 0.0, 0.0, 0.0, 0.5)",0.19,0.35,-9.73,"(1.0, 0.0, 0.0, 0.0, 1.0, 0.0, 0.0, 0.0, 1.0)"
2018/12/16/17:22:07.994048,103867,1545002527,993499490,base_footprint,0.0,0.0,0.0,0.0,"(-1.0, 0.0, 0.0, 0.0, 0.0, 0.0, 0.0, 0.0, 0.0)",0.001,0.0,-0.0118,"(5.0, 0.0, 0.0, 0.0, 5.0, 0.0, 0.0, 0.0, 0.5)",0.23,0.33,-9.71,"(1.0, 0.0, 0.0, 0.0, 1.0, 0.0, 0.0, 0.0, 1.0)"
2018/12/16/17:22:08.004031,103868,1545002528,3496929,base_footprint,0.0,0.0,0.0,0.0,"(-1.0, 0.0, 0.0, 0.0, 0.0, 0.0, 0.0, 0.0, 0.0)",0.0,0.0,-0.0122,"(5.0, 0.0, 0.0, 0.0, 5.0, 0.0, 0.0, 0.0, 0.5)",0.28,0.3,-9.7,"(1.0, 0.0, 0.0, 0.0, 1.0, 0.0, 0.0, 0.0, 1.0)"
2018/12/16/17:22:08.015255,103869,1545002528,14649733,base_footprint,0.0,0.0,0.0,0.0,"(-1.0, 0.0, 0.0, 0.0, 0.0, 0.0, 0.0, 0.0, 0.0)",-0.0006,0.0,-0.0126,"(5.0, 0.0, 0.0, 0.0, 5.0, 0.0, 0.0, 0.0, 0.5)",0.31,0.28,-9.69,"(1.0, 0.0, 0.0, 0.0, 1.0, 0.0, 0.0, 0.0, 1.0)"
2018/12/16/17:22:08.023940,103870,1545002528,23431317,base_footprint,0.0,0.0,0.0,0.0,"(-1.0, 0.0, 0.0, 0.0, 0.0, 0.0, 0.0, 0.0, 0.0)",0.0,0.0,-0.0126,"(5.0, 0.0, 0.0, 0.0, 5.0, 0.0, 0.0, 0.0, 0.5)",0.31,0.25,-9.67,"(1.0, 0.0, 0.0, 0.0, 1.0, 0.0, 0.0, 0.0, 1.0)"
2018/12/16/17:22:08.034398,103871,1545002528,33750675,base_footprint,0.0,0.0,0.0,0.0,"(-1.0, 0.0, 0.0, 0.0, 0.0, 0.0, 0.0, 0.0, 0.0)",0.001,0.0,-0.0126,"(5.0, 0.0, 0.0, 0.0, 5.0, 0.0, 0.0, 0.0, 0.5)",0.28,0.21,-9.66,"(1.0, 0.0, 0.0, 0.0, 1.0, 0.0, 0.0, 0.0, 1.0)"
2018/12/16/17:22:08.043927,103872,1545002528,43413154,base_footprint,0.0,0.0,0.0,0.0,"(-1.0, 0.0, 0.0, 0.0, 0.0, 0.0, 0.0, 0.0, 0.0)",0.0016,0.0,-0.0124,"(5.0, 0.0, 0.0, 0.0, 5.0, 0.0, 0.0, 0.0, 0.5)",0.23,0.18,-9.67,"(1.0, 0.0, 0.0, 0.0, 1.0, 0.0, 0.0, 0.0, 1.0)"
2018/12/16/17:22:08.053945,103873,1545002528,53449721,base_footprint,0.0,0.0,0.0,0.0,"(-1.0, 0.0, 0.0, 0.0, 0.0, 0.0, 0.0, 0.0, 0.0)",0.002,0.0,-0.0122,"(5.0, 0.0, 0.0, 0.0, 5.0, 0.0, 0.0, 0.0, 0.5)",0.18,0.16,-9.69,"(1.0, 0.0, 0.0, 0.0, 1.0, 0.0, 0.0, 0.0, 1.0)"
2018/12/16/17:22:08.063884,103874,1545002528,63409008,base_footprint,0.0,0.0,0.0,0.0,"(-1.0, 0.0, 0.0, 0.0, 0.0, 0.0, 0.0, 0.0, 0.0)",0.0036,0.0,-0.012,"(5.0, 0.0, 0.0, 0.0, 5.0, 0.0, 0.0, 0.0, 0.5)",0.17,0.16,-9.69,"(1.0, 0.0, 0.0, 0.0, 1.0, 0.0, 0.0, 0.0, 1.0)"
2018/12/16/17:22:08.074003,103875,1545002528,73514551,base_footprint,0.0,0.0,0.0,0.0,"(-1.0, 0.0, 0.0, 0.0, 0.0, 0.0, 0.0, 0.0, 0.0)",0.0064,0.0,-0.0118,"(5.0, 0.0, 0.0, 0.0, 5.0, 0.0, 0.0, 0.0, 0.5)",0.18,0.18,-9.67,"(1.0, 0.0, 0.0, 0.0, 1.0, 0.0, 0.0, 0.0, 1.0)"
2018/12/16/17:22:08.083972,103876,1545002528,83408865,base_footprint,0.0,0.0,0.0,0.0,"(-1.0, 0.0, 0.0, 0.0, 0.0, 0.0, 0.0, 0.0, 0.0)",0.0092,0.0,-0.0122,"(5.0, 0.0, 0.0, 0.0, 5.0, 0.0, 0.0, 0.0, 0.5)",0.19,0.19,-9.65,"(1.0, 0.0, 0.0, 0.0, 1.0, 0.0, 0.0, 0.0, 1.0)"
2018/12/16/17:22:08.094292,103877,1545002528,93791482,base_footprint,0.0,0.0,0.0,0.0,"(-1.0, 0.0, 0.0, 0.0, 0.0, 0.0, 0.0, 0.0, 0.0)",0.011,0.0,-0.0126,"(5.0, 0.0, 0.0, 0.0, 5.0, 0.0, 0.0, 0.0, 0.5)",0.19,0.21,-9.64,"(1.0, 0.0, 0.0, 0.0, 1.0, 0.0, 0.0, 0.0, 1.0)"
2018/12/16/17:22:08.104005,103878,1545002528,103462564,base_footprint,0.0,0.0,0.0,0.0,"(-1.0, 0.0, 0.0, 0.0, 0.0, 0.0, 0.0, 0.0, 0.0)",0.0116,0.0,-0.0122,"(5.0, 0.0, 0.0, 0.0, 5.0, 0.0, 0.0, 0.0, 0.5)",0.17,0.25,-9.67,"(1.0, 0.0, 0.0, 0.0, 1.0, 0.0, 0.0, 0.0, 1.0)"
2018/12/16/17:22:08.115094,103879,1545002528,114495889,base_footprint,0.0,0.0,0.0,0.0,"(-1.0, 0.0, 0.0, 0.0, 0.0, 0.0, 0.0, 0.0, 0.0)",0.0106,0.0,-0.0116,"(5.0, 0.0, 0.0, 0.0, 5.0, 0.0, 0.0, 0.0, 0.5)",0.15,0.28,-9.71,"(1.0, 0.0, 0.0, 0.0, 1.0, 0.0, 0.0, 0.0, 1.0)"
2018/12/16/17:22:08.123919,103880,1545002528,123424249,base_footprint,0.0,0.0,0.0,0.0,"(-1.0, 0.0, 0.0, 0.0, 0.0, 0.0, 0.0, 0.0, 0.0)",0.0088,0.0,-0.0116,"(5.0, 0.0, 0.0, 0.0, 5.0, 0.0, 0.0, 0.0, 0.5)",0.13,0.29,-9.76,"(1.0, 0.0, 0.0, 0.0, 1.0, 0.0, 0.0, 0.0, 1.0)"
2018/12/16/17:22:08.134910,103881,1545002528,134272806,base_footprint,0.0,0.0,0.0,0.0,"(-1.0, 0.0, 0.0, 0.0, 0.0, 0.0, 0.0, 0.0, 0.0)",0.0076,0.0,-0.0122,"(5.0, 0.0, 0.0, 0.0, 5.0, 0.0, 0.0, 0.0, 0.5)",0.11,0.28,-9.81,"(1.0, 0.0, 0.0, 0.0, 1.0, 0.0, 0.0, 0.0, 1.0)"
2018/12/16/17:22:08.144037,103882,1545002528,143494160,base_footprint,0.0,0.0,0.0,0.0,"(-1.0, 0.0, 0.0, 0.0, 0.0, 0.0, 0.0, 0.0, 0.0)",0.0068,0.0,-0.013,"(5.0, 0.0, 0.0, 0.0, 5.0, 0.0, 0.0, 0.0, 0.5)",0.08,0.27,-9.84,"(1.0, 0.0, 0.0, 0.0, 1.0, 0.0, 0.0, 0.0, 1.0)"
2018/12/16/17:22:08.153947,103883,1545002528,153441988,base_footprint,0.0,0.0,0.0,0.0,"(-1.0, 0.0, 0.0, 0.0, 0.0, 0.0, 0.0, 0.0, 0.0)",0.0054,0.0,-0.0136,"(5.0, 0.0, 0.0, 0.0, 5.0, 0.0, 0.0, 0.0, 0.5)",0.06,0.27,-9.87,"(1.0, 0.0, 0.0, 0.0, 1.0, 0.0, 0.0, 0.0, 1.0)"
2018/12/16/17:22:08.163924,103884,1545002528,163408669,base_footprint,0.0,0.0,0.0,0.0,"(-1.0, 0.0, 0.0, 0.0, 0.0, 0.0, 0.0, 0.0, 0.0)",0.003,0.0,-0.0138,"(5.0, 0.0, 0.0, 0.0, 5.0, 0.0, 0.0, 0.0, 0.5)",0.04,0.25,-9.86,"(1.0, 0.0, 0.0, 0.0, 1.0, 0.0, 0.0, 0.0, 1.0)"
2018/12/16/17:22:08.174515,103885,1545002528,173770459,base_footprint,0.0,0.0,0.0,0.0,"(-1.0, 0.0, 0.0, 0.0, 0.0, 0.0, 0.0, 0.0, 0.0)",0.001,0.0,-0.0138,"(5.0, 0.0, 0.0, 0.0, 5.0, 0.0, 0.0, 0.0, 0.5)",0.03,0.21,-9.83,"(1.0, 0.0, 0.0, 0.0, 1.0, 0.0, 0.0, 0.0, 1.0)"
2018/12/16/17:22:08.183915,103886,1545002528,183450209,base_footprint,0.0,0.0,0.0,0.0,"(-1.0, 0.0, 0.0, 0.0, 0.0, 0.0, 0.0, 0.0, 0.0)",0.0,0.0,-0.0138,"(5.0, 0.0, 0.0, 0.0, 5.0, 0.0, 0.0, 0.0, 0.5)",0.04,0.17,-9.8,"(1.0, 0.0, 0.0, 0.0, 1.0, 0.0, 0.0, 0.0, 1.0)"
2018/12/16/17:22:08.193968,103887,1545002528,193507827,base_footprint,0.0,0.0,0.0,0.0,"(-1.0, 0.0, 0.0, 0.0, 0.0, 0.0, 0.0, 0.0, 0.0)",-0.0002,0.0,-0.0138,"(5.0, 0.0, 0.0, 0.0, 5.0, 0.0, 0.0, 0.0, 0.5)",0.07,0.15,-9.79,"(1.0, 0.0, 0.0, 0.0, 1.0, 0.0, 0.0, 0.0, 1.0)"
2018/12/16/17:22:08.203933,103888,1545002528,203447775,base_footprint,0.0,0.0,0.0,0.0,"(-1.0, 0.0, 0.0, 0.0, 0.0, 0.0, 0.0, 0.0, 0.0)",0.0,0.0,-0.0138,"(5.0, 0.0, 0.0, 0.0, 5.0, 0.0, 0.0, 0.0, 0.5)",0.11,0.15,-9.79,"(1.0, 0.0, 0.0, 0.0, 1.0, 0.0, 0.0, 0.0, 1.0)"
2018/12/16/17:22:08.215507,103889,1545002528,214673444,base_footprint,0.0,0.0,0.0,0.0,"(-1.0, 0.0, 0.0, 0.0, 0.0, 0.0, 0.0, 0.0, 0.0)",0.0,0.0,-0.0142,"(5.0, 0.0, 0.0, 0.0, 5.0, 0.0, 0.0, 0.0, 0.5)",0.12,0.14,-9.76,"(1.0, 0.0, 0.0, 0.0, 1.0, 0.0, 0.0, 0.0, 1.0)"
2018/12/16/17:22:08.223899,103890,1545002528,223391600,base_footprint,0.0,0.0,0.0,0.0,"(-1.0, 0.0, 0.0, 0.0, 0.0, 0.0, 0.0, 0.0, 0.0)",0.0,0.0,-0.0146,"(5.0, 0.0, 0.0, 0.0, 5.0, 0.0, 0.0, 0.0, 0.5)",0.12,0.12,-9.71,"(1.0, 0.0, 0.0, 0.0, 1.0, 0.0, 0.0, 0.0, 1.0)"
2018/12/16/17:22:08.234466,103891,1545002528,233925763,base_footprint,0.0,0.0,0.0,0.0,"(-1.0, 0.0, 0.0, 0.0, 0.0, 0.0, 0.0, 0.0, 0.0)",0.0,0.0,-0.0146,"(5.0, 0.0, 0.0, 0.0, 5.0, 0.0, 0.0, 0.0, 0.5)",0.11,0.12,-9.67,"(1.0, 0.0, 0.0, 0.0, 1.0, 0.0, 0.0, 0.0, 1.0)"
2018/12/16/17:22:08.243829,103892,1545002528,243365778,base_footprint,0.0,0.0,0.0,0.0,"(-1.0, 0.0, 0.0, 0.0, 0.0, 0.0, 0.0, 0.0, 0.0)",0.0,0.0,-0.0144,"(5.0, 0.0, 0.0, 0.0, 5.0, 0.0, 0.0, 0.0, 0.5)",0.1,0.14,-9.65,"(1.0, 0.0, 0.0, 0.0, 1.0, 0.0, 0.0, 0.0, 1.0)"
2018/12/16/17:22:08.254270,103893,1545002528,253781609,base_footprint,0.0,0.0,0.0,0.0,"(-1.0, 0.0, 0.0, 0.0, 0.0, 0.0, 0.0, 0.0, 0.0)",0.0004,0.0,-0.0142,"(5.0, 0.0, 0.0, 0.0, 5.0, 0.0, 0.0, 0.0, 0.5)",0.08,0.16,-9.68,"(1.0, 0.0, 0.0, 0.0, 1.0, 0.0, 0.0, 0.0, 1.0)"
2018/12/16/17:22:08.263895,103894,1545002528,263425093,base_footprint,0.0,0.0,0.0,0.0,"(-1.0, 0.0, 0.0, 0.0, 0.0, 0.0, 0.0, 0.0, 0.0)",0.0012,0.0,-0.0142,"(5.0, 0.0, 0.0, 0.0, 5.0, 0.0, 0.0, 0.0, 0.5)",0.05,0.17,-9.71,"(1.0, 0.0, 0.0, 0.0, 1.0, 0.0, 0.0, 0.0, 1.0)"
2018/12/16/17:22:08.274441,103895,1545002528,273929691,base_footprint,0.0,0.0,0.0,0.0,"(-1.0, 0.0, 0.0, 0.0, 0.0, 0.0, 0.0, 0.0, 0.0)",0.0018,0.0,-0.0142,"(5.0, 0.0, 0.0, 0.0, 5.0, 0.0, 0.0, 0.0, 0.5)",0.06,0.17,-9.71,"(1.0, 0.0, 0.0, 0.0, 1.0, 0.0, 0.0, 0.0, 1.0)"
2018/12/16/17:22:08.283916,103896,1545002528,283415555,base_footprint,0.0,0.0,0.0,0.0,"(-1.0, 0.0, 0.0, 0.0, 0.0, 0.0, 0.0, 0.0, 0.0)",0.0022,0.0,-0.014,"(5.0, 0.0, 0.0, 0.0, 5.0, 0.0, 0.0, 0.0, 0.5)",0.09,0.17,-9.69,"(1.0, 0.0, 0.0, 0.0, 1.0, 0.0, 0.0, 0.0, 1.0)"
2018/12/16/17:22:08.294328,103897,1545002528,293801017,base_footprint,0.0,0.0,0.0,0.0,"(-1.0, 0.0, 0.0, 0.0, 0.0, 0.0, 0.0, 0.0, 0.0)",0.0026,0.0,-0.0136,"(5.0, 0.0, 0.0, 0.0, 5.0, 0.0, 0.0, 0.0, 0.5)",0.11,0.19,-9.67,"(1.0, 0.0, 0.0, 0.0, 1.0, 0.0, 0.0, 0.0, 1.0)"
2018/12/16/17:22:08.303991,103898,1545002528,303503096,base_footprint,0.0,0.0,0.0,0.0,"(-1.0, 0.0, 0.0, 0.0, 0.0, 0.0, 0.0, 0.0, 0.0)",0.0028,0.0,-0.013,"(5.0, 0.0, 0.0, 0.0, 5.0, 0.0, 0.0, 0.0, 0.5)",0.12,0.23,-9.68,"(1.0, 0.0, 0.0, 0.0, 1.0, 0.0, 0.0, 0.0, 1.0)"
2018/12/16/17:22:08.315248,103899,1545002528,314638333,base_footprint,0.0,0.0,0.0,0.0,"(-1.0, 0.0, 0.0, 0.0, 0.0, 0.0, 0.0, 0.0, 0.0)",0.0024,0.0,-0.0124,"(5.0, 0.0, 0.0, 0.0, 5.0, 0.0, 0.0, 0.0, 0.5)",0.09,0.28,-9.68,"(1.0, 0.0, 0.0, 0.0, 1.0, 0.0, 0.0, 0.0, 1.0)"
2018/12/16/17:22:08.323930,103900,1545002528,323442452,base_footprint,0.0,0.0,0.0,0.0,"(-1.0, 0.0, 0.0, 0.0, 0.0, 0.0, 0.0, 0.0, 0.0)",0.001,0.0,-0.0122,"(5.0, 0.0, 0.0, 0.0, 5.0, 0.0, 0.0, 0.0, 0.5)",0.06,0.31,-9.66,"(1.0, 0.0, 0.0, 0.0, 1.0, 0.0, 0.0, 0.0, 1.0)"
2018/12/16/17:22:08.334996,103901,1545002528,334166423,base_footprint,0.0,0.0,0.0,0.0,"(-1.0, 0.0, 0.0, 0.0, 0.0, 0.0, 0.0, 0.0, 0.0)",-0.0008,0.0,-0.0118,"(5.0, 0.0, 0.0, 0.0, 5.0, 0.0, 0.0, 0.0, 0.5)",0.04,0.32,-9.65,"(1.0, 0.0, 0.0, 0.0, 1.0, 0.0, 0.0, 0.0, 1.0)"
2018/12/16/17:22:08.343997,103902,1545002528,343442054,base_footprint,0.0,0.0,0.0,0.0,"(-1.0, 0.0, 0.0, 0.0, 0.0, 0.0, 0.0, 0.0, 0.0)",-0.0028,0.0,-0.012,"(5.0, 0.0, 0.0, 0.0, 5.0, 0.0, 0.0, 0.0, 0.5)",0.05,0.28,-9.66,"(1.0, 0.0, 0.0, 0.0, 1.0, 0.0, 0.0, 0.0, 1.0)"
2018/12/16/17:22:08.354323,103903,1545002528,353775510,base_footprint,0.0,0.0,0.0,0.0,"(-1.0, 0.0, 0.0, 0.0, 0.0, 0.0, 0.0, 0.0, 0.0)",-0.0046,0.0,-0.0122,"(5.0, 0.0, 0.0, 0.0, 5.0, 0.0, 0.0, 0.0, 0.5)",0.07,0.24,-9.69,"(1.0, 0.0, 0.0, 0.0, 1.0, 0.0, 0.0, 0.0, 1.0)"
2018/12/16/17:22:08.363932,103904,1545002528,363416888,base_footprint,0.0,0.0,0.0,0.0,"(-1.0, 0.0, 0.0, 0.0, 0.0, 0.0, 0.0, 0.0, 0.0)",-0.0054,0.0,-0.0122,"(5.0, 0.0, 0.0, 0.0, 5.0, 0.0, 0.0, 0.0, 0.5)",0.09,0.22,-9.72,"(1.0, 0.0, 0.0, 0.0, 1.0, 0.0, 0.0, 0.0, 1.0)"
2018/12/16/17:22:08.373929,103905,1545002528,373470107,base_footprint,0.0,0.0,0.0,0.0,"(-1.0, 0.0, 0.0, 0.0, 0.0, 0.0, 0.0, 0.0, 0.0)",-0.0056,0.0,-0.0122,"(5.0, 0.0, 0.0, 0.0, 5.0, 0.0, 0.0, 0.0, 0.5)",0.1,0.2,-9.74,"(1.0, 0.0, 0.0, 0.0, 1.0, 0.0, 0.0, 0.0, 1.0)"
2018/12/16/17:22:08.383992,103906,1545002528,383478860,base_footprint,0.0,0.0,0.0,0.0,"(-1.0, 0.0, 0.0, 0.0, 0.0, 0.0, 0.0, 0.0, 0.0)",-0.0058,0.0,-0.0122,"(5.0, 0.0, 0.0, 0.0, 5.0, 0.0, 0.0, 0.0, 0.5)",0.1,0.19,-9.78,"(1.0, 0.0, 0.0, 0.0, 1.0, 0.0, 0.0, 0.0, 1.0)"
2018/12/16/17:22:08.394183,103907,1545002528,393776032,base_footprint,0.0,0.0,0.0,0.0,"(-1.0, 0.0, 0.0, 0.0, 0.0, 0.0, 0.0, 0.0, 0.0)",-0.0064,0.0,-0.0122,"(5.0, 0.0, 0.0, 0.0, 5.0, 0.0, 0.0, 0.0, 0.5)",0.1,0.19,-9.79,"(1.0, 0.0, 0.0, 0.0, 1.0, 0.0, 0.0, 0.0, 1.0)"
2018/12/16/17:22:08.403909,103908,1545002528,403426724,base_footprint,0.0,0.0,0.0,0.0,"(-1.0, 0.0, 0.0, 0.0, 0.0, 0.0, 0.0, 0.0, 0.0)",-0.0066,0.0,-0.0128,"(5.0, 0.0, 0.0, 0.0, 5.0, 0.0, 0.0, 0.0, 0.5)",0.09,0.21,-9.78,"(1.0, 0.0, 0.0, 0.0, 1.0, 0.0, 0.0, 0.0, 1.0)"
2018/12/16/17:22:08.415117,103909,1545002528,414618052,base_footprint,0.0,0.0,0.0,0.0,"(-1.0, 0.0, 0.0, 0.0, 0.0, 0.0, 0.0, 0.0, 0.0)",-0.006,0.0,-0.0134,"(5.0, 0.0, 0.0, 0.0, 5.0, 0.0, 0.0, 0.0, 0.5)",0.08,0.22,-9.74,"(1.0, 0.0, 0.0, 0.0, 1.0, 0.0, 0.0, 0.0, 1.0)"
2018/12/16/17:22:08.423919,103910,1545002528,423382530,base_footprint,0.0,0.0,0.0,0.0,"(-1.0, 0.0, 0.0, 0.0, 0.0, 0.0, 0.0, 0.0, 0.0)",-0.0054,0.0,-0.0138,"(5.0, 0.0, 0.0, 0.0, 5.0, 0.0, 0.0, 0.0, 0.5)",0.08,0.19,-9.72,"(1.0, 0.0, 0.0, 0.0, 1.0, 0.0, 0.0, 0.0, 1.0)"
2018/12/16/17:22:08.434276,103911,1545002528,433755806,base_footprint,0.0,0.0,0.0,0.0,"(-1.0, 0.0, 0.0, 0.0, 0.0, 0.0, 0.0, 0.0, 0.0)",-0.0056,0.0,-0.0144,"(5.0, 0.0, 0.0, 0.0, 5.0, 0.0, 0.0, 0.0, 0.5)",0.09,0.15,-9.74,"(1.0, 0.0, 0.0, 0.0, 1.0, 0.0, 0.0, 0.0, 1.0)"
2018/12/16/17:22:08.443913,103912,1545002528,443416034,base_footprint,0.0,0.0,0.0,0.0,"(-1.0, 0.0, 0.0, 0.0, 0.0, 0.0, 0.0, 0.0, 0.0)",-0.006,0.0,-0.0148,"(5.0, 0.0, 0.0, 0.0, 5.0, 0.0, 0.0, 0.0, 0.5)",0.11,0.12,-9.77,"(1.0, 0.0, 0.0, 0.0, 1.0, 0.0, 0.0, 0.0, 1.0)"
2018/12/16/17:22:08.454294,103913,1545002528,453746697,base_footprint,0.0,0.0,0.0,0.0,"(-1.0, 0.0, 0.0, 0.0, 0.0, 0.0, 0.0, 0.0, 0.0)",-0.0054,0.0,-0.015,"(5.0, 0.0, 0.0, 0.0, 5.0, 0.0, 0.0, 0.0, 0.5)",0.11,0.13,-9.78,"(1.0, 0.0, 0.0, 0.0, 1.0, 0.0, 0.0, 0.0, 1.0)"
2018/12/16/17:22:08.463842,103914,1545002528,463386852,base_footprint,0.0,0.0,0.0,0.0,"(-1.0, 0.0, 0.0, 0.0, 0.0, 0.0, 0.0, 0.0, 0.0)",-0.0028,0.0,-0.015,"(5.0, 0.0, 0.0, 0.0, 5.0, 0.0, 0.0, 0.0, 0.5)",0.12,0.15,-9.76,"(1.0, 0.0, 0.0, 0.0, 1.0, 0.0, 0.0, 0.0, 1.0)"
2018/12/16/17:22:08.474264,103915,1545002528,473774550,base_footprint,0.0,0.0,0.0,0.0,"(-1.0, 0.0, 0.0, 0.0, 0.0, 0.0, 0.0, 0.0, 0.0)",0.0,0.0,-0.0142,"(5.0, 0.0, 0.0, 0.0, 5.0, 0.0, 0.0, 0.0, 0.5)",0.14,0.17,-9.73,"(1.0, 0.0, 0.0, 0.0, 1.0, 0.0, 0.0, 0.0, 1.0)"
2018/12/16/17:22:08.483949,103916,1545002528,483444355,base_footprint,0.0,0.0,0.0,0.0,"(-1.0, 0.0, 0.0, 0.0, 0.0, 0.0, 0.0, 0.0, 0.0)",0.002,0.0,-0.0136,"(5.0, 0.0, 0.0, 0.0, 5.0, 0.0, 0.0, 0.0, 0.5)",0.17,0.21,-9.7,"(1.0, 0.0, 0.0, 0.0, 1.0, 0.0, 0.0, 0.0, 1.0)"
2018/12/16/17:22:08.493995,103917,1545002528,493504255,base_footprint,0.0,0.0,0.0,0.0,"(-1.0, 0.0, 0.0, 0.0, 0.0, 0.0, 0.0, 0.0, 0.0)",0.003,0.0,-0.0136,"(5.0, 0.0, 0.0, 0.0, 5.0, 0.0, 0.0, 0.0, 0.5)",0.18,0.27,-9.69,"(1.0, 0.0, 0.0, 0.0, 1.0, 0.0, 0.0, 0.0, 1.0)"
2018/12/16/17:22:08.504315,103918,1545002528,503761808,base_footprint,0.0,0.0,0.0,0.0,"(-1.0, 0.0, 0.0, 0.0, 0.0, 0.0, 0.0, 0.0, 0.0)",0.0036,0.0,-0.0138,"(5.0, 0.0, 0.0, 0.0, 5.0, 0.0, 0.0, 0.0, 0.5)",0.16,0.32,-9.7,"(1.0, 0.0, 0.0, 0.0, 1.0, 0.0, 0.0, 0.0, 1.0)"
2018/12/16/17:22:08.515071,103919,1545002528,514570454,base_footprint,0.0,0.0,0.0,0.0,"(-1.0, 0.0, 0.0, 0.0, 0.0, 0.0, 0.0, 0.0, 0.0)",0.0036,0.0,-0.014,"(5.0, 0.0, 0.0, 0.0, 5.0, 0.0, 0.0, 0.0, 0.5)",0.13,0.35,-9.72,"(1.0, 0.0, 0.0, 0.0, 1.0, 0.0, 0.0, 0.0, 1.0)"
2018/12/16/17:22:08.523883,103920,1545002528,523413810,base_footprint,0.0,0.0,0.0,0.0,"(-1.0, 0.0, 0.0, 0.0, 0.0, 0.0, 0.0, 0.0, 0.0)",0.0032,0.0,-0.0138,"(5.0, 0.0, 0.0, 0.0, 5.0, 0.0, 0.0, 0.0, 0.5)",0.11,0.35,-9.73,"(1.0, 0.0, 0.0, 0.0, 1.0, 0.0, 0.0, 0.0, 1.0)"
2018/12/16/17:22:08.534238,103921,1545002528,533776930,base_footprint,0.0,0.0,0.0,0.0,"(-1.0, 0.0, 0.0, 0.0, 0.0, 0.0, 0.0, 0.0, 0.0)",0.0024,0.0,-0.0136,"(5.0, 0.0, 0.0, 0.0, 5.0, 0.0, 0.0, 0.0, 0.5)",0.11,0.32,-9.73,"(1.0, 0.0, 0.0, 0.0, 1.0, 0.0, 0.0, 0.0, 1.0)"
2018/12/16/17:22:08.543928,103922,1545002528,543419950,base_footprint,0.0,0.0,0.0,0.0,"(-1.0, 0.0, 0.0, 0.0, 0.0, 0.0, 0.0, 0.0, 0.0)",0.0008,0.0,-0.013,"(5.0, 0.0, 0.0, 0.0, 5.0, 0.0, 0.0, 0.0, 0.5)",0.14,0.29,-9.77,"(1.0, 0.0, 0.0, 0.0, 1.0, 0.0, 0.0, 0.0, 1.0)"
2018/12/16/17:22:08.554305,103923,1545002528,553811705,base_footprint,0.0,0.0,0.0,0.0,"(-1.0, 0.0, 0.0, 0.0, 0.0, 0.0, 0.0, 0.0, 0.0)",-0.0006,0.0,-0.0126,"(5.0, 0.0, 0.0, 0.0, 5.0, 0.0, 0.0, 0.0, 0.5)",0.18,0.28,-9.82,"(1.0, 0.0, 0.0, 0.0, 1.0, 0.0, 0.0, 0.0, 1.0)"
2018/12/16/17:22:08.563987,103924,1545002528,563487100,base_footprint,0.0,0.0,0.0,0.0,"(-1.0, 0.0, 0.0, 0.0, 0.0, 0.0, 0.0, 0.0, 0.0)",-0.0014,0.0,-0.0122,"(5.0, 0.0, 0.0, 0.0, 5.0, 0.0, 0.0, 0.0, 0.5)",0.19,0.28,-9.83,"(1.0, 0.0, 0.0, 0.0, 1.0, 0.0, 0.0, 0.0, 1.0)"
2018/12/16/17:22:08.573949,103925,1545002528,573434608,base_footprint,0.0,0.0,0.0,0.0,"(-1.0, 0.0, 0.0, 0.0, 0.0, 0.0, 0.0, 0.0, 0.0)",-0.0024,0.0,-0.0118,"(5.0, 0.0, 0.0, 0.0, 5.0, 0.0, 0.0, 0.0, 0.5)",0.16,0.27,-9.81,"(1.0, 0.0, 0.0, 0.0, 1.0, 0.0, 0.0, 0.0, 1.0)"
2018/12/16/17:22:08.583887,103926,1545002528,583398800,base_footprint,0.0,0.0,0.0,0.0,"(-1.0, 0.0, 0.0, 0.0, 0.0, 0.0, 0.0, 0.0, 0.0)",-0.0032,0.0,-0.0116,"(5.0, 0.0, 0.0, 0.0, 5.0, 0.0, 0.0, 0.0, 0.5)",0.12,0.24,-9.79,"(1.0, 0.0, 0.0, 0.0, 1.0, 0.0, 0.0, 0.0, 1.0)"
2018/12/16/17:22:08.593929,103927,1545002528,593467846,base_footprint,0.0,0.0,0.0,0.0,"(-1.0, 0.0, 0.0, 0.0, 0.0, 0.0, 0.0, 0.0, 0.0)",-0.0034,0.0,-0.0112,"(5.0, 0.0, 0.0, 0.0, 5.0, 0.0, 0.0, 0.0, 0.5)",0.11,0.19,-9.76,"(1.0, 0.0, 0.0, 0.0, 1.0, 0.0, 0.0, 0.0, 1.0)"
