time,.header.seq,.header.stamp.secs,.header.stamp.nsecs,.header.frame_id,.latitude,.longitude,.hEll
2018/12/16/17:22:06.358260,103737,2350,216300000,mti/data,30.6277332306,-96.4820785522,47.6495056152
2018/12/16/17:22:06.366161,103738,2350,226300000,mti/data,30.6277332306,-96.4820785522,47.6496810913
2018/12/16/17:22:06.375529,103739,2350,236300000,mti/data,30.6277332306,-96.4820785522,47.6498641968
2018/12/16/17:22:06.385797,103740,2350,246300000,mti/data,30.6277332306,-96.4820785522,47.6490097046
2018/12/16/17:22:06.397353,103741,2350,256300000,mti/data,30.6277332306,-96.4820785522,47.6407966614
2018/12/16/17:22:06.405723,103742,2350,266300000,mti/data,30.6277332306,-96.4820785522,47.6335601807
2018/12/16/17:22:06.416384,103743,2350,276300000,mti/data,30.6277332306,-96.4820785522,47.6336479187
2018/12/16/17:22:06.425594,103744,2350,286300000,mti/data,30.6277332306,-96.4820785522,47.6344642639
2018/12/16/17:22:06.435769,103745,2350,296300000,mti/data,30.6277332306,-96.4820785522,47.6353111267
2018/12/16/17:22:06.445741,103746,2350,306300000,mti/data,30.6277332306,-96.4820785522,47.6359291077
2018/12/16/17:22:06.455793,103747,2350,316300000,mti/data,30.6277332306,-96.4820785522,47.6365509033
2018/12/16/17:22:06.466747,103748,2350,326300000,mti/data,30.6277332306,-96.4820785522,47.6366920471
2018/12/16/17:22:06.475693,103749,2350,336300000,mti/data,30.6277332306,-96.4820785522,47.6368331909
2018/12/16/17:22:06.485573,103750,2350,346300000,mti/data,30.6277332306,-96.4820785522,47.6374778748
2018/12/16/17:22:06.495674,103751,2350,356300000,mti/data,30.6277332306,-96.4820785522,47.6381225586
2018/12/16/17:22:06.505682,103752,2350,366300000,mti/data,30.6277332306,-96.4820785522,47.6382789612
2018/12/16/17:22:06.515728,103753,2350,376300000,mti/data,30.6277332306,-96.4820785522,47.6384391785
2018/12/16/17:22:06.525656,103754,2350,386300000,mti/data,30.6277332306,-96.4820785522,47.6378631592
2018/12/16/17:22:06.535711,103755,2350,396300000,mti/data,30.6277332306,-96.4820785522,47.637298584
2018/12/16/17:22:06.545650,103756,2350,406300000,mti/data,30.6277351379,-96.4820785522,47.6377334595
2018/12/16/17:22:06.555734,103757,2350,416300000,mti/data,30.6277351379,-96.4820785522,47.6381759644
2018/12/16/17:22:06.565867,103758,2350,426300000,mti/data,30.6277351379,-96.4820785522,47.638381958
2018/12/16/17:22:06.577880,103759,2350,436300000,mti/data,30.6277351379,-96.4820785522,47.6385993958
2018/12/16/17:22:06.585824,103760,2350,446300000,mti/data,30.6277351379,-96.4820785522,47.6378059387
2018/12/16/17:22:06.595685,103761,2350,456300000,mti/data,30.6277351379,-96.4820785522,47.6370124817
2018/12/16/17:22:06.606073,103762,2350,466300000,mti/data,30.6277351379,-96.4820785522,47.638004303
2018/12/16/17:22:06.615788,103763,2350,476300000,mti/data,30.6277351379,-96.4820785522,47.6389923096
2018/12/16/17:22:06.625627,103764,2350,486300000,mti/data,30.6277351379,-96.4820785522,47.6397285461
2018/12/16/17:22:06.635764,103765,2350,496300000,mti/data,30.6277351379,-96.4820785522,47.6404800415
2018/12/16/17:22:06.645723,103766,2350,506300000,mti/data,30.6277351379,-96.4820785522,47.6330184937
2018/12/16/17:22:06.655877,103767,2350,516300000,mti/data,30.6277351379,-96.4820785522,47.6259918213
2018/12/16/17:22:06.665755,103768,2350,526300000,mti/data,30.6277351379,-96.4820785522,47.6271286011
2018/12/16/17:22:06.675688,103769,2350,536300000,mti/data,30.6277351379,-96.4820785522,47.6277427673
2018/12/16/17:22:06.685678,103770,2350,546300000,mti/data,30.6277351379,-96.4820785522,47.6273956299
2018/12/16/17:22:06.695878,103771,2350,556300000,mti/data,30.6277351379,-96.4820785522,47.6270446777
2018/12/16/17:22:06.705611,103772,2350,566300000,mti/data,30.6277351379,-96.4820785522,47.6264533997
2018/12/16/17:22:06.715708,103773,2350,576300000,mti/data,30.6277351379,-96.4820785522,47.6258506775
2018/12/16/17:22:06.725698,103774,2350,586300000,mti/data,30.6277351379,-96.4820785522,47.6254806519
2018/12/16/17:22:06.735958,103775,2350,596300000,mti/data,30.6277351379,-96.4820785522,47.6251068115
2018/12/16/17:22:06.745709,103776,2350,606300000,mti/data,30.6277351379,-96.4820785522,47.6249694824
2018/12/16/17:22:06.755663,103777,2350,616300000,mti/data,30.6277351379,-96.4820785522,47.6248283386
2018/12/16/17:22:06.765673,103778,2350,626300000,mti/data,30.6277351379,-96.4820785522,47.6246833801
2018/12/16/17:22:06.775708,103779,2350,636300000,mti/data,30.6277351379,-96.4820785522,47.6245384216
2018/12/16/17:22:06.785665,103780,2350,646300000,mti/data,30.6277351379,-96.4820785522,47.6246414185
2018/12/16/17:22:06.795870,103781,2350,656300000,mti/data,30.6277370453,-96.4820785522,47.6247444153
2018/12/16/17:22:06.805757,103782,2350,666300000,mti/data,30.6277370453,-96.4820785522,47.6248512268
2018/12/16/17:22:06.817126,103783,2350,676300000,mti/data,30.6277370453,-96.4820785522,47.6249694824
2018/12/16/17:22:06.825704,103784,2350,686300000,mti/data,30.6277370453,-96.4820785522,47.6250915527
2018/12/16/17:22:06.835869,103785,2350,696300000,mti/data,30.6277370453,-96.4820785522,47.6252059937
2018/12/16/17:22:06.845690,103786,2350,706300000,mti/data,30.6277370453,-96.4820785522,47.6250724792
2018/12/16/17:22:06.855691,103787,2350,716300000,mti/data,30.6277370453,-96.4820785522,47.6249427795
2018/12/16/17:22:06.865776,103788,2350,726300000,mti/data,30.6277370453,-96.4820785522,47.6253166199
2018/12/16/17:22:06.875762,103789,2350,736300000,mti/data,30.6277370453,-96.4820785522,47.625705719
2018/12/16/17:22:06.885738,103790,2350,746300000,mti/data,30.6277370453,-96.4820785522,47.6258544922
2018/12/16/17:22:06.895733,103791,2350,756300000,mti/data,30.6277370453,-96.4820785522,47.620880127
2018/12/16/17:22:06.905762,103792,2350,766300000,mti/data,30.6277370453,-96.4820785522,47.6163597107
2018/12/16/17:22:06.915999,103793,2350,776300000,mti/data,30.6277370453,-96.4820785522,47.6169700623
2018/12/16/17:22:06.925754,103794,2350,786300000,mti/data,30.6277370453,-96.4820785522,47.6175880432
2018/12/16/17:22:06.935681,103795,2350,796300000,mti/data,30.6277370453,-96.4820785522,47.6182174683
2018/12/16/17:22:06.945870,103796,2350,806300000,mti/data,30.6277370453,-96.4820785522,47.6178779602
2018/12/16/17:22:06.956693,103797,2350,816300000,mti/data,30.6277370453,-96.4820785522,47.6175460815
2018/12/16/17:22:06.965732,103798,2350,826300000,mti/data,30.6277370453,-96.4820785522,47.616985321
2018/12/16/17:22:06.976043,103799,2350,836300000,mti/data,30.6277370453,-96.4820785522,47.6164283752
2018/12/16/17:22:06.985663,103800,2350,846300000,mti/data,30.6277370453,-96.4820785522,47.6163482666
2018/12/16/17:22:06.995853,103801,2350,856300000,mti/data,30.6277389526,-96.4820785522,47.6162796021
2018/12/16/17:22:07.005673,103802,2350,866300000,mti/data,30.6277389526,-96.4820785522,47.6159706116
2018/12/16/17:22:07.017061,103803,2350,876300000,mti/data,30.6277389526,-96.4820785522,47.6156539917
2018/12/16/17:22:07.025807,103804,2350,886300000,mti/data,30.6277389526,-96.4820785522,47.6155776978
2018/12/16/17:22:07.035926,103805,2350,896300000,mti/data,30.6277389526,-96.4820785522,47.6155128479
2018/12/16/17:22:07.045779,103806,2350,906300000,mti/data,30.6277389526,-96.4820785522,47.6152000427
2018/12/16/17:22:07.055779,103807,2350,916300000,mti/data,30.6277389526,-96.4820785522,47.6148948669
2018/12/16/17:22:07.065914,103808,2350,926300000,mti/data,30.6277389526,-96.4820785522,47.6148490906
2018/12/16/17:22:07.075628,103809,2350,936300000,mti/data,30.6277389526,-96.4820785522,47.6148071289
2018/12/16/17:22:07.085701,103810,2350,946300000,mti/data,30.6277389526,-96.4820785522,47.6145248413
2018/12/16/17:22:07.095778,103811,2350,956300000,mti/data,30.6277389526,-96.4820785522,47.6142463684
2018/12/16/17:22:07.105702,103812,2350,966300000,mti/data,30.6277389526,-96.4820785522,47.6134681702
2018/12/16/17:22:07.115953,103813,2350,976300000,mti/data,30.6277389526,-96.4820785522,47.612701416
2018/12/16/17:22:07.125686,103814,2350,986300000,mti/data,30.6277389526,-96.4820785522,47.6116828918
2018/12/16/17:22:07.135890,103815,2350,996300000,mti/data,30.6277389526,-96.4820785522,47.6106643677
2018/12/16/17:22:07.145677,103816,2351,6300000,mti/data,30.6277389526,-96.4820785522,47.6054992676
2018/12/16/17:22:07.155719,103817,2351,16300000,mti/data,30.62774086,-96.4820785522,47.6005897522
2018/12/16/17:22:07.165943,103818,2351,26300000,mti/data,30.62774086,-96.4820785522,47.6008529663
2018/12/16/17:22:07.175766,103819,2351,36300000,mti/data,30.62774086,-96.4820785522,47.6008262634
2018/12/16/17:22:07.185607,103820,2351,46300000,mti/data,30.62774086,-96.4820785522,47.6012763977
2018/12/16/17:22:07.195913,103821,2351,56300000,mti/data,30.62774086,-96.4820785522,47.6017379761
2018/12/16/17:22:07.205683,103822,2351,66300000,mti/data,30.62774086,-96.4820785522,47.6019630432
2018/12/16/17:22:07.215889,103823,2351,76300000,mti/data,30.62774086,-96.4820785522,47.6021881104
2018/12/16/17:22:07.225846,103824,2351,86300000,mti/data,30.62774086,-96.4820785522,47.6024208069
2018/12/16/17:22:07.235762,103825,2351,96300000,mti/data,30.62774086,-96.4820785522,47.6026611328
2018/12/16/17:22:07.245692,103826,2351,106300000,mti/data,30.62774086,-96.4820785522,47.6028938293
2018/12/16/17:22:07.256112,103827,2351,116300000,mti/data,30.62774086,-96.4820785522,47.6031227112
2018/12/16/17:22:07.265963,103828,2351,126300000,mti/data,30.62774086,-96.4820785522,47.6035957336
2018/12/16/17:22:07.275999,103829,2351,136300000,mti/data,30.62774086,-96.4820785522,47.6040802002
2018/12/16/17:22:07.285783,103830,2351,146300000,mti/data,30.62774086,-96.4820785522,47.6035690308
2018/12/16/17:22:07.295903,103831,2351,156300000,mti/data,30.62774086,-96.4820785522,47.6030349731
2018/12/16/17:22:07.305689,103832,2351,166300000,mti/data,30.6277427673,-96.4820785522,47.6027488708
2018/12/16/17:22:07.315856,103833,2351,176300000,mti/data,30.6277427673,-96.4820785522,47.6024703979
2018/12/16/17:22:07.325884,103834,2351,186300000,mti/data,30.6277427673,-96.4820785522,47.602684021
2018/12/16/17:22:07.335778,103835,2351,196300000,mti/data,30.6277427673,-96.4820785522,47.6028862
2018/12/16/17:22:07.345704,103836,2351,206300000,mti/data,30.6277427673,-96.4820785522,47.6033401489
2018/12/16/17:22:07.355911,103837,2351,216300000,mti/data,30.6277427673,-96.4820785522,47.6038017273
2018/12/16/17:22:07.365883,103838,2351,226300000,mti/data,30.6277427673,-96.4820785522,47.6035194397
2018/12/16/17:22:07.375832,103839,2351,236300000,mti/data,30.6277427673,-96.4820785522,47.6032447815
2018/12/16/17:22:07.385824,103840,2351,246300000,mti/data,30.6277427673,-96.4820785522,47.6034927368
2018/12/16/17:22:07.396010,103841,2351,256300000,mti/data,30.6277427673,-96.4820785522,47.5985450745
2018/12/16/17:22:07.405662,103842,2351,266300000,mti/data,30.6277427673,-96.4820785522,47.5940437317
2018/12/16/17:22:07.416059,103843,2351,276300000,mti/data,30.6277427673,-96.4820785522,47.5947380066
2018/12/16/17:22:07.425743,103844,2351,286300000,mti/data,30.6277427673,-96.4820785522,47.5949630737
2018/12/16/17:22:07.435772,103845,2351,296300000,mti/data,30.6277446747,-96.4820785522,47.595199585
2018/12/16/17:22:07.445752,103846,2351,306300000,mti/data,30.6277446747,-96.4820785522,47.5945014954
2018/12/16/17:22:07.456370,103847,2351,316300000,mti/data,30.6277446747,-96.4820785522,47.5938110352
2018/12/16/17:22:07.465850,103848,2351,326300000,mti/data,30.6277446747,-96.4820785522,47.5931282043
2018/12/16/17:22:07.475780,103849,2351,336300000,mti/data,30.6277446747,-96.4820785522,47.5924415588
2018/12/16/17:22:07.485804,103850,2351,346300000,mti/data,30.6277446747,-96.4820785522,47.5931968689
2018/12/16/17:22:07.495881,103851,2351,356300000,mti/data,30.6277446747,-96.4820785522,47.5939559937
2018/12/16/17:22:07.505780,103852,2351,366300000,mti/data,30.6277446747,-96.4820785522,47.5944747925
2018/12/16/17:22:07.515870,103853,2351,376300000,mti/data,30.6277446747,-96.4820785522,47.5949897766
2018/12/16/17:22:07.525786,103854,2351,386300000,mti/data,30.6277446747,-96.4820785522,47.5959892273
2018/12/16/17:22:07.535789,103855,2351,396300000,mti/data,30.6277446747,-96.4820785522,47.596988678
2018/12/16/17:22:07.545718,103856,2351,406300000,mti/data,30.6277446747,-96.4820785522,47.5977401733
2018/12/16/17:22:07.555732,103857,2351,416300000,mti/data,30.627746582,-96.4820785522,47.5984687805
2018/12/16/17:22:07.565974,103858,2351,426300000,mti/data,30.627746582,-96.4820785522,47.5981903076
2018/12/16/17:22:07.575958,103859,2351,436300000,mti/data,30.627746582,-96.4820785522,47.5979118347
2018/12/16/17:22:07.585789,103860,2351,446300000,mti/data,30.627746582,-96.4820785522,47.5981292725
2018/12/16/17:22:07.595760,103861,2351,456300000,mti/data,30.627746582,-96.4820785522,47.5983276367
2018/12/16/17:22:07.605730,103862,2351,466300000,mti/data,30.627746582,-96.4820785522,47.5979995728
2018/12/16/17:22:07.615782,103863,2351,476300000,mti/data,30.627746582,-96.4820785522,47.5976753235
2018/12/16/17:22:07.625776,103864,2351,486300000,mti/data,30.627746582,-96.4820785522,47.597869873
2018/12/16/17:22:07.635983,103865,2351,496300000,mti/data,30.627746582,-96.4820785522,47.5980682373
2018/12/16/17:22:07.645744,103866,2351,506300000,mti/data,30.627746582,-96.4820785522,47.5926513672
2018/12/16/17:22:07.655756,103867,2351,516300000,mti/data,30.627746582,-96.4820785522,47.5872764587
2018/12/16/17:22:07.665947,103868,2351,526300000,mti/data,30.6277484894,-96.4820785522,47.5875511169
2018/12/16/17:22:07.675830,103869,2351,536300000,mti/data,30.6277484894,-96.4820785522,47.5877761841
2018/12/16/17:22:07.685802,103870,2351,546300000,mti/data,30.6277484894,-96.4820785522,47.5887451172
2018/12/16/17:22:07.695788,103871,2351,556300000,mti/data,30.6277484894,-96.4820785522,47.5897521973
2018/12/16/17:22:07.705759,103872,2351,566300000,mti/data,30.6277484894,-96.4820785522,47.5900878906
2018/12/16/17:22:07.716785,103873,2351,576300000,mti/data,30.6277484894,-96.4820785522,47.5904655457
2018/12/16/17:22:07.725726,103874,2351,586300000,mti/data,30.6277484894,-96.4820785522,47.5915908813
2018/12/16/17:22:07.735776,103875,2351,596300000,mti/data,30.6277484894,-96.4820785522,47.5927467346
2018/12/16/17:22:07.745768,103876,2351,606300000,mti/data,30.6277484894,-96.4820785522,47.5932006836
2018/12/16/17:22:07.755718,103877,2351,616300000,mti/data,30.6277484894,-96.4820785522,47.593662262
2018/12/16/17:22:07.765935,103878,2351,626300000,mti/data,30.6277484894,-96.4820785522,47.5941162109
2018/12/16/17:22:07.777116,103879,2351,636300000,mti/data,30.6277503967,-96.4820785522,47.5945663452
2018/12/16/17:22:07.785970,103880,2351,646300000,mti/data,30.6277503967,-96.4820785522,47.5962219238
2018/12/16/17:22:07.795721,103881,2351,656300000,mti/data,30.6277503967,-96.4820785522,47.5978660583
2018/12/16/17:22:07.805809,103882,2351,666300000,mti/data,30.6277503967,-96.4820785522,47.5985107422
2018/12/16/17:22:07.815843,103883,2351,676300000,mti/data,30.6277503967,-96.4820785522,47.5991401672
2018/12/16/17:22:07.825672,103884,2351,686300000,mti/data,30.6277503967,-96.4820785522,47.5995368958
2018/12/16/17:22:07.835679,103885,2351,696300000,mti/data,30.6277503967,-96.4820785522,47.5999259949
2018/12/16/17:22:07.845782,103886,2351,706300000,mti/data,30.6277503967,-96.4820785522,47.6013069153
2018/12/16/17:22:07.855808,103887,2351,716300000,mti/data,30.6277503967,-96.4820785522,47.6026878357
2018/12/16/17:22:07.865925,103888,2351,726300000,mti/data,30.6277503967,-96.4820785522,47.6040878296
2018/12/16/17:22:07.875737,103889,2351,736300000,mti/data,30.6277523041,-96.4820785522,47.6055374146
2018/12/16/17:22:07.885720,103890,2351,746300000,mti/data,30.6277523041,-96.4820785522,47.6059913635
2018/12/16/17:22:07.895697,103891,2351,756300000,mti/data,30.6277523041,-96.4820785522,47.5986976624
2018/12/16/17:22:07.905739,103892,2351,766300000,mti/data,30.6277523041,-96.4820785522,47.5922241211
2018/12/16/17:22:07.917119,103893,2351,776300000,mti/data,30.6277523041,-96.4820785522,47.5934562683
2018/12/16/17:22:07.925764,103894,2351,786300000,mti/data,30.6277523041,-96.4820785522,47.5947151184
2018/12/16/17:22:07.935687,103895,2351,796300000,mti/data,30.6277523041,-96.4820785522,47.5959396362
2018/12/16/17:22:07.945758,103896,2351,806300000,mti/data,30.6277523041,-96.4820785522,47.5971412659
2018/12/16/17:22:07.955752,103897,2351,816300000,mti/data,30.6277523041,-96.4820785522,47.5983581543
2018/12/16/17:22:07.965795,103898,2351,826300000,mti/data,30.6277523041,-96.4820785522,47.598651886
2018/12/16/17:22:07.975775,103899,2351,836300000,mti/data,30.6277542114,-96.4820785522,47.5989303589
2018/12/16/17:22:07.985882,103900,2351,846300000,mti/data,30.6277542114,-96.4820785522,47.5996856689
2018/12/16/17:22:07.995737,103901,2351,856300000,mti/data,30.6277542114,-96.4820785522,47.6004753113
2018/12/16/17:22:08.005709,103902,2351,866300000,mti/data,30.6277542114,-96.4820785522,47.6003074646
2018/12/16/17:22:08.015945,103903,2351,876300000,mti/data,30.6277542114,-96.4820785522,47.6001091003
2018/12/16/17:22:08.025669,103904,2351,886300000,mti/data,30.6277542114,-96.4820785522,47.6008682251
2018/12/16/17:22:08.035858,103905,2351,896300000,mti/data,30.6277542114,-96.4820785522,47.601650238
2018/12/16/17:22:08.045800,103906,2351,906300000,mti/data,30.6277542114,-96.4820785522,47.6024169922
2018/12/16/17:22:08.055819,103907,2351,916300000,mti/data,30.6277542114,-96.4820785522,47.6031570435
2018/12/16/17:22:08.065961,103908,2351,926300000,mti/data,30.6277542114,-96.4820785522,47.6031532288
2018/12/16/17:22:08.075749,103909,2351,936300000,mti/data,30.6277561188,-96.4820785522,47.6031570435
2018/12/16/17:22:08.085859,103910,2351,946300000,mti/data,30.6277561188,-96.4820785522,47.60389328
2018/12/16/17:22:08.095751,103911,2351,956300000,mti/data,30.6277561188,-96.4820785522,47.6046333313
2018/12/16/17:22:08.106811,103912,2351,966300000,mti/data,30.6277561188,-96.4820785522,47.6053924561
2018/12/16/17:22:08.115865,103913,2351,976300000,mti/data,30.6277561188,-96.4820785522,47.6061630249
2018/12/16/17:22:08.125753,103914,2351,986300000,mti/data,30.6277561188,-96.4820785522,47.6074523926
2018/12/16/17:22:08.135850,103915,2351,996300000,mti/data,30.6277561188,-96.4820785522,47.6087646484
2018/12/16/17:22:08.145803,103916,2352,6300000,mti/data,30.6277561188,-96.4820785522,47.6011886597
2018/12/16/17:22:08.155888,103917,2352,16300000,mti/data,30.6277561188,-96.4820785522,47.5931434631
2018/12/16/17:22:08.166070,103918,2352,26300000,mti/data,30.6277580261,-96.4820785522,47.5929985046
2018/12/16/17:22:08.176334,103919,2352,36300000,mti/data,30.6277580261,-96.4820785522,47.5932579041
2018/12/16/17:22:08.185795,103920,2352,46300000,mti/data,30.6277580261,-96.4820785522,47.5933036804
2018/12/16/17:22:08.195725,103921,2352,56300000,mti/data,30.6277580261,-96.4820785522,47.593372345
2018/12/16/17:22:08.205774,103922,2352,66300000,mti/data,30.6277580261,-96.4820785522,47.5932006836
2018/12/16/17:22:08.216957,103923,2352,76300000,mti/data,30.6277580261,-96.4820785522,47.5930213928
2018/12/16/17:22:08.225827,103924,2352,86300000,mti/data,30.6277580261,-96.4820785522,47.5942649841
2018/12/16/17:22:08.235882,103925,2352,96300000,mti/data,30.6277580261,-96.4820785522,47.595500946
2018/12/16/17:22:08.246298,103926,2352,106300000,mti/data,30.6277580261,-96.4820785522,47.5957717896
2018/12/16/17:22:08.255763,103927,2352,116300000,mti/data,30.6277580261,-96.4820785522,47.5960273743
2018/12/16/17:22:08.266162,103928,2352,126300000,mti/data,30.6277599335,-96.4820785522,47.5962791443
2018/12/16/17:22:08.275797,103929,2352,136300000,mti/data,30.6277599335,-96.4820785522,47.5965118408
2018/12/16/17:22:08.285847,103930,2352,146300000,mti/data,30.6277599335,-96.4820785522,47.5962524414
2018/12/16/17:22:08.295907,103931,2352,156300000,mti/data,30.6277599335,-96.4820785522,47.5959854126
2018/12/16/17:22:08.305941,103932,2352,166300000,mti/data,30.6277599335,-96.4820785522,47.5964241028
2018/12/16/17:22:08.315875,103933,2352,176300000,mti/data,30.6277599335,-96.4820785522,47.5968589783
2018/12/16/17:22:08.326249,103934,2352,186300000,mti/data,30.6277599335,-96.4820785522,47.5980300903
2018/12/16/17:22:08.335793,103935,2352,196300000,mti/data,30.6277599335,-96.4820785522,47.599193573
2018/12/16/17:22:08.345875,103936,2352,206300000,mti/data,30.6277599335,-96.4820785522,47.5998725891
2018/12/16/17:22:08.355927,103937,2352,216300000,mti/data,30.6277618408,-96.4820785522,47.6005439758
2018/12/16/17:22:08.366151,103938,2352,226300000,mti/data,30.6277618408,-96.4820785522,47.600227356
2018/12/16/17:22:08.375899,103939,2352,236300000,mti/data,30.6277618408,-96.4820785522,47.5999107361
2018/12/16/17:22:08.385982,103940,2352,246300000,mti/data,30.6277618408,-96.4820785522,47.6000862122
2018/12/16/17:22:08.395829,103941,2352,256300000,mti/data,30.6277618408,-96.4820785522,47.5927810669
2018/12/16/17:22:08.405893,103942,2352,266300000,mti/data,30.6277618408,-96.4820785522,47.5849342346
2018/12/16/17:22:08.415988,103943,2352,276300000,mti/data,30.6277618408,-96.4820785522,47.5845336914
2018/12/16/17:22:08.425919,103944,2352,286300000,mti/data,30.6277618408,-96.4820785522,47.5845909119
2018/12/16/17:22:08.436029,103945,2352,296300000,mti/data,30.6277618408,-96.4820785522,47.584651947
2018/12/16/17:22:08.446278,103946,2352,306300000,mti/data,30.6277637482,-96.4820785522,47.5849723816
2018/12/16/17:22:08.455858,103947,2352,316300000,mti/data,30.6277637482,-96.4820785522,47.5853042603
2018/12/16/17:22:08.465964,103948,2352,326300000,mti/data,30.6277637482,-96.4820785522,47.5849342346
2018/12/16/17:22:08.475828,103949,2352,336300000,mti/data,30.6277637482,-96.4820785522,47.5845336914
2018/12/16/17:22:08.485801,103950,2352,346300000,mti/data,30.6277637482,-96.4820785522,47.5855522156
2018/12/16/17:22:08.495728,103951,2352,356300000,mti/data,30.6277637482,-96.4820785522,47.5865898132
2018/12/16/17:22:08.505967,103952,2352,366300000,mti/data,30.6277637482,-96.4820785522,47.5869064331
2018/12/16/17:22:08.516313,103953,2352,376300000,mti/data,30.6277637482,-96.4820785522,47.5872039795
2018/12/16/17:22:08.525922,103954,2352,386300000,mti/data,30.6277637482,-96.4820785522,47.586807251
2018/12/16/17:22:08.535841,103955,2352,396300000,mti/data,30.6277656555,-96.4820785522,47.5864448547
2018/12/16/17:22:08.545879,103956,2352,406300000,mti/data,30.6277656555,-96.4820785522,47.586555481
2018/12/16/17:22:08.555854,103957,2352,416300000,mti/data,30.6277656555,-96.4820785522,47.5866584778
2018/12/16/17:22:08.565846,103958,2352,426300000,mti/data,30.6277656555,-96.4820785522,47.5860786438
2018/12/16/17:22:08.575843,103959,2352,436300000,mti/data,30.6277656555,-96.4820785522,47.5855331421
2018/12/16/17:22:08.585976,103960,2352,446300000,mti/data,30.6277656555,-96.4820785522,47.5857200623
2018/12/16/17:22:08.595738,103961,2352,456300000,mti/data,30.6277656555,-96.4820785522,47.5859298706
2018/12/16/17:22:08.605879,103962,2352,466300000,mti/data,30.6277656555,-96.4820785522,47.5851745605
2018/12/16/17:22:08.616423,103963,2352,476300000,mti/data,30.6277656555,-96.4820785522,47.5843963623
2018/12/16/17:22:08.625901,103964,2352,486300000,mti/data,30.6277675629,-96.4820785522,47.5850906372
2018/12/16/17:22:08.635741,103965,2352,496300000,mti/data,30.6277675629,-96.4820785522,47.5858001709
2018/12/16/17:22:08.645895,103966,2352,506300000,mti/data,30.6277675629,-96.4820785522,47.5793418884
2018/12/16/17:22:08.655881,103967,2352,516300000,mti/data,30.6277675629,-96.4820785522,47.5728988647
2018/12/16/17:22:08.666031,103968,2352,526300000,mti/data,30.6277675629,-96.4820785522,47.573589325
2018/12/16/17:22:08.675838,103969,2352,536300000,mti/data,30.6277675629,-96.4820785522,47.5742034912
2018/12/16/17:22:08.685957,103970,2352,546300000,mti/data,30.6277675629,-96.4820785522,47.5743560791
2018/12/16/17:22:08.695916,103971,2352,556300000,mti/data,30.6277675629,-96.4820785522,47.574508667
2018/12/16/17:22:08.706016,103972,2352,566300000,mti/data,30.6277694702,-96.4820785522,47.5749053955
2018/12/16/17:22:08.716022,103973,2352,576300000,mti/data,30.6277694702,-96.4820785522,47.5753211975
2018/12/16/17:22:08.725713,103974,2352,586300000,mti/data,30.6277694702,-96.4820785522,47.5759658813
2018/12/16/17:22:08.735866,103975,2352,596300000,mti/data,30.6277694702,-96.4820785522,47.5765991211
2018/12/16/17:22:08.745903,103976,2352,606300000,mti/data,30.6277694702,-96.4820785522,47.5767440796
2018/12/16/17:22:08.755871,103977,2352,616300000,mti/data,30.6277694702,-96.4820785522,47.5768928528
2018/12/16/17:22:08.766020,103978,2352,626300000,mti/data,30.6277694702,-96.4820785522,47.5770378113
2018/12/16/17:22:08.775979,103979,2352,636300000,mti/data,30.6277694702,-96.4820785522,47.5771713257
2018/12/16/17:22:08.785829,103980,2352,646300000,mti/data,30.6277694702,-96.4820785522,47.5770606995
2018/12/16/17:22:08.795783,103981,2352,656300000,mti/data,30.6277713776,-96.4820785522,47.5769500732
2018/12/16/17:22:08.805839,103982,2352,666300000,mti/data,30.6277713776,-96.4820785522,47.5763626099
2018/12/16/17:22:08.816170,103983,2352,676300000,mti/data,30.6277713776,-96.4820785522,47.5757675171
2018/12/16/17:22:08.825811,103984,2352,686300000,mti/data,30.6277713776,-96.4820785522,47.5768737793
2018/12/16/17:22:08.835739,103985,2352,696300000,mti/data,30.6277713776,-96.4820785522,47.5779953003
2018/12/16/17:22:08.845818,103986,2352,706300000,mti/data,30.6277713776,-96.4820785522,47.5771636963
2018/12/16/17:22:08.855948,103987,2352,716300000,mti/data,30.6277713776,-96.4820785522,47.5763320923
2018/12/16/17:22:08.866289,103988,2352,726300000,mti/data,30.6277713776,-96.4820785522,47.5762367249
2018/12/16/17:22:08.875834,103989,2352,736300000,mti/data,30.6277713776,-96.4820785522,47.5761489868
2018/12/16/17:22:08.885831,103990,2352,746300000,mti/data,30.6277732849,-96.4820785522,47.5758132935
2018/12/16/17:22:08.895843,103991,2352,756300000,mti/data,30.6277732849,-96.4820785522,47.5705337524
2018/12/16/17:22:08.906005,103992,2352,766300000,mti/data,30.6277732849,-96.4820785522,47.5650291443
2018/12/16/17:22:08.915869,103993,2352,776300000,mti/data,30.6277732849,-96.4820785522,47.5644607544
2018/12/16/17:22:08.925924,103994,2352,786300000,mti/data,30.6277732849,-96.4820785522,47.5643615723
2018/12/16/17:22:08.935872,103995,2352,796300000,mti/data,30.6277732849,-96.4820785522,47.564250946
2018/12/16/17:22:08.945781,103996,2352,806300000,mti/data,30.6277732849,-96.4820785522,47.5641479492
2018/12/16/17:22:08.955875,103997,2352,816300000,mti/data,30.6277732849,-96.4820785522,47.5640602112
2018/12/16/17:22:08.965957,103998,2352,826300000,mti/data,30.6277751923,-96.4820785522,47.5646820068
2018/12/16/17:22:08.975785,103999,2352,836300000,mti/data,30.6277751923,-96.4820785522,47.5652923584
2018/12/16/17:22:08.985848,104000,2352,846300000,mti/data,30.6277751923,-96.4820785522,47.5654525757
2018/12/16/17:22:08.995775,104001,2352,856300000,mti/data,30.6277751923,-96.4820785522,47.5656318665
2018/12/16/17:22:09.005941,104002,2352,866300000,mti/data,30.6277751923,-96.4820785522,47.5665168762
2018/12/16/17:22:09.016189,104003,2352,876300000,mti/data,30.6277751923,-96.4820785522,47.567401886
2018/12/16/17:22:09.025850,104004,2352,886300000,mti/data,30.6277751923,-96.4820785522,47.567111969
2018/12/16/17:22:09.035928,104005,2352,896300000,mti/data,30.6277751923,-96.4820785522,47.5668258667
2018/12/16/17:22:09.045911,104006,2352,906300000,mti/data,30.6277751923,-96.4820785522,47.5660476685
2018/12/16/17:22:09.055852,104007,2352,916300000,mti/data,30.6277770996,-96.4820785522,47.5652542114
2018/12/16/17:22:09.066028,104008,2352,926300000,mti/data,30.6277770996,-96.4820785522,47.5644760132
2018/12/16/17:22:09.075847,104009,2352,936300000,mti/data,30.6277770996,-96.4820785522,47.5637054443
2018/12/16/17:22:09.086012,104010,2352,946300000,mti/data,30.6277770996,-96.4820785522,47.5629196167
2018/12/16/17:22:09.095933,104011,2352,956300000,mti/data,30.6277770996,-96.4820785522,47.5621109009
2018/12/16/17:22:09.105892,104012,2352,966300000,mti/data,30.6277770996,-96.4820785522,47.5620384216
2018/12/16/17:22:09.115882,104013,2352,976300000,mti/data,30.6277770996,-96.4820785522,47.5619888306
2018/12/16/17:22:09.125829,104014,2352,986300000,mti/data,30.6277770996,-96.4820785522,47.5629272461
2018/12/16/17:22:09.136659,104015,2352,996300000,mti/data,30.6277770996,-96.4820785522,47.5638618469
2018/12/16/17:22:09.145832,104016,2353,6300000,mti/data,30.627779007,-96.4820785522,47.5604400635
2018/12/16/17:22:09.156205,104017,2353,16300000,mti/data,30.627779007,-96.4820785522,47.5571403503
2018/12/16/17:22:09.166214,104018,2353,26300000,mti/data,30.627779007,-96.4820785522,47.5574684143
2018/12/16/17:22:09.175983,104019,2353,36300000,mti/data,30.627779007,-96.4820785522,47.5576896667
2018/12/16/17:22:09.186018,104020,2353,46300000,mti/data,30.627779007,-96.4820785522,47.5576858521
2018/12/16/17:22:09.196092,104021,2353,56300000,mti/data,30.627779007,-96.4820785522,47.5576934814
2018/12/16/17:22:09.206159,104022,2353,66300000,mti/data,30.627779007,-96.4820785522,47.5574798584
2018/12/16/17:22:09.216029,104023,2353,76300000,mti/data,30.6277809143,-96.4820785522,47.5572509766
2018/12/16/17:22:09.225911,104024,2353,86300000,mti/data,30.6277809143,-96.4820785522,47.5579566956
2018/12/16/17:22:09.235952,104025,2353,96300000,mti/data,30.6277809143,-96.4820785522,47.5586700439
2018/12/16/17:22:09.245875,104026,2353,106300000,mti/data,30.6277809143,-96.4820785522,47.5596237183
2018/12/16/17:22:09.255811,104027,2353,116300000,mti/data,30.6277809143,-96.4820785522,47.560585022
2018/12/16/17:22:09.265947,104028,2353,126300000,mti/data,30.6277809143,-96.4820785522,47.5617828369
2018/12/16/17:22:09.275904,104029,2353,136300000,mti/data,30.6277809143,-96.4820785522,47.5629806519
2018/12/16/17:22:09.285990,104030,2353,146300000,mti/data,30.6277809143,-96.4820785522,47.5639419556
2018/12/16/17:22:09.295909,104031,2353,156300000,mti/data,30.6277809143,-96.4820785522,47.5649261475
2018/12/16/17:22:09.305961,104032,2353,166300000,mti/data,30.6277828217,-96.4820785522,47.5656814575
2018/12/16/17:22:09.316000,104033,2353,176300000,mti/data,30.6277828217,-96.4820785522,47.5664024353
2018/12/16/17:22:09.325890,104034,2353,186300000,mti/data,30.6277828217,-96.4820785522,47.5671348572
2018/12/16/17:22:09.336122,104035,2353,196300000,mti/data,30.6277828217,-96.4820785522,47.5678939819
2018/12/16/17:22:09.345829,104036,2353,206300000,mti/data,30.6277828217,-96.4820785522,47.5677337646
2018/12/16/17:22:09.356078,104037,2353,216300000,mti/data,30.6277828217,-96.4820785522,47.5675888062
2018/12/16/17:22:09.366181,104038,2353,226300000,mti/data,30.6277828217,-96.4820785522,47.5684051514
2018/12/16/17:22:09.375855,104039,2353,236300000,mti/data,30.6277828217,-96.4820785522,47.5692214966
2018/12/16/17:22:09.385872,104040,2353,246300000,mti/data,30.627784729,-96.4820785522,47.5700683594
2018/12/16/17:22:09.395824,104041,2353,256300000,mti/data,30.627784729,-96.4820785522,47.563205719
2018/12/16/17:22:09.405908,104042,2353,266300000,mti/data,30.627784729,-96.4820785522,47.5554695129
2018/12/16/17:22:09.416227,104043,2353,276300000,mti/data,30.627784729,-96.4820785522,47.5554199219
2018/12/16/17:22:09.425726,104044,2353,286300000,mti/data,30.627784729,-96.4820785522,47.5560951233
2018/12/16/17:22:09.435895,104045,2353,296300000,mti/data,30.627784729,-96.4820785522,47.5567550659
2018/12/16/17:22:09.446035,104046,2353,306300000,mti/data,30.627784729,-96.4820785522,47.5576286316
2018/12/16/17:22:09.456001,104047,2353,316300000,mti/data,30.6277866364,-96.4820785522,47.5585098267
2018/12/16/17:22:09.465958,104048,2353,326300000,mti/data,30.6277866364,-96.4820785522,47.5594024658
2018/12/16/17:22:09.475951,104049,2353,336300000,mti/data,30.6277866364,-96.4820785522,47.5603141785
2018/12/16/17:22:09.486006,104050,2353,346300000,mti/data,30.6277866364,-96.4820785522,47.560760498
2018/12/16/17:22:09.496176,104051,2353,356300000,mti/data,30.6277866364,-96.4820785522,47.5612258911
2018/12/16/17:22:09.506038,104052,2353,366300000,mti/data,30.6277866364,-96.4820785522,47.5614700317
2018/12/16/17:22:09.515938,104053,2353,376300000,mti/data,30.6277866364,-96.4820785522,47.5617408752
2018/12/16/17:22:09.525877,104054,2353,386300000,mti/data,30.6277866364,-96.4820785522,47.5615730286
2018/12/16/17:22:09.535869,104055,2353,396300000,mti/data,30.6277885437,-96.4820785522,47.561416626
2018/12/16/17:22:09.545921,104056,2353,406300000,mti/data,30.6277885437,-96.4820785522,47.5622291565
2018/12/16/17:22:09.555968,104057,2353,416300000,mti/data,30.6277885437,-96.4820785522,47.5630760193
2018/12/16/17:22:09.566086,104058,2353,426300000,mti/data,30.6277885437,-96.4820785522,47.5629768372
2018/12/16/17:22:09.575883,104059,2353,436300000,mti/data,30.6277885437,-96.4820785522,47.562877655
2018/12/16/17:22:09.585943,104060,2353,446300000,mti/data,30.6277885437,-96.4820785522,47.5632476807
2018/12/16/17:22:09.595943,104061,2353,456300000,mti/data,30.6277885437,-96.4820785522,47.5636024475
2018/12/16/17:22:09.605907,104062,2353,466300000,mti/data,30.6277885437,-96.4820785522,47.5644645691
2018/12/16/17:22:09.616502,104063,2353,476300000,mti/data,30.627790451,-96.4820785522,47.5653457642
2018/12/16/17:22:09.625943,104064,2353,486300000,mti/data,30.627790451,-96.4820785522,47.5662231445
2018/12/16/17:22:09.638894,104065,2353,496300000,mti/data,30.627790451,-96.4820785522,47.5671005249
2018/12/16/17:22:09.645880,104066,2353,506300000,mti/data,30.627790451,-96.4820785522,47.5595207214
2018/12/16/17:22:09.655906,104067,2353,516300000,mti/data,30.627790451,-96.4820785522,47.5523986816
2018/12/16/17:22:09.666076,104068,2353,526300000,mti/data,30.627790451,-96.4820785522,47.5539131165
2018/12/16/17:22:09.676083,104069,2353,536300000,mti/data,30.627790451,-96.4820785522,47.5548706055
2018/12/16/17:22:09.685938,104070,2353,546300000,mti/data,30.627790451,-96.4820785522,47.5553588867
2018/12/16/17:22:09.695847,104071,2353,556300000,mti/data,30.6277923584,-96.4820785522,47.5558319092
2018/12/16/17:22:09.705962,104072,2353,566300000,mti/data,30.6277923584,-96.4820785522,47.5555992126
2018/12/16/17:22:09.715926,104073,2353,576300000,mti/data,30.6277923584,-96.4820785522,47.5553665161
2018/12/16/17:22:09.725918,104074,2353,586300000,mti/data,30.6277923584,-96.4820785522,47.5556030273
2018/12/16/17:22:09.735927,104075,2353,596300000,mti/data,30.6277923584,-96.4820785522,47.5558242798
2018/12/16/17:22:09.745912,104076,2353,606300000,mti/data,30.6277923584,-96.4820785522,47.5565185547
2018/12/16/17:22:09.756010,104077,2353,616300000,mti/data,30.6277923584,-96.4820785522,47.5572242737
2018/12/16/17:22:09.766127,104078,2353,626300000,mti/data,30.6277923584,-96.4820785522,47.5574607849
2018/12/16/17:22:09.776112,104079,2353,636300000,mti/data,30.6277942657,-96.4820785522,47.5576553345
2018/12/16/17:22:09.785851,104080,2353,646300000,mti/data,30.6277942657,-96.4820785522,47.5590133667
2018/12/16/17:22:09.795876,104081,2353,656300000,mti/data,30.6277942657,-96.4820785522,47.5603981018
2018/12/16/17:22:09.805983,104082,2353,666300000,mti/data,30.6277942657,-96.4820785522,47.560131073
2018/12/16/17:22:09.816058,104083,2353,676300000,mti/data,30.6277942657,-96.4820785522,47.5598678589
2018/12/16/17:22:09.826141,104084,2353,686300000,mti/data,30.6277942657,-96.4820785522,47.5602989197
2018/12/16/17:22:09.836001,104085,2353,696300000,mti/data,30.6277942657,-96.4820785522,47.5607376099
2018/12/16/17:22:09.845987,104086,2353,706300000,mti/data,30.6277961731,-96.4820785522,47.5624084473
2018/12/16/17:22:09.856351,104087,2353,716300000,mti/data,30.6277961731,-96.4820785522,47.5640830994
2018/12/16/17:22:09.866164,104088,2353,726300000,mti/data,30.6277961731,-96.4820785522,47.5647926331
2018/12/16/17:22:09.875901,104089,2353,736300000,mti/data,30.6277961731,-96.4820785522,47.5655403137
2018/12/16/17:22:09.885960,104090,2353,746300000,mti/data,30.6277961731,-96.4820785522,47.5660667419
2018/12/16/17:22:09.896342,104091,2353,756300000,mti/data,30.6277961731,-96.4820785522,47.5592079163
2018/12/16/17:22:09.906022,104092,2353,766300000,mti/data,30.6277961731,-96.4820785522,47.5524559021
2018/12/16/17:22:09.915890,104093,2353,776300000,mti/data,30.6277961731,-96.4820785522,47.553062439
2018/12/16/17:22:09.926051,104094,2353,786300000,mti/data,30.6277980804,-96.4820785522,47.5527877808
2018/12/16/17:22:09.935949,104095,2353,796300000,mti/data,30.6277980804,-96.4820785522,47.5525016785
2018/12/16/17:22:09.945884,104096,2353,806300000,mti/data,30.6277980804,-96.4820785522,47.5528678894
2018/12/16/17:22:09.955989,104097,2353,816300000,mti/data,30.6277980804,-96.4820785522,47.5532493591
2018/12/16/17:22:09.966097,104098,2353,826300000,mti/data,30.6277980804,-96.4820785522,47.5534248352
2018/12/16/17:22:09.975903,104099,2353,836300000,mti/data,30.6277980804,-96.4820785522,47.5535736084
2018/12/16/17:22:09.986044,104100,2353,846300000,mti/data,30.6277980804,-96.4820785522,47.5541610718
2018/12/16/17:22:09.995905,104101,2353,856300000,mti/data,30.6277999878,-96.4820785522,47.5547904968
2018/12/16/17:22:10.005951,104102,2353,866300000,mti/data,30.6277999878,-96.4820785522,47.554977417
2018/12/16/17:22:10.015943,104103,2353,876300000,mti/data,30.6277999878,-96.4820785522,47.5551681519
2018/12/16/17:22:10.026006,104104,2353,886300000,mti/data,30.6277999878,-96.4820785522,47.5558395386
2018/12/16/17:22:10.036027,104105,2353,896300000,mti/data,30.6277999878,-96.4820785522,47.5565299988
2018/12/16/17:22:10.046014,104106,2353,906300000,mti/data,30.6277999878,-96.4820785522,47.5577163696
2018/12/16/17:22:10.055986,104107,2353,916300000,mti/data,30.6277999878,-96.4820785522,47.5589027405
2018/12/16/17:22:10.066119,104108,2353,926300000,mti/data,30.6277999878,-96.4820785522,47.5596122742
2018/12/16/17:22:10.075807,104109,2353,936300000,mti/data,30.6278018951,-96.4820785522,47.5602989197
2018/12/16/17:22:10.085987,104110,2353,946300000,mti/data,30.6278018951,-96.4820785522,47.561466217
2018/12/16/17:22:10.095958,104111,2353,956300000,mti/data,30.6278018951,-96.4820785522,47.5626220703
2018/12/16/17:22:10.105990,104112,2353,966300000,mti/data,30.6278018951,-96.4820785522,47.5632743835
2018/12/16/17:22:10.116109,104113,2353,976300000,mti/data,30.6278018951,-96.4820785522,47.5639076233
2018/12/16/17:22:10.126075,104114,2353,986300000,mti/data,30.6278018951,-96.4820785522,47.5650138855
2018/12/16/17:22:10.135962,104115,2353,996300000,mti/data,30.6278018951,-96.4820785522,47.5661315918
2018/12/16/17:22:10.145926,104116,2354,6300000,mti/data,30.6278038025,-96.4820785522,47.5609436035
2018/12/16/17:22:10.155951,104117,2354,16300000,mti/data,30.6278038025,-96.4820785522,47.5562744141
2018/12/16/17:22:10.166087,104118,2354,26300000,mti/data,30.6278038025,-96.4820785522,47.557144165
2018/12/16/17:22:10.175916,104119,2354,36300000,mti/data,30.6278038025,-96.4820785522,47.5574645996
2018/12/16/17:22:10.185961,104120,2354,46300000,mti/data,30.6278038025,-96.4820785522,47.5582275391
2018/12/16/17:22:10.196146,104121,2354,56300000,mti/data,30.6278038025,-96.4820785522,47.5589561462
2018/12/16/17:22:10.205957,104122,2354,66300000,mti/data,30.6278038025,-96.4820785522,47.5582962036
2018/12/16/17:22:10.216691,104123,2354,76300000,mti/data,30.6278057098,-96.4820785522,47.5576248169
2018/12/16/17:22:10.226043,104124,2354,86300000,mti/data,30.6278057098,-96.4820785522,47.5580940247
2018/12/16/17:22:10.235983,104125,2354,96300000,mti/data,30.6278057098,-96.4820785522,47.5585708618
2018/12/16/17:22:10.245974,104126,2354,106300000,mti/data,30.6278057098,-96.4820785522,47.558391571
2018/12/16/17:22:10.255988,104127,2354,116300000,mti/data,30.6278057098,-96.4820785522,47.5582809448
2018/12/16/17:22:10.266156,104128,2354,126300000,mti/data,30.6278057098,-96.4820785522,47.5589408875
2018/12/16/17:22:10.275963,104129,2354,136300000,mti/data,30.6278057098,-96.4820785522,47.5596466064
2018/12/16/17:22:10.286199,104130,2354,146300000,mti/data,30.6278057098,-96.4820785522,47.5599098206
2018/12/16/17:22:10.296129,104131,2354,156300000,mti/data,30.6278076172,-96.4820785522,47.560218811
2018/12/16/17:22:10.306003,104132,2354,166300000,mti/data,30.6278076172,-96.4820785522,47.5610084534
2018/12/16/17:22:10.316334,104133,2354,176300000,mti/data,30.6278076172,-96.4820785522,47.5617904663
2018/12/16/17:22:10.326550,104134,2354,186300000,mti/data,30.6278076172,-96.4820785522,47.5611572266
2018/12/16/17:22:10.336643,104135,2354,196300000,mti/data,30.6278076172,-96.4820785522,47.5605506897
2018/12/16/17:22:10.345972,104136,2354,206300000,mti/data,30.6278076172,-96.4820785522,47.5604324341
2018/12/16/17:22:10.356094,104137,2354,216300000,mti/data,30.6278076172,-96.4820785522,47.5602912903
2018/12/16/17:22:10.366047,104138,2354,226300000,mti/data,30.6278095245,-96.4820785522,47.5601425171
2018/12/16/17:22:10.375893,104139,2354,236300000,mti/data,30.6278095245,-96.4820785522,47.5600128174
2018/12/16/17:22:10.386182,104140,2354,246300000,mti/data,30.6278095245,-96.4820785522,47.5593948364
2018/12/16/17:22:10.395986,104141,2354,256300000,mti/data,30.6278095245,-96.4820785522,47.5525093079
2018/12/16/17:22:10.405972,104142,2354,266300000,mti/data,30.6278095245,-96.4820785522,47.5460700989
2018/12/16/17:22:10.415980,104143,2354,276300000,mti/data,30.6278095245,-96.4820785522,47.5458602905
2018/12/16/17:22:10.425966,104144,2354,286300000,mti/data,30.6278095245,-96.4820785522,47.5454368591
2018/12/16/17:22:10.435935,104145,2354,296300000,mti/data,30.6278114319,-96.4820785522,47.5449867249
2018/12/16/17:22:10.446008,104146,2354,306300000,mti/data,30.6278114319,-96.4820785522,47.5442848206
2018/12/16/17:22:10.456332,104147,2354,316300000,mti/data,30.6278114319,-96.4820785522,47.5435676575
2018/12/16/17:22:10.466167,104148,2354,326300000,mti/data,30.6278114319,-96.4820785522,47.543296814
2018/12/16/17:22:10.475953,104149,2354,336300000,mti/data,30.6278114319,-96.4820785522,47.5430107117
2018/12/16/17:22:10.485974,104150,2354,346300000,mti/data,30.6278114319,-96.4820785522,47.5431594849
2018/12/16/17:22:10.496102,104151,2354,356300000,mti/data,30.6278114319,-96.4820785522,47.5432853699
2018/12/16/17:22:10.506040,104152,2354,366300000,mti/data,30.6278133392,-96.4820785522,47.5429534912
2018/12/16/17:22:10.515977,104153,2354,376300000,mti/data,30.6278133392,-96.4820785522,47.5426025391
2018/12/16/17:22:10.526093,104154,2354,386300000,mti/data,30.6278133392,-96.4820785522,47.5417633057
2018/12/16/17:22:10.535948,104155,2354,396300000,mti/data,30.6278133392,-96.4820785522,47.5409355164
2018/12/16/17:22:10.545992,104156,2354,406300000,mti/data,30.6278133392,-96.4820785522,47.5415267944
2018/12/16/17:22:10.555996,104157,2354,416300000,mti/data,30.6278133392,-96.4820785522,47.5421333313
2018/12/16/17:22:10.566036,104158,2354,426300000,mti/data,30.6278133392,-96.4820785522,47.5422668457
2018/12/16/17:22:10.575976,104159,2354,436300000,mti/data,30.6278152466,-96.4820785522,47.5424041748
2018/12/16/17:22:10.586095,104160,2354,446300000,mti/data,30.6278152466,-96.4820785522,47.5430603027
2018/12/16/17:22:10.595961,104161,2354,456300000,mti/data,30.6278152466,-96.4820785522,47.5437660217
2018/12/16/17:22:10.606058,104162,2354,466300000,mti/data,30.6278152466,-96.4820785522,47.5440292358
2018/12/16/17:22:10.616099,104163,2354,476300000,mti/data,30.6278152466,-96.4820785522,47.5442962646
2018/12/16/17:22:10.625962,104164,2354,486300000,mti/data,30.6278152466,-96.4820785522,47.5446014404
2018/12/16/17:22:10.635961,104165,2354,496300000,mti/data,30.6278152466,-96.4820785522,47.5449562073
2018/12/16/17:22:10.646015,104166,2354,506300000,mti/data,30.6278171539,-96.4820785522,47.5371398926
2018/12/16/17:22:10.656040,104167,2354,516300000,mti/data,30.6278171539,-96.4820785522,47.5293197632
2018/12/16/17:22:10.666189,104168,2354,526300000,mti/data,30.6278171539,-96.4820785522,47.5296783447
2018/12/16/17:22:10.675981,104169,2354,536300000,mti/data,30.6278171539,-96.4820785522,47.5299568176
2018/12/16/17:22:10.686077,104170,2354,546300000,mti/data,30.6278171539,-96.4820785522,47.5294799805
2018/12/16/17:22:10.696063,104171,2354,556300000,mti/data,30.6278171539,-96.4820785522,47.5289955139
2018/12/16/17:22:10.706187,104172,2354,566300000,mti/data,30.6278171539,-96.4820785522,47.5299720764
2018/12/16/17:22:10.716472,104173,2354,576300000,mti/data,30.6278190613,-96.4820785522,47.5309486389
2018/12/16/17:22:10.726074,104174,2354,586300000,mti/data,30.6278190613,-96.4820785522,47.5312194824
2018/12/16/17:22:10.736005,104175,2354,596300000,mti/data,30.6278190613,-96.4820785522,47.5314826965
2018/12/16/17:22:10.746008,104176,2354,606300000,mti/data,30.6278190613,-96.4820785522,47.5324478149
2018/12/16/17:22:10.755967,104177,2354,616300000,mti/data,30.6278190613,-96.4820785522,47.533405304
2018/12/16/17:22:10.766189,104178,2354,626300000,mti/data,30.6278190613,-96.4820785522,47.5336608887
2018/12/16/17:22:10.776042,104179,2354,636300000,mti/data,30.6278190613,-96.4820785522,47.5339050293
2018/12/16/17:22:10.786091,104180,2354,646300000,mti/data,30.6278209686,-96.4820785522,47.5341491699
2018/12/16/17:22:10.796083,104181,2354,656300000,mti/data,30.6278209686,-96.4820785522,47.5343589783
2018/12/16/17:22:10.806079,104182,2354,666300000,mti/data,30.6278209686,-96.4820785522,47.5345573425
2018/12/16/17:22:10.816576,104183,2354,676300000,mti/data,30.6278209686,-96.4820785522,47.5347557068
2018/12/16/17:22:10.825970,104184,2354,686300000,mti/data,30.6278209686,-96.4820785522,47.5354232788
2018/12/16/17:22:10.835961,104185,2354,696300000,mti/data,30.6278209686,-96.4820785522,47.5360908508
2018/12/16/17:22:10.846021,104186,2354,706300000,mti/data,30.627822876,-96.4820785522,47.5374641418
2018/12/16/17:22:10.856175,104187,2354,716300000,mti/data,30.627822876,-96.4820785522,47.5388412476
2018/12/16/17:22:10.866124,104188,2354,726300000,mti/data,30.627822876,-96.4820785522,47.5399856567
2018/12/16/17:22:10.875993,104189,2354,736300000,mti/data,30.627822876,-96.4820785522,47.5411529541
2018/12/16/17:22:10.886311,104190,2354,746300000,mti/data,30.627822876,-96.4820785522,47.5418891907
2018/12/16/17:22:10.896106,104191,2354,756300000,mti/data,30.627822876,-96.4820785522,47.5364837646
2018/12/16/17:22:10.905985,104192,2354,766300000,mti/data,30.627822876,-96.4820785522,47.5305328369
2018/12/16/17:22:10.916051,104193,2354,776300000,mti/data,30.6278247833,-96.4820785522,47.5307502747
2018/12/16/17:22:10.925983,104194,2354,786300000,mti/data,30.6278247833,-96.4820785522,47.53099823
2018/12/16/17:22:10.936062,104195,2354,796300000,mti/data,30.6278247833,-96.4820785522,47.5312576294
2018/12/16/17:22:10.946207,104196,2354,806300000,mti/data,30.6278247833,-96.4820785522,47.5315055847
2018/12/16/17:22:10.956101,104197,2354,816300000,mti/data,30.6278247833,-96.4820785522,47.5317687988
2018/12/16/17:22:10.966186,104198,2354,826300000,mti/data,30.6278247833,-96.4820785522,47.5320472717
2018/12/16/17:22:10.976044,104199,2354,836300000,mti/data,30.6278247833,-96.4820785522,47.5323410034
2018/12/16/17:22:10.986338,104200,2354,846300000,mti/data,30.6278266907,-96.4820785522,47.5331039429
2018/12/16/17:22:10.995990,104201,2354,856300000,mti/data,30.6278266907,-96.4820785522,47.5338592529
2018/12/16/17:22:11.006113,104202,2354,866300000,mti/data,30.6278266907,-96.4820785522,47.5346183777
2018/12/16/17:22:11.016106,104203,2354,876300000,mti/data,30.6278266907,-96.4820785522,47.5353889465
2018/12/16/17:22:11.026000,104204,2354,886300000,mti/data,30.6278266907,-96.4820785522,47.535900116
2018/12/16/17:22:11.036094,104205,2354,896300000,mti/data,30.6278266907,-96.4820785522,47.536403656
2018/12/16/17:22:11.046041,104206,2354,906300000,mti/data,30.627828598,-96.4820785522,47.5374031067
2018/12/16/17:22:11.056159,104207,2354,916300000,mti/data,30.627828598,-96.4820785522,47.5384063721
2018/12/16/17:22:11.066135,104208,2354,926300000,mti/data,30.627828598,-96.4820785522,47.5391426086
2018/12/16/17:22:11.076010,104209,2354,936300000,mti/data,30.627828598,-96.4820785522,47.5398826599
2018/12/16/17:22:11.086091,104210,2354,946300000,mti/data,30.627828598,-96.4820785522,47.5396957397
2018/12/16/17:22:11.096046,104211,2354,956300000,mti/data,30.627828598,-96.4820785522,47.5394935608
2018/12/16/17:22:11.106214,104212,2354,966300000,mti/data,30.627828598,-96.4820785522,47.5395240784
2018/12/16/17:22:11.115984,104213,2354,976300000,mti/data,30.6278305054,-96.4820785522,47.5395584106
2018/12/16/17:22:11.126108,104214,2354,986300000,mti/data,30.6278305054,-96.4820785522,47.5403175354
2018/12/16/17:22:11.136056,104215,2354,996300000,mti/data,30.6278305054,-96.4820785522,47.5410804749
2018/12/16/17:22:11.146123,104216,2355,6300000,mti/data,30.6278305054,-96.4820785522,47.53383255
2018/12/16/17:22:11.156003,104217,2355,16300000,mti/data,30.6278305054,-96.4820785522,47.5266036987
2018/12/16/17:22:11.166206,104218,2355,26300000,mti/data,30.6278305054,-96.4820785522,47.526889801
2018/12/16/17:22:11.176033,104219,2355,36300000,mti/data,30.6278324127,-96.4820785522,47.5270500183
2018/12/16/17:22:11.186264,104220,2355,46300000,mti/data,30.6278324127,-96.4820785522,47.526550293
2018/12/16/17:22:11.196026,104221,2355,56300000,mti/data,30.6278324127,-96.4820785522,47.5260620117
2018/12/16/17:22:11.205978,104222,2355,66300000,mti/data,30.6278324127,-96.4820785522,47.5262489319
2018/12/16/17:22:11.216693,104223,2355,76300000,mti/data,30.6278324127,-96.4820785522,47.5264396667
2018/12/16/17:22:11.226172,104224,2355,86300000,mti/data,30.6278324127,-96.4820785522,47.5268592834
2018/12/16/17:22:11.236097,104225,2355,96300000,mti/data,30.6278343201,-96.4820785522,47.5272903442
2018/12/16/17:22:11.245999,104226,2355,106300000,mti/data,30.6278343201,-96.4820785522,47.5270652771
2018/12/16/17:22:11.256103,104227,2355,116300000,mti/data,30.6278343201,-96.4820785522,47.5268478394
2018/12/16/17:22:11.266117,104228,2355,126300000,mti/data,30.6278343201,-96.4820785522,47.5270843506
2018/12/16/17:22:11.276087,104229,2355,136300000,mti/data,30.6278343201,-96.4820785522,47.5273399353
2018/12/16/17:22:11.286115,104230,2355,146300000,mti/data,30.6278343201,-96.4820785522,47.5269241333
2018/12/16/17:22:11.296057,104231,2355,156300000,mti/data,30.6278343201,-96.4820785522,47.5265159607
2018/12/16/17:22:11.306164,104232,2355,166300000,mti/data,30.6278362274,-96.4820785522,47.5267868042
2018/12/16/17:22:11.316022,104233,2355,176300000,mti/data,30.6278362274,-96.4820785522,47.5270423889
2018/12/16/17:22:11.326003,104234,2355,186300000,mti/data,30.6278362274,-96.4820785522,47.5268440247
2018/12/16/17:22:11.336005,104235,2355,196300000,mti/data,30.6278362274,-96.4820785522,47.5266876221
2018/12/16/17:22:11.346105,104236,2355,206300000,mti/data,30.6278362274,-96.4820785522,47.5265274048
2018/12/16/17:22:11.356207,104237,2355,216300000,mti/data,30.6278362274,-96.4820785522,47.5263214111
2018/12/16/17:22:11.366198,104238,2355,226300000,mti/data,30.6278381348,-96.4820785522,47.525642395
2018/12/16/17:22:11.376089,104239,2355,236300000,mti/data,30.6278381348,-96.4820785522,47.5249900818
2018/12/16/17:22:11.386140,104240,2355,246300000,mti/data,30.6278381348,-96.4820785522,47.5255470276
2018/12/16/17:22:11.396103,104241,2355,256300000,mti/data,30.6278381348,-96.4820785522,47.5203971863
2018/12/16/17:22:11.406333,104242,2355,266300000,mti/data,30.6278381348,-96.4820785522,47.5151290894
2018/12/16/17:22:11.416516,104243,2355,276300000,mti/data,30.6278381348,-96.4820785522,47.5155181885
2018/12/16/17:22:11.426155,104244,2355,286300000,mti/data,30.6278400421,-96.4820785522,47.5148124695
2018/12/16/17:22:11.436086,104245,2355,296300000,mti/data,30.6278400421,-96.4820785522,47.5140914917
2018/12/16/17:22:11.446138,104246,2355,306300000,mti/data,30.6278400421,-96.4820785522,47.5146751404
2018/12/16/17:22:11.456125,104247,2355,316300000,mti/data,30.6278400421,-96.4820785522,47.5152626038
2018/12/16/17:22:11.466236,104248,2355,326300000,mti/data,30.6278400421,-96.4820785522,47.5156402588
2018/12/16/17:22:11.476082,104249,2355,336300000,mti/data,30.6278400421,-96.4820785522,47.516002655
2018/12/16/17:22:11.486150,104250,2355,346300000,mti/data,30.6278400421,-96.4820785522,47.51587677
2018/12/16/17:22:11.496552,104251,2355,356300000,mti/data,30.6278419495,-96.4820785522,47.5157470703
2018/12/16/17:22:11.506116,104252,2355,366300000,mti/data,30.6278419495,-96.4820785522,47.5156364441
2018/12/16/17:22:11.516480,104253,2355,376300000,mti/data,30.6278419495,-96.4820785522,47.515537262
2018/12/16/17:22:11.526106,104254,2355,386300000,mti/data,30.6278419495,-96.4820785522,47.5149803162
2018/12/16/17:22:11.536114,104255,2355,396300000,mti/data,30.6278419495,-96.4820785522,47.5144386292
2018/12/16/17:22:11.546090,104256,2355,406300000,mti/data,30.6278419495,-96.4820785522,47.5141601562
2018/12/16/17:22:11.555995,104257,2355,416300000,mti/data,30.6278438568,-96.4820785522,47.5138931274
2018/12/16/17:22:11.566640,104258,2355,426300000,mti/data,30.6278438568,-96.4820785522,47.5140991211
2018/12/16/17:22:11.576052,104259,2355,436300000,mti/data,30.6278438568,-96.4820785522,47.5143051147
2018/12/16/17:22:11.586130,104260,2355,446300000,mti/data,30.6278438568,-96.4820785522,47.5145454407
2018/12/16/17:22:11.596063,104261,2355,456300000,mti/data,30.6278438568,-96.4820785522,47.5148048401
2018/12/16/17:22:11.606086,104262,2355,466300000,mti/data,30.6278438568,-96.4820785522,47.5157699585
2018/12/16/17:22:11.616657,104263,2355,476300000,mti/data,30.6278457642,-96.4820785522,47.5167198181
2018/12/16/17:22:11.626331,104264,2355,486300000,mti/data,30.6278457642,-96.4820785522,47.5167007446
2018/12/16/17:22:11.636240,104265,2355,496300000,mti/data,30.6278457642,-96.4820785522,47.5166702271
2018/12/16/17:22:11.646256,104266,2355,506300000,mti/data,30.6278457642,-96.4820785522,47.5105819702
2018/12/16/17:22:11.656151,104267,2355,516300000,mti/data,30.6278457642,-96.4820785522,47.5043373108
2018/12/16/17:22:11.666292,104268,2355,526300000,mti/data,30.6278457642,-96.4820785522,47.504360199
2018/12/16/17:22:11.676126,104269,2355,536300000,mti/data,30.6278476715,-96.4820785522,47.5044746399
2018/12/16/17:22:11.686253,104270,2355,546300000,mti/data,30.6278476715,-96.4820785522,47.5050125122
2018/12/16/17:22:11.696263,104271,2355,556300000,mti/data,30.6278476715,-96.4820785522,47.5055503845
2018/12/16/17:22:11.706421,104272,2355,566300000,mti/data,30.6278476715,-96.4820785522,47.5063056946
2018/12/16/17:22:11.716360,104273,2355,576300000,mti/data,30.6278476715,-96.4820785522,47.5070838928
2018/12/16/17:22:11.726079,104274,2355,586300000,mti/data,30.6278476715,-96.4820785522,47.5081176758
2018/12/16/17:22:11.736433,104275,2355,596300000,mti/data,30.6278495789,-96.4820785522,47.509147644
2018/12/16/17:22:11.746247,104276,2355,606300000,mti/data,30.6278495789,-96.4820785522,47.5092582703
2018/12/16/17:22:11.756044,104277,2355,616300000,mti/data,30.6278495789,-96.4820785522,47.5093994141
2018/12/16/17:22:11.766236,104278,2355,626300000,mti/data,30.6278495789,-96.4820785522,47.510017395
2018/12/16/17:22:11.776316,104279,2355,636300000,mti/data,30.6278495789,-96.4820785522,47.5106391907
2018/12/16/17:22:11.786132,104280,2355,646300000,mti/data,30.6278495789,-96.4820785522,47.5117416382
2018/12/16/17:22:11.796085,104281,2355,656300000,mti/data,30.6278514862,-96.4820785522,47.512878418
2018/12/16/17:22:11.806158,104282,2355,666300000,mti/data,30.6278514862,-96.4820785522,47.5131149292
2018/12/16/17:22:11.816767,104283,2355,676300000,mti/data,30.6278514862,-96.4820785522,47.5133628845
2018/12/16/17:22:11.826097,104284,2355,686300000,mti/data,30.6278514862,-96.4820785522,47.5140953064
2018/12/16/17:22:11.843476,104285,2355,696300000,mti/data,30.6278514862,-96.4820785522,47.5148277283
2018/12/16/17:22:11.846093,104286,2355,706300000,mti/data,30.6278514862,-96.4820785522,47.5151176453
2018/12/16/17:22:11.856115,104287,2355,716300000,mti/data,30.6278533936,-96.4820785522,47.5154457092
2018/12/16/17:22:11.866158,104288,2355,726300000,mti/data,30.6278533936,-96.4820785522,47.5153160095
2018/12/16/17:22:11.876070,104289,2355,736300000,mti/data,30.6278533936,-96.4820785522,47.5151786804
2018/12/16/17:22:11.886142,104290,2355,746300000,mti/data,30.6278533936,-96.4820785522,47.5153045654
2018/12/16/17:22:11.896174,104291,2355,756300000,mti/data,30.6278533936,-96.4820785522,47.5077934265
2018/12/16/17:22:11.906024,104292,2355,766300000,mti/data,30.6278533936,-96.4820785522,47.500869751
2018/12/16/17:22:11.915959,104293,2355,776300000,mti/data,30.6278553009,-96.4820785522,47.5015945435
2018/12/16/17:22:11.926145,104294,2355,786300000,mti/data,30.6278553009,-96.4820785522,47.5023193359
2018/12/16/17:22:11.936055,104295,2355,796300000,mti/data,30.6278553009,-96.4820785522,47.5030708313
2018/12/16/17:22:11.946169,104296,2355,806300000,mti/data,30.6278553009,-96.4820785522,47.5038528442
2018/12/16/17:22:11.956173,104297,2355,816300000,mti/data,30.6278553009,-96.4820785522,47.5046195984
2018/12/16/17:22:11.966267,104298,2355,826300000,mti/data,30.6278553009,-96.4820785522,47.5056152344
2018/12/16/17:22:11.976159,104299,2355,836300000,mti/data,30.6278572083,-96.4820785522,47.5066299438
2018/12/16/17:22:11.986390,104300,2355,846300000,mti/data,30.6278572083,-96.4820785522,47.5074424744
2018/12/16/17:22:11.996102,104301,2355,856300000,mti/data,30.6278572083,-96.4820785522,47.5082206726
2018/12/16/17:22:12.006050,104302,2355,866300000,mti/data,30.6278572083,-96.4820785522,47.5092086792
2018/12/16/17:22:12.016909,104303,2355,876300000,mti/data,30.6278572083,-96.4820785522,47.5101928711
2018/12/16/17:22:12.026442,104304,2355,886300000,mti/data,30.6278591156,-96.4820785522,47.5113868713
2018/12/16/17:22:12.036209,104305,2355,896300000,mti/data,30.6278591156,-96.4820785522,47.512550354
2018/12/16/17:22:12.046307,104306,2355,906300000,mti/data,30.6278591156,-96.4820785522,47.5120620728
2018/12/16/17:22:12.056712,104307,2355,916300000,mti/data,30.6278591156,-96.4820785522,47.5115318298
2018/12/16/17:22:12.066257,104308,2355,926300000,mti/data,30.6278591156,-96.4820785522,47.5114059448
2018/12/16/17:22:12.076094,104309,2355,936300000,mti/data,30.6278591156,-96.4820785522,47.5112228394
2018/12/16/17:22:12.086195,104310,2355,946300000,mti/data,30.6278610229,-96.4820785522,47.5100746155
2018/12/16/17:22:12.096028,104311,2355,956300000,mti/data,30.6278610229,-96.4820785522,47.5089950562
2018/12/16/17:22:12.106189,104312,2355,966300000,mti/data,30.6278610229,-96.4820785522,47.5091896057
2018/12/16/17:22:12.116193,104313,2355,976300000,mti/data,30.6278610229,-96.4820785522,47.5094490051
2018/12/16/17:22:12.126195,104314,2355,986300000,mti/data,30.6278610229,-96.4820785522,47.5099258423
2018/12/16/17:22:12.136452,104315,2355,996300000,mti/data,30.6278610229,-96.4820785522,47.5103569031
2018/12/16/17:22:12.146210,104316,2356,6300000,mti/data,30.6278629303,-96.4820785522,47.506187439
2018/12/16/17:22:12.156060,104317,2356,16300000,mti/data,30.6278629303,-96.4820785522,47.5019111633
2018/12/16/17:22:12.166387,104318,2356,26300000,mti/data,30.6278629303,-96.4820785522,47.5010986328
2018/12/16/17:22:12.176409,104319,2356,36300000,mti/data,30.6278629303,-96.4820785522,47.5003814697
2018/12/16/17:22:12.186055,104320,2356,46300000,mti/data,30.6278629303,-96.4820785522,47.4998245239
2018/12/16/17:22:12.196158,104321,2356,56300000,mti/data,30.6278629303,-96.4820785522,47.4992408752
2018/12/16/17:22:12.206076,104322,2356,66300000,mti/data,30.6278648376,-96.4820785522,47.4990921021
2018/12/16/17:22:12.216111,104323,2356,76300000,mti/data,30.6278648376,-96.4820785522,47.4989700317
2018/12/16/17:22:12.226101,104324,2356,86300000,mti/data,30.6278648376,-96.4820785522,47.499622345
2018/12/16/17:22:12.235976,104325,2356,96300000,mti/data,30.6278648376,-96.4820785522,47.5002861023
2018/12/16/17:22:12.246133,104326,2356,106300000,mti/data,30.6278648376,-96.4820785522,47.5004005432
2018/12/16/17:22:12.256347,104327,2356,116300000,mti/data,30.627866745,-96.4820785522,47.5005302429
2018/12/16/17:22:12.266389,104328,2356,126300000,mti/data,30.627866745,-96.4820785522,47.5007362366
2018/12/16/17:22:12.276193,104329,2356,136300000,mti/data,30.627866745,-96.4820785522,47.5009155273
2018/12/16/17:22:12.286218,104330,2356,146300000,mti/data,30.627866745,-96.4820785522,47.5010871887
2018/12/16/17:22:12.296352,104331,2356,156300000,mti/data,30.627866745,-96.4820785522,47.5012512207
