time,.header.seq,.header.stamp.secs,.header.stamp.nsecs,.header.frame_id,.child_frame_id,.pose.pose.position.x,.pose.pose.position.y,.pose.pose.position.z,.pose.pose.orientation.x,.pose.pose.orientation.y,.pose.pose.orientation.z,.pose.pose.orientation.w,.pose.covariance,.twist.twist.linear.x,.twist.twist.linear.y,.twist.twist.linear.z,.twist.twist.angular.x,.twist.twist.angular.y,.twist.twist.angular.z,.twist.covariance
2018/12/16/17:23:04.037216,10825,1545002584,37073356,gps,,4.931,-15.316,1.547,0.0,0.0,0.0,0.0,"(144000000.0, 0.0, 0.0, 0.0, 0.0, 0.0, 0.0, 144000000.0, 0.0, 0.0, 0.0, 0.0, 0.0, 0.0, 676000000.0, 0.0, 0.0, 0.0, 0.0, 0.0, 0.0, 1000.0, 0.0, 0.0, 0.0, 0.0, 0.0, 0.0, 1000.0, 0.0, 0.0, 0.0, 0.0, 0.0, 0.0, 1000.0)",-0.041,4.333,-0.036,0.0,0.0,0.0,"(0.022090000000000002, 0.0, 0.0, 0.0, 0.0, 0.0, 0.0, 0.022090000000000002, 0.0, 0.0, 0.0, 0.0, 0.0, 0.0, 0.053110000000000004, 0.0, 0.0, 0.0, 0.0, 0.0, 0.0, 1000.0, 0.0, 0.0, 0.0, 0.0, 0.0, 0.0, 1000.0, 0.0, 0.0, 0.0, 0.0, 0.0, 0.0, 1000.0)"
2018/12/16/17:23:04.172199,10826,1545002584,172055489,gps,,4.926,-14.885,1.545,0.0,0.0,0.0,0.0,"(100000000.0, 0.0, 0.0, 0.0, 0.0, 0.0, 0.0, 100000000.0, 0.0, 0.0, 0.0, 0.0, 0.0, 0.0, 441000000.0, 0.0, 0.0, 0.0, 0.0, 0.0, 0.0, 1000.0, 0.0, 0.0, 0.0, 0.0, 0.0, 0.0, 1000.0, 0.0, 0.0, 0.0, 0.0, 0.0, 0.0, 1000.0)",-0.042,4.356,0.026,0.0,0.0,0.0,"(0.022090000000000002, 0.0, 0.0, 0.0, 0.0, 0.0, 0.0, 0.022090000000000002, 0.0, 0.0, 0.0, 0.0, 0.0, 0.0, 0.053110000000000004, 0.0, 0.0, 0.0, 0.0, 0.0, 0.0, 1000.0, 0.0, 0.0, 0.0, 0.0, 0.0, 0.0, 1000.0, 0.0, 0.0, 0.0, 0.0, 0.0, 0.0, 1000.0)"
2018/12/16/17:23:04.228167,10827,1545002584,228060272,gps,,4.925,-14.45,1.545,0.0,0.0,0.0,0.0,"(100000000.0, 0.0, 0.0, 0.0, 0.0, 0.0, 0.0, 100000000.0, 0.0, 0.0, 0.0, 0.0, 0.0, 0.0, 441000000.0, 0.0, 0.0, 0.0, 0.0, 0.0, 0.0, 1000.0, 0.0, 0.0, 0.0, 0.0, 0.0, 0.0, 1000.0, 0.0, 0.0, 0.0, 0.0, 0.0, 0.0, 1000.0)",-0.013,4.351,-0.033,0.0,0.0,0.0,"(0.022090000000000002, 0.0, 0.0, 0.0, 0.0, 0.0, 0.0, 0.022090000000000002, 0.0, 0.0, 0.0, 0.0, 0.0, 0.0, 0.053110000000000004, 0.0, 0.0, 0.0, 0.0, 0.0, 0.0, 1000.0, 0.0, 0.0, 0.0, 0.0, 0.0, 0.0, 1000.0, 0.0, 0.0, 0.0, 0.0, 0.0, 0.0, 1000.0)"
2018/12/16/17:23:04.369092,10828,1545002584,368949245,gps,,4.921,-14.011,1.547,0.0,0.0,0.0,0.0,"(100000000.0, 0.0, 0.0, 0.0, 0.0, 0.0, 0.0, 100000000.0, 0.0, 0.0, 0.0, 0.0, 0.0, 0.0, 441000000.0, 0.0, 0.0, 0.0, 0.0, 0.0, 0.0, 1000.0, 0.0, 0.0, 0.0, 0.0, 0.0, 0.0, 1000.0, 0.0, 0.0, 0.0, 0.0, 0.0, 0.0, 1000.0)",-0.033,4.39,0.018,0.0,0.0,0.0,"(0.022090000000000002, 0.0, 0.0, 0.0, 0.0, 0.0, 0.0, 0.022090000000000002, 0.0, 0.0, 0.0, 0.0, 0.0, 0.0, 0.053110000000000004, 0.0, 0.0, 0.0, 0.0, 0.0, 0.0, 1000.0, 0.0, 0.0, 0.0, 0.0, 0.0, 0.0, 1000.0, 0.0, 0.0, 0.0, 0.0, 0.0, 0.0, 1000.0)"
2018/12/16/17:23:04.431022,10829,1545002584,430873542,gps,,4.916,-13.569,1.549,0.0,0.0,0.0,0.0,"(100000000.0, 0.0, 0.0, 0.0, 0.0, 0.0, 0.0, 100000000.0, 0.0, 0.0, 0.0, 0.0, 0.0, 0.0, 484000000.0, 0.0, 0.0, 0.0, 0.0, 0.0, 0.0, 1000.0, 0.0, 0.0, 0.0, 0.0, 0.0, 0.0, 1000.0, 0.0, 0.0, 0.0, 0.0, 0.0, 0.0, 1000.0)",-0.05,4.424,0.022,0.0,0.0,0.0,"(0.022090000000000002, 0.0, 0.0, 0.0, 0.0, 0.0, 0.0, 0.022090000000000002, 0.0, 0.0, 0.0, 0.0, 0.0, 0.0, 0.053110000000000004, 0.0, 0.0, 0.0, 0.0, 0.0, 0.0, 1000.0, 0.0, 0.0, 0.0, 0.0, 0.0, 0.0, 1000.0, 0.0, 0.0, 0.0, 0.0, 0.0, 0.0, 1000.0)"
2018/12/16/17:23:04.576770,10830,1545002584,575791740,gps,,4.914,-13.124,1.542,0.0,0.0,0.0,0.0,"(100000000.0, 0.0, 0.0, 0.0, 0.0, 0.0, 0.0, 100000000.0, 0.0, 0.0, 0.0, 0.0, 0.0, 0.0, 484000000.0, 0.0, 0.0, 0.0, 0.0, 0.0, 0.0, 1000.0, 0.0, 0.0, 0.0, 0.0, 0.0, 0.0, 1000.0, 0.0, 0.0, 0.0, 0.0, 0.0, 0.0, 1000.0)",-0.024,4.454,-0.06,0.0,0.0,0.0,"(0.022090000000000002, 0.0, 0.0, 0.0, 0.0, 0.0, 0.0, 0.022090000000000002, 0.0, 0.0, 0.0, 0.0, 0.0, 0.0, 0.053110000000000004, 0.0, 0.0, 0.0, 0.0, 0.0, 0.0, 1000.0, 0.0, 0.0, 0.0, 0.0, 0.0, 0.0, 1000.0, 0.0, 0.0, 0.0, 0.0, 0.0, 0.0, 1000.0)"
2018/12/16/17:23:04.628908,10831,1545002584,628764825,gps,,4.907,-12.673,1.546,0.0,0.0,0.0,0.0,"(100000000.0, 0.0, 0.0, 0.0, 0.0, 0.0, 0.0, 100000000.0, 0.0, 0.0, 0.0, 0.0, 0.0, 0.0, 484000000.0, 0.0, 0.0, 0.0, 0.0, 0.0, 0.0, 1000.0, 0.0, 0.0, 0.0, 0.0, 0.0, 0.0, 1000.0, 0.0, 0.0, 0.0, 0.0, 0.0, 0.0, 1000.0)",-0.067,4.511,0.018,0.0,0.0,0.0,"(0.022090000000000002, 0.0, 0.0, 0.0, 0.0, 0.0, 0.0, 0.022090000000000002, 0.0, 0.0, 0.0, 0.0, 0.0, 0.0, 0.053110000000000004, 0.0, 0.0, 0.0, 0.0, 0.0, 0.0, 1000.0, 0.0, 0.0, 0.0, 0.0, 0.0, 0.0, 1000.0, 0.0, 0.0, 0.0, 0.0, 0.0, 0.0, 1000.0)"
2018/12/16/17:23:04.768844,10832,1545002584,768685914,gps,,4.901,-12.214,1.542,0.0,0.0,0.0,0.0,"(121000000.0, 0.0, 0.0, 0.0, 0.0, 0.0, 0.0, 121000000.0, 0.0, 0.0, 0.0, 0.0, 0.0, 0.0, 529000000.0, 0.0, 0.0, 0.0, 0.0, 0.0, 0.0, 1000.0, 0.0, 0.0, 0.0, 0.0, 0.0, 0.0, 1000.0, 0.0, 0.0, 0.0, 0.0, 0.0, 0.0, 1000.0)",-0.058,4.584,-0.023,0.0,0.0,0.0,"(0.022090000000000002, 0.0, 0.0, 0.0, 0.0, 0.0, 0.0, 0.022090000000000002, 0.0, 0.0, 0.0, 0.0, 0.0, 0.0, 0.053110000000000004, 0.0, 0.0, 0.0, 0.0, 0.0, 0.0, 1000.0, 0.0, 0.0, 0.0, 0.0, 0.0, 0.0, 1000.0, 0.0, 0.0, 0.0, 0.0, 0.0, 0.0, 1000.0)"
2018/12/16/17:23:04.827801,10833,1545002584,827643487,gps,,4.898,-11.755,1.545,0.0,0.0,0.0,0.0,"(121000000.0, 0.0, 0.0, 0.0, 0.0, 0.0, 0.0, 121000000.0, 0.0, 0.0, 0.0, 0.0, 0.0, 0.0, 529000000.0, 0.0, 0.0, 0.0, 0.0, 0.0, 0.0, 1000.0, 0.0, 0.0, 0.0, 0.0, 0.0, 0.0, 1000.0, 0.0, 0.0, 0.0, 0.0, 0.0, 0.0, 1000.0)",-0.029,4.593,-0.005,0.0,0.0,0.0,"(0.022090000000000002, 0.0, 0.0, 0.0, 0.0, 0.0, 0.0, 0.022090000000000002, 0.0, 0.0, 0.0, 0.0, 0.0, 0.0, 0.053110000000000004, 0.0, 0.0, 0.0, 0.0, 0.0, 0.0, 1000.0, 0.0, 0.0, 0.0, 0.0, 0.0, 0.0, 1000.0, 0.0, 0.0, 0.0, 0.0, 0.0, 0.0, 1000.0)"
2018/12/16/17:23:04.968709,10834,1545002584,968551262,gps,,4.897,-11.289,1.546,0.0,0.0,0.0,0.0,"(121000000.0, 0.0, 0.0, 0.0, 0.0, 0.0, 0.0, 121000000.0, 0.0, 0.0, 0.0, 0.0, 0.0, 0.0, 529000000.0, 0.0, 0.0, 0.0, 0.0, 0.0, 0.0, 1000.0, 0.0, 0.0, 0.0, 0.0, 0.0, 0.0, 1000.0, 0.0, 0.0, 0.0, 0.0, 0.0, 0.0, 1000.0)",-0.017,4.67,0.026,0.0,0.0,0.0,"(0.022090000000000002, 0.0, 0.0, 0.0, 0.0, 0.0, 0.0, 0.022090000000000002, 0.0, 0.0, 0.0, 0.0, 0.0, 0.0, 0.053110000000000004, 0.0, 0.0, 0.0, 0.0, 0.0, 0.0, 1000.0, 0.0, 0.0, 0.0, 0.0, 0.0, 0.0, 1000.0, 0.0, 0.0, 0.0, 0.0, 0.0, 0.0, 1000.0)"
2018/12/16/17:23:05.030689,10835,1545002585,30548961,gps,,4.896,-10.815,1.547,0.0,0.0,0.0,0.0,"(121000000.0, 0.0, 0.0, 0.0, 0.0, 0.0, 0.0, 121000000.0, 0.0, 0.0, 0.0, 0.0, 0.0, 0.0, 529000000.0, 0.0, 0.0, 0.0, 0.0, 0.0, 0.0, 1000.0, 0.0, 0.0, 0.0, 0.0, 0.0, 0.0, 1000.0, 0.0, 0.0, 0.0, 0.0, 0.0, 0.0, 1000.0)",-0.006,4.741,0.021,0.0,0.0,0.0,"(0.022090000000000002, 0.0, 0.0, 0.0, 0.0, 0.0, 0.0, 0.022090000000000002, 0.0, 0.0, 0.0, 0.0, 0.0, 0.0, 0.053110000000000004, 0.0, 0.0, 0.0, 0.0, 0.0, 0.0, 1000.0, 0.0, 0.0, 0.0, 0.0, 0.0, 0.0, 1000.0, 0.0, 0.0, 0.0, 0.0, 0.0, 0.0, 1000.0)"
2018/12/16/17:23:05.171609,10836,1545002585,171469834,gps,,4.89,-10.335,1.547,0.0,0.0,0.0,0.0,"(121000000.0, 0.0, 0.0, 0.0, 0.0, 0.0, 0.0, 121000000.0, 0.0, 0.0, 0.0, 0.0, 0.0, 0.0, 576000000.0, 0.0, 0.0, 0.0, 0.0, 0.0, 0.0, 1000.0, 0.0, 0.0, 0.0, 0.0, 0.0, 0.0, 1000.0, 0.0, 0.0, 0.0, 0.0, 0.0, 0.0, 1000.0)",-0.061,4.793,-0.036,0.0,0.0,0.0,"(0.022090000000000002, 0.0, 0.0, 0.0, 0.0, 0.0, 0.0, 0.022090000000000002, 0.0, 0.0, 0.0, 0.0, 0.0, 0.0, 0.053110000000000004, 0.0, 0.0, 0.0, 0.0, 0.0, 0.0, 1000.0, 0.0, 0.0, 0.0, 0.0, 0.0, 0.0, 1000.0, 0.0, 0.0, 0.0, 0.0, 0.0, 0.0, 1000.0)"
2018/12/16/17:23:05.228543,10837,1545002585,228430581,gps,,4.884,-9.852,1.534,0.0,0.0,0.0,0.0,"(121000000.0, 0.0, 0.0, 0.0, 0.0, 0.0, 0.0, 121000000.0, 0.0, 0.0, 0.0, 0.0, 0.0, 0.0, 576000000.0, 0.0, 0.0, 0.0, 0.0, 0.0, 0.0, 1000.0, 0.0, 0.0, 0.0, 0.0, 0.0, 0.0, 1000.0, 0.0, 0.0, 0.0, 0.0, 0.0, 0.0, 1000.0)",-0.064,4.838,-0.079,0.0,0.0,0.0,"(0.022090000000000002, 0.0, 0.0, 0.0, 0.0, 0.0, 0.0, 0.022090000000000002, 0.0, 0.0, 0.0, 0.0, 0.0, 0.0, 0.053110000000000004, 0.0, 0.0, 0.0, 0.0, 0.0, 0.0, 1000.0, 0.0, 0.0, 0.0, 0.0, 0.0, 0.0, 1000.0, 0.0, 0.0, 0.0, 0.0, 0.0, 0.0, 1000.0)"
2018/12/16/17:23:05.369490,10838,1545002585,369348058,gps,,4.883,-9.37,1.547,0.0,0.0,0.0,0.0,"(121000000.0, 0.0, 0.0, 0.0, 0.0, 0.0, 0.0, 121000000.0, 0.0, 0.0, 0.0, 0.0, 0.0, 0.0, 576000000.0, 0.0, 0.0, 0.0, 0.0, 0.0, 0.0, 1000.0, 0.0, 0.0, 0.0, 0.0, 0.0, 0.0, 1000.0, 0.0, 0.0, 0.0, 0.0, 0.0, 0.0, 1000.0)",-0.011,4.819,0.118,0.0,0.0,0.0,"(0.022090000000000002, 0.0, 0.0, 0.0, 0.0, 0.0, 0.0, 0.022090000000000002, 0.0, 0.0, 0.0, 0.0, 0.0, 0.0, 0.053110000000000004, 0.0, 0.0, 0.0, 0.0, 0.0, 0.0, 1000.0, 0.0, 0.0, 0.0, 0.0, 0.0, 0.0, 1000.0, 0.0, 0.0, 0.0, 0.0, 0.0, 0.0, 1000.0)"
2018/12/16/17:23:05.430420,10839,1545002585,430293167,gps,,4.88,-8.885,1.553,0.0,0.0,0.0,0.0,"(144000000.0, 0.0, 0.0, 0.0, 0.0, 0.0, 0.0, 144000000.0, 0.0, 0.0, 0.0, 0.0, 0.0, 0.0, 625000000.0, 0.0, 0.0, 0.0, 0.0, 0.0, 0.0, 1000.0, 0.0, 0.0, 0.0, 0.0, 0.0, 0.0, 1000.0, 0.0, 0.0, 0.0, 0.0, 0.0, 0.0, 1000.0)",-0.024,4.847,-0.008,0.0,0.0,0.0,"(0.022090000000000002, 0.0, 0.0, 0.0, 0.0, 0.0, 0.0, 0.022090000000000002, 0.0, 0.0, 0.0, 0.0, 0.0, 0.0, 0.053110000000000004, 0.0, 0.0, 0.0, 0.0, 0.0, 0.0, 1000.0, 0.0, 0.0, 0.0, 0.0, 0.0, 0.0, 1000.0, 0.0, 0.0, 0.0, 0.0, 0.0, 0.0, 1000.0)"
2018/12/16/17:23:05.578355,10840,1545002585,578210538,gps,,4.882,-8.401,1.552,0.0,0.0,0.0,0.0,"(144000000.0, 0.0, 0.0, 0.0, 0.0, 0.0, 0.0, 144000000.0, 0.0, 0.0, 0.0, 0.0, 0.0, 0.0, 625000000.0, 0.0, 0.0, 0.0, 0.0, 0.0, 0.0, 1000.0, 0.0, 0.0, 0.0, 0.0, 0.0, 0.0, 1000.0, 0.0, 0.0, 0.0, 0.0, 0.0, 0.0, 1000.0)",0.014,4.849,-0.002,0.0,0.0,0.0,"(0.022090000000000002, 0.0, 0.0, 0.0, 0.0, 0.0, 0.0, 0.022090000000000002, 0.0, 0.0, 0.0, 0.0, 0.0, 0.0, 0.053110000000000004, 0.0, 0.0, 0.0, 0.0, 0.0, 0.0, 1000.0, 0.0, 0.0, 0.0, 0.0, 0.0, 0.0, 1000.0, 0.0, 0.0, 0.0, 0.0, 0.0, 0.0, 1000.0)"
2018/12/16/17:23:05.629314,10841,1545002585,629198819,gps,,4.881,-7.91,1.541,0.0,0.0,0.0,0.0,"(144000000.0, 0.0, 0.0, 0.0, 0.0, 0.0, 0.0, 144000000.0, 0.0, 0.0, 0.0, 0.0, 0.0, 0.0, 625000000.0, 0.0, 0.0, 0.0, 0.0, 0.0, 0.0, 1000.0, 0.0, 0.0, 0.0, 0.0, 0.0, 0.0, 1000.0, 0.0, 0.0, 0.0, 0.0, 0.0, 0.0, 1000.0)",-0.013,4.904,-0.089,0.0,0.0,0.0,"(0.022090000000000002, 0.0, 0.0, 0.0, 0.0, 0.0, 0.0, 0.022090000000000002, 0.0, 0.0, 0.0, 0.0, 0.0, 0.0, 0.053110000000000004, 0.0, 0.0, 0.0, 0.0, 0.0, 0.0, 1000.0, 0.0, 0.0, 0.0, 0.0, 0.0, 0.0, 1000.0, 0.0, 0.0, 0.0, 0.0, 0.0, 0.0, 1000.0)"
2018/12/16/17:23:05.768287,10842,1545002585,768132223,gps,,4.879,-7.419,1.543,0.0,0.0,0.0,0.0,"(144000000.0, 0.0, 0.0, 0.0, 0.0, 0.0, 0.0, 144000000.0, 0.0, 0.0, 0.0, 0.0, 0.0, 0.0, 625000000.0, 0.0, 0.0, 0.0, 0.0, 0.0, 0.0, 1000.0, 0.0, 0.0, 0.0, 0.0, 0.0, 0.0, 1000.0, 0.0, 0.0, 0.0, 0.0, 0.0, 0.0, 1000.0)",-0.014,4.919,0.018,0.0,0.0,0.0,"(0.022090000000000002, 0.0, 0.0, 0.0, 0.0, 0.0, 0.0, 0.022090000000000002, 0.0, 0.0, 0.0, 0.0, 0.0, 0.0, 0.053110000000000004, 0.0, 0.0, 0.0, 0.0, 0.0, 0.0, 1000.0, 0.0, 0.0, 0.0, 0.0, 0.0, 0.0, 1000.0, 0.0, 0.0, 0.0, 0.0, 0.0, 0.0, 1000.0)"
2018/12/16/17:23:05.828248,10843,1545002585,828104188,gps,,4.874,-6.931,1.546,0.0,0.0,0.0,0.0,"(144000000.0, 0.0, 0.0, 0.0, 0.0, 0.0, 0.0, 144000000.0, 0.0, 0.0, 0.0, 0.0, 0.0, 0.0, 676000000.0, 0.0, 0.0, 0.0, 0.0, 0.0, 0.0, 1000.0, 0.0, 0.0, 0.0, 0.0, 0.0, 0.0, 1000.0, 0.0, 0.0, 0.0, 0.0, 0.0, 0.0, 1000.0)",-0.047,4.883,0.032,0.0,0.0,0.0,"(0.022090000000000002, 0.0, 0.0, 0.0, 0.0, 0.0, 0.0, 0.022090000000000002, 0.0, 0.0, 0.0, 0.0, 0.0, 0.0, 0.053110000000000004, 0.0, 0.0, 0.0, 0.0, 0.0, 0.0, 1000.0, 0.0, 0.0, 0.0, 0.0, 0.0, 0.0, 1000.0, 0.0, 0.0, 0.0, 0.0, 0.0, 0.0, 1000.0)"
2018/12/16/17:23:05.968235,10844,1545002585,968055333,gps,,4.873,-6.442,1.542,0.0,0.0,0.0,0.0,"(144000000.0, 0.0, 0.0, 0.0, 0.0, 0.0, 0.0, 144000000.0, 0.0, 0.0, 0.0, 0.0, 0.0, 0.0, 676000000.0, 0.0, 0.0, 0.0, 0.0, 0.0, 0.0, 1000.0, 0.0, 0.0, 0.0, 0.0, 0.0, 0.0, 1000.0, 0.0, 0.0, 0.0, 0.0, 0.0, 0.0, 1000.0)",-0.022,4.89,-0.07,0.0,0.0,0.0,"(0.022090000000000002, 0.0, 0.0, 0.0, 0.0, 0.0, 0.0, 0.022090000000000002, 0.0, 0.0, 0.0, 0.0, 0.0, 0.0, 0.053110000000000004, 0.0, 0.0, 0.0, 0.0, 0.0, 0.0, 1000.0, 0.0, 0.0, 0.0, 0.0, 0.0, 0.0, 1000.0, 0.0, 0.0, 0.0, 0.0, 0.0, 0.0, 1000.0)"
2018/12/16/17:23:06.032249,10845,1545002586,32064159,gps,,4.869,-5.951,1.546,0.0,0.0,0.0,0.0,"(144000000.0, 0.0, 0.0, 0.0, 0.0, 0.0, 0.0, 144000000.0, 0.0, 0.0, 0.0, 0.0, 0.0, 0.0, 676000000.0, 0.0, 0.0, 0.0, 0.0, 0.0, 0.0, 1000.0, 0.0, 0.0, 0.0, 0.0, 0.0, 0.0, 1000.0, 0.0, 0.0, 0.0, 0.0, 0.0, 0.0, 1000.0)",-0.032,4.916,0.039,0.0,0.0,0.0,"(0.022090000000000002, 0.0, 0.0, 0.0, 0.0, 0.0, 0.0, 0.022090000000000002, 0.0, 0.0, 0.0, 0.0, 0.0, 0.0, 0.053110000000000004, 0.0, 0.0, 0.0, 0.0, 0.0, 0.0, 1000.0, 0.0, 0.0, 0.0, 0.0, 0.0, 0.0, 1000.0, 0.0, 0.0, 0.0, 0.0, 0.0, 0.0, 1000.0)"
2018/12/16/17:23:06.172109,10846,1545002586,171946583,gps,,4.871,-5.461,1.536,0.0,0.0,0.0,0.0,"(100000000.0, 0.0, 0.0, 0.0, 0.0, 0.0, 0.0, 100000000.0, 0.0, 0.0, 0.0, 0.0, 0.0, 0.0, 441000000.0, 0.0, 0.0, 0.0, 0.0, 0.0, 0.0, 1000.0, 0.0, 0.0, 0.0, 0.0, 0.0, 0.0, 1000.0, 0.0, 0.0, 0.0, 0.0, 0.0, 0.0, 1000.0)",0.03,4.914,-0.046,0.0,0.0,0.0,"(0.022090000000000002, 0.0, 0.0, 0.0, 0.0, 0.0, 0.0, 0.022090000000000002, 0.0, 0.0, 0.0, 0.0, 0.0, 0.0, 0.053110000000000004, 0.0, 0.0, 0.0, 0.0, 0.0, 0.0, 1000.0, 0.0, 0.0, 0.0, 0.0, 0.0, 0.0, 1000.0, 0.0, 0.0, 0.0, 0.0, 0.0, 0.0, 1000.0)"
2018/12/16/17:23:06.230863,10847,1545002586,230664998,gps,,4.873,-4.969,1.54,0.0,0.0,0.0,0.0,"(100000000.0, 0.0, 0.0, 0.0, 0.0, 0.0, 0.0, 100000000.0, 0.0, 0.0, 0.0, 0.0, 0.0, 0.0, 441000000.0, 0.0, 0.0, 0.0, 0.0, 0.0, 0.0, 1000.0, 0.0, 0.0, 0.0, 0.0, 0.0, 0.0, 1000.0, 0.0, 0.0, 0.0, 0.0, 0.0, 0.0, 1000.0)",0.03,4.914,-0.046,0.0,0.0,0.0,"(0.022090000000000002, 0.0, 0.0, 0.0, 0.0, 0.0, 0.0, 0.022090000000000002, 0.0, 0.0, 0.0, 0.0, 0.0, 0.0, 0.053110000000000004, 0.0, 0.0, 0.0, 0.0, 0.0, 0.0, 1000.0, 0.0, 0.0, 0.0, 0.0, 0.0, 0.0, 1000.0, 0.0, 0.0, 0.0, 0.0, 0.0, 0.0, 1000.0)"
2018/12/16/17:23:06.370110,10848,1545002586,369956438,gps,,4.877,-4.471,1.539,0.0,0.0,0.0,0.0,"(100000000.0, 0.0, 0.0, 0.0, 0.0, 0.0, 0.0, 100000000.0, 0.0, 0.0, 0.0, 0.0, 0.0, 0.0, 441000000.0, 0.0, 0.0, 0.0, 0.0, 0.0, 0.0, 1000.0, 0.0, 0.0, 0.0, 0.0, 0.0, 0.0, 1000.0, 0.0, 0.0, 0.0, 0.0, 0.0, 0.0, 1000.0)",0.042,4.976,-0.018,0.0,0.0,0.0,"(0.022090000000000002, 0.0, 0.0, 0.0, 0.0, 0.0, 0.0, 0.022090000000000002, 0.0, 0.0, 0.0, 0.0, 0.0, 0.0, 0.053110000000000004, 0.0, 0.0, 0.0, 0.0, 0.0, 0.0, 1000.0, 0.0, 0.0, 0.0, 0.0, 0.0, 0.0, 1000.0, 0.0, 0.0, 0.0, 0.0, 0.0, 0.0, 1000.0)"
2018/12/16/17:23:06.430943,10849,1545002586,430794887,gps,,4.877,-3.975,1.537,0.0,0.0,0.0,0.0,"(100000000.0, 0.0, 0.0, 0.0, 0.0, 0.0, 0.0, 100000000.0, 0.0, 0.0, 0.0, 0.0, 0.0, 0.0, 484000000.0, 0.0, 0.0, 0.0, 0.0, 0.0, 0.0, 1000.0, 0.0, 0.0, 0.0, 0.0, 0.0, 0.0, 1000.0, 0.0, 0.0, 0.0, 0.0, 0.0, 0.0, 1000.0)",-0.002,4.967,0.015,0.0,0.0,0.0,"(0.022090000000000002, 0.0, 0.0, 0.0, 0.0, 0.0, 0.0, 0.022090000000000002, 0.0, 0.0, 0.0, 0.0, 0.0, 0.0, 0.053110000000000004, 0.0, 0.0, 0.0, 0.0, 0.0, 0.0, 1000.0, 0.0, 0.0, 0.0, 0.0, 0.0, 0.0, 1000.0, 0.0, 0.0, 0.0, 0.0, 0.0, 0.0, 1000.0)"
2018/12/16/17:23:06.581873,10850,1545002586,581718527,gps,,4.873,-3.472,1.536,0.0,0.0,0.0,0.0,"(100000000.0, 0.0, 0.0, 0.0, 0.0, 0.0, 0.0, 100000000.0, 0.0, 0.0, 0.0, 0.0, 0.0, 0.0, 484000000.0, 0.0, 0.0, 0.0, 0.0, 0.0, 0.0, 1000.0, 0.0, 0.0, 0.0, 0.0, 0.0, 0.0, 1000.0, 0.0, 0.0, 0.0, 0.0, 0.0, 0.0, 1000.0)",-0.03,5.025,-0.038,0.0,0.0,0.0,"(0.022090000000000002, 0.0, 0.0, 0.0, 0.0, 0.0, 0.0, 0.022090000000000002, 0.0, 0.0, 0.0, 0.0, 0.0, 0.0, 0.053110000000000004, 0.0, 0.0, 0.0, 0.0, 0.0, 0.0, 1000.0, 0.0, 0.0, 0.0, 0.0, 0.0, 0.0, 1000.0, 0.0, 0.0, 0.0, 0.0, 0.0, 0.0, 1000.0)"
2018/12/16/17:23:06.639870,10851,1545002586,639700005,gps,,4.873,-2.966,1.533,0.0,0.0,0.0,0.0,"(100000000.0, 0.0, 0.0, 0.0, 0.0, 0.0, 0.0, 100000000.0, 0.0, 0.0, 0.0, 0.0, 0.0, 0.0, 484000000.0, 0.0, 0.0, 0.0, 0.0, 0.0, 0.0, 1000.0, 0.0, 0.0, 0.0, 0.0, 0.0, 0.0, 1000.0, 0.0, 0.0, 0.0, 0.0, 0.0, 0.0, 1000.0)",-0.01,5.073,-0.015,0.0,0.0,0.0,"(0.022090000000000002, 0.0, 0.0, 0.0, 0.0, 0.0, 0.0, 0.022090000000000002, 0.0, 0.0, 0.0, 0.0, 0.0, 0.0, 0.053110000000000004, 0.0, 0.0, 0.0, 0.0, 0.0, 0.0, 1000.0, 0.0, 0.0, 0.0, 0.0, 0.0, 0.0, 1000.0, 0.0, 0.0, 0.0, 0.0, 0.0, 0.0, 1000.0)"
2018/12/16/17:23:06.769775,10852,1545002586,769627075,gps,,4.868,-2.455,1.538,0.0,0.0,0.0,0.0,"(121000000.0, 0.0, 0.0, 0.0, 0.0, 0.0, 0.0, 121000000.0, 0.0, 0.0, 0.0, 0.0, 0.0, 0.0, 484000000.0, 0.0, 0.0, 0.0, 0.0, 0.0, 0.0, 1000.0, 0.0, 0.0, 0.0, 0.0, 0.0, 0.0, 1000.0, 0.0, 0.0, 0.0, 0.0, 0.0, 0.0, 1000.0)",-0.045,5.106,0.038,0.0,0.0,0.0,"(0.022090000000000002, 0.0, 0.0, 0.0, 0.0, 0.0, 0.0, 0.022090000000000002, 0.0, 0.0, 0.0, 0.0, 0.0, 0.0, 0.053110000000000004, 0.0, 0.0, 0.0, 0.0, 0.0, 0.0, 1000.0, 0.0, 0.0, 0.0, 0.0, 0.0, 0.0, 1000.0, 0.0, 0.0, 0.0, 0.0, 0.0, 0.0, 1000.0)"
2018/12/16/17:23:06.832462,10853,1545002586,832306352,gps,,4.87,-1.944,1.537,0.0,0.0,0.0,0.0,"(121000000.0, 0.0, 0.0, 0.0, 0.0, 0.0, 0.0, 121000000.0, 0.0, 0.0, 0.0, 0.0, 0.0, 0.0, 529000000.0, 0.0, 0.0, 0.0, 0.0, 0.0, 0.0, 1000.0, 0.0, 0.0, 0.0, 0.0, 0.0, 0.0, 1000.0, 0.0, 0.0, 0.0, 0.0, 0.0, 0.0, 1000.0)",0.019,5.116,-0.007,0.0,0.0,0.0,"(0.022090000000000002, 0.0, 0.0, 0.0, 0.0, 0.0, 0.0, 0.022090000000000002, 0.0, 0.0, 0.0, 0.0, 0.0, 0.0, 0.053110000000000004, 0.0, 0.0, 0.0, 0.0, 0.0, 0.0, 1000.0, 0.0, 0.0, 0.0, 0.0, 0.0, 0.0, 1000.0, 0.0, 0.0, 0.0, 0.0, 0.0, 0.0, 1000.0)"
2018/12/16/17:23:06.968672,10854,1545002586,968536176,gps,,4.865,-1.426,1.53,0.0,0.0,0.0,0.0,"(121000000.0, 0.0, 0.0, 0.0, 0.0, 0.0, 0.0, 121000000.0, 0.0, 0.0, 0.0, 0.0, 0.0, 0.0, 529000000.0, 0.0, 0.0, 0.0, 0.0, 0.0, 0.0, 1000.0, 0.0, 0.0, 0.0, 0.0, 0.0, 0.0, 1000.0, 0.0, 0.0, 0.0, 0.0, 0.0, 0.0, 1000.0)",-0.05,5.181,-0.06,0.0,0.0,0.0,"(0.022090000000000002, 0.0, 0.0, 0.0, 0.0, 0.0, 0.0, 0.022090000000000002, 0.0, 0.0, 0.0, 0.0, 0.0, 0.0, 0.053110000000000004, 0.0, 0.0, 0.0, 0.0, 0.0, 0.0, 1000.0, 0.0, 0.0, 0.0, 0.0, 0.0, 0.0, 1000.0, 0.0, 0.0, 0.0, 0.0, 0.0, 0.0, 1000.0)"
2018/12/16/17:23:07.033350,10855,1545002587,32639708,gps,,4.864,-0.903,1.537,0.0,0.0,0.0,0.0,"(121000000.0, 0.0, 0.0, 0.0, 0.0, 0.0, 0.0, 121000000.0, 0.0, 0.0, 0.0, 0.0, 0.0, 0.0, 529000000.0, 0.0, 0.0, 0.0, 0.0, 0.0, 0.0, 1000.0, 0.0, 0.0, 0.0, 0.0, 0.0, 0.0, 1000.0, 0.0, 0.0, 0.0, 0.0, 0.0, 0.0, 1000.0)",-0.008,5.223,0.039,0.0,0.0,0.0,"(0.022090000000000002, 0.0, 0.0, 0.0, 0.0, 0.0, 0.0, 0.022090000000000002, 0.0, 0.0, 0.0, 0.0, 0.0, 0.0, 0.053110000000000004, 0.0, 0.0, 0.0, 0.0, 0.0, 0.0, 1000.0, 0.0, 0.0, 0.0, 0.0, 0.0, 0.0, 1000.0, 0.0, 0.0, 0.0, 0.0, 0.0, 0.0, 1000.0)"
2018/12/16/17:23:07.173550,10856,1545002587,173423552,gps,,4.863,-0.377,1.536,0.0,0.0,0.0,0.0,"(121000000.0, 0.0, 0.0, 0.0, 0.0, 0.0, 0.0, 121000000.0, 0.0, 0.0, 0.0, 0.0, 0.0, 0.0, 576000000.0, 0.0, 0.0, 0.0, 0.0, 0.0, 0.0, 1000.0, 0.0, 0.0, 0.0, 0.0, 0.0, 0.0, 1000.0, 0.0, 0.0, 0.0, 0.0, 0.0, 0.0, 1000.0)",-0.011,5.27,-0.003,0.0,0.0,0.0,"(0.022090000000000002, 0.0, 0.0, 0.0, 0.0, 0.0, 0.0, 0.022090000000000002, 0.0, 0.0, 0.0, 0.0, 0.0, 0.0, 0.053110000000000004, 0.0, 0.0, 0.0, 0.0, 0.0, 0.0, 1000.0, 0.0, 0.0, 0.0, 0.0, 0.0, 0.0, 1000.0, 0.0, 0.0, 0.0, 0.0, 0.0, 0.0, 1000.0)"
2018/12/16/17:23:07.228032,10857,1545002587,227899841,gps,,4.86,0.156,1.53,0.0,0.0,0.0,0.0,"(121000000.0, 0.0, 0.0, 0.0, 0.0, 0.0, 0.0, 121000000.0, 0.0, 0.0, 0.0, 0.0, 0.0, 0.0, 576000000.0, 0.0, 0.0, 0.0, 0.0, 0.0, 0.0, 1000.0, 0.0, 0.0, 0.0, 0.0, 0.0, 0.0, 1000.0, 0.0, 0.0, 0.0, 0.0, 0.0, 0.0, 1000.0)",-0.028,5.337,-0.026,0.0,0.0,0.0,"(0.022090000000000002, 0.0, 0.0, 0.0, 0.0, 0.0, 0.0, 0.022090000000000002, 0.0, 0.0, 0.0, 0.0, 0.0, 0.0, 0.053110000000000004, 0.0, 0.0, 0.0, 0.0, 0.0, 0.0, 1000.0, 0.0, 0.0, 0.0, 0.0, 0.0, 0.0, 1000.0, 0.0, 0.0, 0.0, 0.0, 0.0, 0.0, 1000.0)"
2018/12/16/17:23:07.369463,10858,1545002587,369316525,gps,,4.862,0.69,1.531,0.0,0.0,0.0,0.0,"(121000000.0, 0.0, 0.0, 0.0, 0.0, 0.0, 0.0, 121000000.0, 0.0, 0.0, 0.0, 0.0, 0.0, 0.0, 576000000.0, 0.0, 0.0, 0.0, 0.0, 0.0, 0.0, 1000.0, 0.0, 0.0, 0.0, 0.0, 0.0, 0.0, 1000.0, 0.0, 0.0, 0.0, 0.0, 0.0, 0.0, 1000.0)",0.018,5.336,-0.023,0.0,0.0,0.0,"(0.022090000000000002, 0.0, 0.0, 0.0, 0.0, 0.0, 0.0, 0.022090000000000002, 0.0, 0.0, 0.0, 0.0, 0.0, 0.0, 0.053110000000000004, 0.0, 0.0, 0.0, 0.0, 0.0, 0.0, 1000.0, 0.0, 0.0, 0.0, 0.0, 0.0, 0.0, 1000.0, 0.0, 0.0, 0.0, 0.0, 0.0, 0.0, 1000.0)"
2018/12/16/17:23:07.429499,10859,1545002587,429296428,gps,,4.858,1.225,1.536,0.0,0.0,0.0,0.0,"(121000000.0, 0.0, 0.0, 0.0, 0.0, 0.0, 0.0, 121000000.0, 0.0, 0.0, 0.0, 0.0, 0.0, 0.0, 625000000.0, 0.0, 0.0, 0.0, 0.0, 0.0, 0.0, 1000.0, 0.0, 0.0, 0.0, 0.0, 0.0, 0.0, 1000.0, 0.0, 0.0, 0.0, 0.0, 0.0, 0.0, 1000.0)",-0.043,5.356,0.072,0.0,0.0,0.0,"(0.022090000000000002, 0.0, 0.0, 0.0, 0.0, 0.0, 0.0, 0.022090000000000002, 0.0, 0.0, 0.0, 0.0, 0.0, 0.0, 0.053110000000000004, 0.0, 0.0, 0.0, 0.0, 0.0, 0.0, 1000.0, 0.0, 0.0, 0.0, 0.0, 0.0, 0.0, 1000.0, 0.0, 0.0, 0.0, 0.0, 0.0, 0.0, 1000.0)"
2018/12/16/17:23:07.578392,10860,1545002587,578249087,gps,,4.856,1.765,1.533,0.0,0.0,0.0,0.0,"(144000000.0, 0.0, 0.0, 0.0, 0.0, 0.0, 0.0, 144000000.0, 0.0, 0.0, 0.0, 0.0, 0.0, 0.0, 625000000.0, 0.0, 0.0, 0.0, 0.0, 0.0, 0.0, 1000.0, 0.0, 0.0, 0.0, 0.0, 0.0, 0.0, 1000.0, 0.0, 0.0, 0.0, 0.0, 0.0, 0.0, 1000.0)",-0.031,5.407,-0.016,0.0,0.0,0.0,"(0.022090000000000002, 0.0, 0.0, 0.0, 0.0, 0.0, 0.0, 0.022090000000000002, 0.0, 0.0, 0.0, 0.0, 0.0, 0.0, 0.053110000000000004, 0.0, 0.0, 0.0, 0.0, 0.0, 0.0, 1000.0, 0.0, 0.0, 0.0, 0.0, 0.0, 0.0, 1000.0, 0.0, 0.0, 0.0, 0.0, 0.0, 0.0, 1000.0)"
2018/12/16/17:23:07.638356,10861,1545002587,638212552,gps,,4.856,2.314,1.525,0.0,0.0,0.0,0.0,"(144000000.0, 0.0, 0.0, 0.0, 0.0, 0.0, 0.0, 144000000.0, 0.0, 0.0, 0.0, 0.0, 0.0, 0.0, 625000000.0, 0.0, 0.0, 0.0, 0.0, 0.0, 0.0, 1000.0, 0.0, 0.0, 0.0, 0.0, 0.0, 0.0, 1000.0, 0.0, 0.0, 0.0, 0.0, 0.0, 0.0, 1000.0)",0.01,5.484,-0.092,0.0,0.0,0.0,"(0.022090000000000002, 0.0, 0.0, 0.0, 0.0, 0.0, 0.0, 0.022090000000000002, 0.0, 0.0, 0.0, 0.0, 0.0, 0.0, 0.053110000000000004, 0.0, 0.0, 0.0, 0.0, 0.0, 0.0, 1000.0, 0.0, 0.0, 0.0, 0.0, 0.0, 0.0, 1000.0, 0.0, 0.0, 0.0, 0.0, 0.0, 0.0, 1000.0)"
2018/12/16/17:23:07.769341,10862,1545002587,769161008,gps,,4.852,2.86,1.529,0.0,0.0,0.0,0.0,"(144000000.0, 0.0, 0.0, 0.0, 0.0, 0.0, 0.0, 144000000.0, 0.0, 0.0, 0.0, 0.0, 0.0, 0.0, 625000000.0, 0.0, 0.0, 0.0, 0.0, 0.0, 0.0, 1000.0, 0.0, 0.0, 0.0, 0.0, 0.0, 0.0, 1000.0, 0.0, 0.0, 0.0, 0.0, 0.0, 0.0, 1000.0)",-0.037,5.457,0.004,0.0,0.0,0.0,"(0.022090000000000002, 0.0, 0.0, 0.0, 0.0, 0.0, 0.0, 0.022090000000000002, 0.0, 0.0, 0.0, 0.0, 0.0, 0.0, 0.053110000000000004, 0.0, 0.0, 0.0, 0.0, 0.0, 0.0, 1000.0, 0.0, 0.0, 0.0, 0.0, 0.0, 0.0, 1000.0, 0.0, 0.0, 0.0, 0.0, 0.0, 0.0, 1000.0)"
2018/12/16/17:23:07.827248,10863,1545002587,827113406,gps,,4.85,3.408,1.533,0.0,0.0,0.0,0.0,"(144000000.0, 0.0, 0.0, 0.0, 0.0, 0.0, 0.0, 144000000.0, 0.0, 0.0, 0.0, 0.0, 0.0, 0.0, 676000000.0, 0.0, 0.0, 0.0, 0.0, 0.0, 0.0, 1000.0, 0.0, 0.0, 0.0, 0.0, 0.0, 0.0, 1000.0, 0.0, 0.0, 0.0, 0.0, 0.0, 0.0, 1000.0)",-0.025,5.487,0.078,0.0,0.0,0.0,"(0.022090000000000002, 0.0, 0.0, 0.0, 0.0, 0.0, 0.0, 0.022090000000000002, 0.0, 0.0, 0.0, 0.0, 0.0, 0.0, 0.053110000000000004, 0.0, 0.0, 0.0, 0.0, 0.0, 0.0, 1000.0, 0.0, 0.0, 0.0, 0.0, 0.0, 0.0, 1000.0, 0.0, 0.0, 0.0, 0.0, 0.0, 0.0, 1000.0)"
2018/12/16/17:23:07.969220,10864,1545002587,969064113,gps,,4.846,3.961,1.533,0.0,0.0,0.0,0.0,"(144000000.0, 0.0, 0.0, 0.0, 0.0, 0.0, 0.0, 144000000.0, 0.0, 0.0, 0.0, 0.0, 0.0, 0.0, 676000000.0, 0.0, 0.0, 0.0, 0.0, 0.0, 0.0, 1000.0, 0.0, 0.0, 0.0, 0.0, 0.0, 0.0, 1000.0, 0.0, 0.0, 0.0, 0.0, 0.0, 0.0, 1000.0)",-0.037,5.538,-0.05,0.0,0.0,0.0,"(0.022090000000000002, 0.0, 0.0, 0.0, 0.0, 0.0, 0.0, 0.022090000000000002, 0.0, 0.0, 0.0, 0.0, 0.0, 0.0, 0.053110000000000004, 0.0, 0.0, 0.0, 0.0, 0.0, 0.0, 1000.0, 0.0, 0.0, 0.0, 0.0, 0.0, 0.0, 1000.0, 0.0, 0.0, 0.0, 0.0, 0.0, 0.0, 1000.0)"
2018/12/16/17:23:08.031122,10865,1545002588,30995302,gps,,4.843,4.515,1.536,0.0,0.0,0.0,0.0,"(144000000.0, 0.0, 0.0, 0.0, 0.0, 0.0, 0.0, 144000000.0, 0.0, 0.0, 0.0, 0.0, 0.0, 0.0, 676000000.0, 0.0, 0.0, 0.0, 0.0, 0.0, 0.0, 1000.0, 0.0, 0.0, 0.0, 0.0, 0.0, 0.0, 1000.0, 0.0, 0.0, 0.0, 0.0, 0.0, 0.0, 1000.0)",-0.041,5.545,0.079,0.0,0.0,0.0,"(0.022090000000000002, 0.0, 0.0, 0.0, 0.0, 0.0, 0.0, 0.022090000000000002, 0.0, 0.0, 0.0, 0.0, 0.0, 0.0, 0.053110000000000004, 0.0, 0.0, 0.0, 0.0, 0.0, 0.0, 1000.0, 0.0, 0.0, 0.0, 0.0, 0.0, 0.0, 1000.0, 0.0, 0.0, 0.0, 0.0, 0.0, 0.0, 1000.0)"
2018/12/16/17:23:08.177037,10866,1545002588,176897177,gps,,4.841,5.071,1.538,0.0,0.0,0.0,0.0,"(100000000.0, 0.0, 0.0, 0.0, 0.0, 0.0, 0.0, 100000000.0, 0.0, 0.0, 0.0, 0.0, 0.0, 0.0, 400000000.0, 0.0, 0.0, 0.0, 0.0, 0.0, 0.0, 1000.0, 0.0, 0.0, 0.0, 0.0, 0.0, 0.0, 1000.0, 0.0, 0.0, 0.0, 0.0, 0.0, 0.0, 1000.0)",-0.02,5.599,-0.043,0.0,0.0,0.0,"(0.022090000000000002, 0.0, 0.0, 0.0, 0.0, 0.0, 0.0, 0.022090000000000002, 0.0, 0.0, 0.0, 0.0, 0.0, 0.0, 0.053110000000000004, 0.0, 0.0, 0.0, 0.0, 0.0, 0.0, 1000.0, 0.0, 0.0, 0.0, 0.0, 0.0, 0.0, 1000.0, 0.0, 0.0, 0.0, 0.0, 0.0, 0.0, 1000.0)"
2018/12/16/17:23:08.228034,10867,1545002588,227892870,gps,,4.841,5.629,1.543,0.0,0.0,0.0,0.0,"(100000000.0, 0.0, 0.0, 0.0, 0.0, 0.0, 0.0, 100000000.0, 0.0, 0.0, 0.0, 0.0, 0.0, 0.0, 441000000.0, 0.0, 0.0, 0.0, 0.0, 0.0, 0.0, 1000.0, 0.0, 0.0, 0.0, 0.0, 0.0, 0.0, 1000.0, 0.0, 0.0, 0.0, 0.0, 0.0, 0.0, 1000.0)",0.01,5.583,0.016,0.0,0.0,0.0,"(0.022090000000000002, 0.0, 0.0, 0.0, 0.0, 0.0, 0.0, 0.022090000000000002, 0.0, 0.0, 0.0, 0.0, 0.0, 0.0, 0.053110000000000004, 0.0, 0.0, 0.0, 0.0, 0.0, 0.0, 1000.0, 0.0, 0.0, 0.0, 0.0, 0.0, 0.0, 1000.0, 0.0, 0.0, 0.0, 0.0, 0.0, 0.0, 1000.0)"
2018/12/16/17:23:08.369986,10868,1545002588,369829818,gps,,4.839,6.186,1.542,0.0,0.0,0.0,0.0,"(100000000.0, 0.0, 0.0, 0.0, 0.0, 0.0, 0.0, 100000000.0, 0.0, 0.0, 0.0, 0.0, 0.0, 0.0, 441000000.0, 0.0, 0.0, 0.0, 0.0, 0.0, 0.0, 1000.0, 0.0, 0.0, 0.0, 0.0, 0.0, 0.0, 1000.0, 0.0, 0.0, 0.0, 0.0, 0.0, 0.0, 1000.0)",-0.028,5.568,-0.01,0.0,0.0,0.0,"(0.022090000000000002, 0.0, 0.0, 0.0, 0.0, 0.0, 0.0, 0.022090000000000002, 0.0, 0.0, 0.0, 0.0, 0.0, 0.0, 0.053110000000000004, 0.0, 0.0, 0.0, 0.0, 0.0, 0.0, 1000.0, 0.0, 0.0, 0.0, 0.0, 0.0, 0.0, 1000.0, 0.0, 0.0, 0.0, 0.0, 0.0, 0.0, 1000.0)"
2018/12/16/17:23:08.428946,10869,1545002588,428808514,gps,,4.839,6.744,1.543,0.0,0.0,0.0,0.0,"(100000000.0, 0.0, 0.0, 0.0, 0.0, 0.0, 0.0, 100000000.0, 0.0, 0.0, 0.0, 0.0, 0.0, 0.0, 441000000.0, 0.0, 0.0, 0.0, 0.0, 0.0, 0.0, 1000.0, 0.0, 0.0, 0.0, 0.0, 0.0, 0.0, 1000.0, 0.0, 0.0, 0.0, 0.0, 0.0, 0.0, 1000.0)",0.001,5.583,0.001,0.0,0.0,0.0,"(0.022090000000000002, 0.0, 0.0, 0.0, 0.0, 0.0, 0.0, 0.022090000000000002, 0.0, 0.0, 0.0, 0.0, 0.0, 0.0, 0.053110000000000004, 0.0, 0.0, 0.0, 0.0, 0.0, 0.0, 1000.0, 0.0, 0.0, 0.0, 0.0, 0.0, 0.0, 1000.0, 0.0, 0.0, 0.0, 0.0, 0.0, 0.0, 1000.0)"
2018/12/16/17:23:08.571850,10870,1545002588,571721223,gps,,4.834,7.305,1.544,0.0,0.0,0.0,0.0,"(100000000.0, 0.0, 0.0, 0.0, 0.0, 0.0, 0.0, 100000000.0, 0.0, 0.0, 0.0, 0.0, 0.0, 0.0, 484000000.0, 0.0, 0.0, 0.0, 0.0, 0.0, 0.0, 1000.0, 0.0, 0.0, 0.0, 0.0, 0.0, 0.0, 1000.0, 0.0, 0.0, 0.0, 0.0, 0.0, 0.0, 1000.0)",-0.05,5.606,0.007,0.0,0.0,0.0,"(0.022090000000000002, 0.0, 0.0, 0.0, 0.0, 0.0, 0.0, 0.022090000000000002, 0.0, 0.0, 0.0, 0.0, 0.0, 0.0, 0.053110000000000004, 0.0, 0.0, 0.0, 0.0, 0.0, 0.0, 1000.0, 0.0, 0.0, 0.0, 0.0, 0.0, 0.0, 1000.0, 0.0, 0.0, 0.0, 0.0, 0.0, 0.0, 1000.0)"
2018/12/16/17:23:08.627844,10871,1545002588,627699404,gps,,4.832,7.864,1.539,0.0,0.0,0.0,0.0,"(100000000.0, 0.0, 0.0, 0.0, 0.0, 0.0, 0.0, 100000000.0, 0.0, 0.0, 0.0, 0.0, 0.0, 0.0, 484000000.0, 0.0, 0.0, 0.0, 0.0, 0.0, 0.0, 1000.0, 0.0, 0.0, 0.0, 0.0, 0.0, 0.0, 1000.0, 0.0, 0.0, 0.0, 0.0, 0.0, 0.0, 1000.0)",-0.017,5.598,-0.043,0.0,0.0,0.0,"(0.022090000000000002, 0.0, 0.0, 0.0, 0.0, 0.0, 0.0, 0.022090000000000002, 0.0, 0.0, 0.0, 0.0, 0.0, 0.0, 0.053110000000000004, 0.0, 0.0, 0.0, 0.0, 0.0, 0.0, 1000.0, 0.0, 0.0, 0.0, 0.0, 0.0, 0.0, 1000.0, 0.0, 0.0, 0.0, 0.0, 0.0, 0.0, 1000.0)"
2018/12/16/17:23:08.768764,10872,1545002588,768607087,gps,,4.829,8.423,1.539,0.0,0.0,0.0,0.0,"(121000000.0, 0.0, 0.0, 0.0, 0.0, 0.0, 0.0, 121000000.0, 0.0, 0.0, 0.0, 0.0, 0.0, 0.0, 484000000.0, 0.0, 0.0, 0.0, 0.0, 0.0, 0.0, 1000.0, 0.0, 0.0, 0.0, 0.0, 0.0, 0.0, 1000.0, 0.0, 0.0, 0.0, 0.0, 0.0, 0.0, 1000.0)",-0.032,5.594,0.022,0.0,0.0,0.0,"(0.022090000000000002, 0.0, 0.0, 0.0, 0.0, 0.0, 0.0, 0.022090000000000002, 0.0, 0.0, 0.0, 0.0, 0.0, 0.0, 0.053110000000000004, 0.0, 0.0, 0.0, 0.0, 0.0, 0.0, 1000.0, 0.0, 0.0, 0.0, 0.0, 0.0, 0.0, 1000.0, 0.0, 0.0, 0.0, 0.0, 0.0, 0.0, 1000.0)"
2018/12/16/17:23:08.827735,10873,1545002588,827579626,gps,,4.825,8.984,1.532,0.0,0.0,0.0,0.0,"(121000000.0, 0.0, 0.0, 0.0, 0.0, 0.0, 0.0, 121000000.0, 0.0, 0.0, 0.0, 0.0, 0.0, 0.0, 529000000.0, 0.0, 0.0, 0.0, 0.0, 0.0, 0.0, 1000.0, 0.0, 0.0, 0.0, 0.0, 0.0, 0.0, 1000.0, 0.0, 0.0, 0.0, 0.0, 0.0, 0.0, 1000.0)",-0.038,5.609,-0.06,0.0,0.0,0.0,"(0.022090000000000002, 0.0, 0.0, 0.0, 0.0, 0.0, 0.0, 0.022090000000000002, 0.0, 0.0, 0.0, 0.0, 0.0, 0.0, 0.053110000000000004, 0.0, 0.0, 0.0, 0.0, 0.0, 0.0, 1000.0, 0.0, 0.0, 0.0, 0.0, 0.0, 0.0, 1000.0, 0.0, 0.0, 0.0, 0.0, 0.0, 0.0, 1000.0)"
2018/12/16/17:23:08.968626,10874,1545002588,968489917,gps,,4.823,9.544,1.542,0.0,0.0,0.0,0.0,"(121000000.0, 0.0, 0.0, 0.0, 0.0, 0.0, 0.0, 121000000.0, 0.0, 0.0, 0.0, 0.0, 0.0, 0.0, 529000000.0, 0.0, 0.0, 0.0, 0.0, 0.0, 0.0, 1000.0, 0.0, 0.0, 0.0, 0.0, 0.0, 0.0, 1000.0, 0.0, 0.0, 0.0, 0.0, 0.0, 0.0, 1000.0)",-0.024,5.597,0.082,0.0,0.0,0.0,"(0.022090000000000002, 0.0, 0.0, 0.0, 0.0, 0.0, 0.0, 0.022090000000000002, 0.0, 0.0, 0.0, 0.0, 0.0, 0.0, 0.053110000000000004, 0.0, 0.0, 0.0, 0.0, 0.0, 0.0, 1000.0, 0.0, 0.0, 0.0, 0.0, 0.0, 0.0, 1000.0, 0.0, 0.0, 0.0, 0.0, 0.0, 0.0, 1000.0)"
2018/12/16/17:23:09.031601,10875,1545002589,31468888,gps,,4.82,10.103,1.54,0.0,0.0,0.0,0.0,"(121000000.0, 0.0, 0.0, 0.0, 0.0, 0.0, 0.0, 121000000.0, 0.0, 0.0, 0.0, 0.0, 0.0, 0.0, 529000000.0, 0.0, 0.0, 0.0, 0.0, 0.0, 0.0, 1000.0, 0.0, 0.0, 0.0, 0.0, 0.0, 0.0, 1000.0, 0.0, 0.0, 0.0, 0.0, 0.0, 0.0, 1000.0)",-0.032,5.592,-0.005,0.0,0.0,0.0,"(0.022090000000000002, 0.0, 0.0, 0.0, 0.0, 0.0, 0.0, 0.022090000000000002, 0.0, 0.0, 0.0, 0.0, 0.0, 0.0, 0.053110000000000004, 0.0, 0.0, 0.0, 0.0, 0.0, 0.0, 1000.0, 0.0, 0.0, 0.0, 0.0, 0.0, 0.0, 1000.0, 0.0, 0.0, 0.0, 0.0, 0.0, 0.0, 1000.0)"
2018/12/16/17:23:09.172524,10876,1545002589,172381547,gps,,4.818,10.659,1.545,0.0,0.0,0.0,0.0,"(121000000.0, 0.0, 0.0, 0.0, 0.0, 0.0, 0.0, 121000000.0, 0.0, 0.0, 0.0, 0.0, 0.0, 0.0, 576000000.0, 0.0, 0.0, 0.0, 0.0, 0.0, 0.0, 1000.0, 0.0, 0.0, 0.0, 0.0, 0.0, 0.0, 1000.0, 0.0, 0.0, 0.0, 0.0, 0.0, 0.0, 1000.0)",-0.013,5.569,0.037,0.0,0.0,0.0,"(0.022090000000000002, 0.0, 0.0, 0.0, 0.0, 0.0, 0.0, 0.022090000000000002, 0.0, 0.0, 0.0, 0.0, 0.0, 0.0, 0.053110000000000004, 0.0, 0.0, 0.0, 0.0, 0.0, 0.0, 1000.0, 0.0, 0.0, 0.0, 0.0, 0.0, 0.0, 1000.0, 0.0, 0.0, 0.0, 0.0, 0.0, 0.0, 1000.0)"
2018/12/16/17:23:09.230550,10877,1545002589,230365320,gps,,4.815,11.214,1.54,0.0,0.0,0.0,0.0,"(121000000.0, 0.0, 0.0, 0.0, 0.0, 0.0, 0.0, 121000000.0, 0.0, 0.0, 0.0, 0.0, 0.0, 0.0, 576000000.0, 0.0, 0.0, 0.0, 0.0, 0.0, 0.0, 1000.0, 0.0, 0.0, 0.0, 0.0, 0.0, 0.0, 1000.0, 0.0, 0.0, 0.0, 0.0, 0.0, 0.0, 1000.0)",-0.032,5.554,-0.016,0.0,0.0,0.0,"(0.022090000000000002, 0.0, 0.0, 0.0, 0.0, 0.0, 0.0, 0.022090000000000002, 0.0, 0.0, 0.0, 0.0, 0.0, 0.0, 0.053110000000000004, 0.0, 0.0, 0.0, 0.0, 0.0, 0.0, 1000.0, 0.0, 0.0, 0.0, 0.0, 0.0, 0.0, 1000.0, 0.0, 0.0, 0.0, 0.0, 0.0, 0.0, 1000.0)"
2018/12/16/17:23:09.369435,10878,1545002589,369297434,gps,,4.806,11.767,1.546,0.0,0.0,0.0,0.0,"(121000000.0, 0.0, 0.0, 0.0, 0.0, 0.0, 0.0, 121000000.0, 0.0, 0.0, 0.0, 0.0, 0.0, 0.0, 576000000.0, 0.0, 0.0, 0.0, 0.0, 0.0, 0.0, 1000.0, 0.0, 0.0, 0.0, 0.0, 0.0, 0.0, 1000.0, 0.0, 0.0, 0.0, 0.0, 0.0, 0.0, 1000.0)",-0.088,5.523,-0.027,0.0,0.0,0.0,"(0.022090000000000002, 0.0, 0.0, 0.0, 0.0, 0.0, 0.0, 0.022090000000000002, 0.0, 0.0, 0.0, 0.0, 0.0, 0.0, 0.053110000000000004, 0.0, 0.0, 0.0, 0.0, 0.0, 0.0, 1000.0, 0.0, 0.0, 0.0, 0.0, 0.0, 0.0, 1000.0, 0.0, 0.0, 0.0, 0.0, 0.0, 0.0, 1000.0)"
2018/12/16/17:23:09.430414,10879,1545002589,430274096,gps,,4.801,12.322,1.546,0.0,0.0,0.0,0.0,"(121000000.0, 0.0, 0.0, 0.0, 0.0, 0.0, 0.0, 121000000.0, 0.0, 0.0, 0.0, 0.0, 0.0, 0.0, 576000000.0, 0.0, 0.0, 0.0, 0.0, 0.0, 0.0, 1000.0, 0.0, 0.0, 0.0, 0.0, 0.0, 0.0, 1000.0, 0.0, 0.0, 0.0, 0.0, 0.0, 0.0, 1000.0)",-0.048,5.558,0.015,0.0,0.0,0.0,"(0.022090000000000002, 0.0, 0.0, 0.0, 0.0, 0.0, 0.0, 0.022090000000000002, 0.0, 0.0, 0.0, 0.0, 0.0, 0.0, 0.053110000000000004, 0.0, 0.0, 0.0, 0.0, 0.0, 0.0, 1000.0, 0.0, 0.0, 0.0, 0.0, 0.0, 0.0, 1000.0, 0.0, 0.0, 0.0, 0.0, 0.0, 0.0, 1000.0)"
2018/12/16/17:23:09.581858,10880,1545002589,581696791,gps,,4.799,12.874,1.545,0.0,0.0,0.0,0.0,"(144000000.0, 0.0, 0.0, 0.0, 0.0, 0.0, 0.0, 144000000.0, 0.0, 0.0, 0.0, 0.0, 0.0, 0.0, 625000000.0, 0.0, 0.0, 0.0, 0.0, 0.0, 0.0, 1000.0, 0.0, 0.0, 0.0, 0.0, 0.0, 0.0, 1000.0, 0.0, 0.0, 0.0, 0.0, 0.0, 0.0, 1000.0)",-0.036,5.526,0.015,0.0,0.0,0.0,"(0.022090000000000002, 0.0, 0.0, 0.0, 0.0, 0.0, 0.0, 0.022090000000000002, 0.0, 0.0, 0.0, 0.0, 0.0, 0.0, 0.053110000000000004, 0.0, 0.0, 0.0, 0.0, 0.0, 0.0, 1000.0, 0.0, 0.0, 0.0, 0.0, 0.0, 0.0, 1000.0, 0.0, 0.0, 0.0, 0.0, 0.0, 0.0, 1000.0)"
2018/12/16/17:23:09.629305,10881,1545002589,629172441,gps,,4.794,13.425,1.538,0.0,0.0,0.0,0.0,"(144000000.0, 0.0, 0.0, 0.0, 0.0, 0.0, 0.0, 144000000.0, 0.0, 0.0, 0.0, 0.0, 0.0, 0.0, 625000000.0, 0.0, 0.0, 0.0, 0.0, 0.0, 0.0, 1000.0, 0.0, 0.0, 0.0, 0.0, 0.0, 0.0, 1000.0, 0.0, 0.0, 0.0, 0.0, 0.0, 0.0, 1000.0)",-0.046,5.508,-0.068,0.0,0.0,0.0,"(0.022090000000000002, 0.0, 0.0, 0.0, 0.0, 0.0, 0.0, 0.022090000000000002, 0.0, 0.0, 0.0, 0.0, 0.0, 0.0, 0.053110000000000004, 0.0, 0.0, 0.0, 0.0, 0.0, 0.0, 1000.0, 0.0, 0.0, 0.0, 0.0, 0.0, 0.0, 1000.0, 0.0, 0.0, 0.0, 0.0, 0.0, 0.0, 1000.0)"
2018/12/16/17:23:09.768248,10882,1545002589,768115114,gps,,4.787,13.975,1.542,0.0,0.0,0.0,0.0,"(144000000.0, 0.0, 0.0, 0.0, 0.0, 0.0, 0.0, 144000000.0, 0.0, 0.0, 0.0, 0.0, 0.0, 0.0, 625000000.0, 0.0, 0.0, 0.0, 0.0, 0.0, 0.0, 1000.0, 0.0, 0.0, 0.0, 0.0, 0.0, 0.0, 1000.0, 0.0, 0.0, 0.0, 0.0, 0.0, 0.0, 1000.0)",-0.065,5.499,0.06,0.0,0.0,0.0,"(0.022090000000000002, 0.0, 0.0, 0.0, 0.0, 0.0, 0.0, 0.022090000000000002, 0.0, 0.0, 0.0, 0.0, 0.0, 0.0, 0.053110000000000004, 0.0, 0.0, 0.0, 0.0, 0.0, 0.0, 1000.0, 0.0, 0.0, 0.0, 0.0, 0.0, 0.0, 1000.0, 0.0, 0.0, 0.0, 0.0, 0.0, 0.0, 1000.0)"
2018/12/16/17:23:09.828195,10883,1545002589,828065326,gps,,4.78,14.524,1.539,0.0,0.0,0.0,0.0,"(144000000.0, 0.0, 0.0, 0.0, 0.0, 0.0, 0.0, 144000000.0, 0.0, 0.0, 0.0, 0.0, 0.0, 0.0, 676000000.0, 0.0, 0.0, 0.0, 0.0, 0.0, 0.0, 1000.0, 0.0, 0.0, 0.0, 0.0, 0.0, 0.0, 1000.0, 0.0, 0.0, 0.0, 0.0, 0.0, 0.0, 1000.0)",-0.071,5.496,-0.026,0.0,0.0,0.0,"(0.022090000000000002, 0.0, 0.0, 0.0, 0.0, 0.0, 0.0, 0.022090000000000002, 0.0, 0.0, 0.0, 0.0, 0.0, 0.0, 0.052640000000000006, 0.0, 0.0, 0.0, 0.0, 0.0, 0.0, 1000.0, 0.0, 0.0, 0.0, 0.0, 0.0, 0.0, 1000.0, 0.0, 0.0, 0.0, 0.0, 0.0, 0.0, 1000.0)"
2018/12/16/17:23:09.969129,10884,1545002589,968987803,gps,,4.776,15.072,1.539,0.0,0.0,0.0,0.0,"(144000000.0, 0.0, 0.0, 0.0, 0.0, 0.0, 0.0, 144000000.0, 0.0, 0.0, 0.0, 0.0, 0.0, 0.0, 676000000.0, 0.0, 0.0, 0.0, 0.0, 0.0, 0.0, 1000.0, 0.0, 0.0, 0.0, 0.0, 0.0, 0.0, 1000.0, 0.0, 0.0, 0.0, 0.0, 0.0, 0.0, 1000.0)",-0.047,5.477,-0.005,0.0,0.0,0.0,"(0.022090000000000002, 0.0, 0.0, 0.0, 0.0, 0.0, 0.0, 0.022090000000000002, 0.0, 0.0, 0.0, 0.0, 0.0, 0.0, 0.052640000000000006, 0.0, 0.0, 0.0, 0.0, 0.0, 0.0, 1000.0, 0.0, 0.0, 0.0, 0.0, 0.0, 0.0, 1000.0, 0.0, 0.0, 0.0, 0.0, 0.0, 0.0, 1000.0)"
2018/12/16/17:23:10.031958,10885,1545002590,31458375,gps,,4.769,15.615,1.538,0.0,0.0,0.0,0.0,"(144000000.0, 0.0, 0.0, 0.0, 0.0, 0.0, 0.0, 144000000.0, 0.0, 0.0, 0.0, 0.0, 0.0, 0.0, 676000000.0, 0.0, 0.0, 0.0, 0.0, 0.0, 0.0, 1000.0, 0.0, 0.0, 0.0, 0.0, 0.0, 0.0, 1000.0, 0.0, 0.0, 0.0, 0.0, 0.0, 0.0, 1000.0)",-0.067,5.435,-0.021,0.0,0.0,0.0,"(0.022090000000000002, 0.0, 0.0, 0.0, 0.0, 0.0, 0.0, 0.022090000000000002, 0.0, 0.0, 0.0, 0.0, 0.0, 0.0, 0.052640000000000006, 0.0, 0.0, 0.0, 0.0, 0.0, 0.0, 1000.0, 0.0, 0.0, 0.0, 0.0, 0.0, 0.0, 1000.0, 0.0, 0.0, 0.0, 0.0, 0.0, 0.0, 1000.0)"
2018/12/16/17:23:10.170617,10886,1545002590,170456885,gps,,4.765,16.152,1.549,0.0,0.0,0.0,0.0,"(100000000.0, 0.0, 0.0, 0.0, 0.0, 0.0, 0.0, 100000000.0, 0.0, 0.0, 0.0, 0.0, 0.0, 0.0, 400000000.0, 0.0, 0.0, 0.0, 0.0, 0.0, 0.0, 1000.0, 0.0, 0.0, 0.0, 0.0, 0.0, 0.0, 1000.0, 0.0, 0.0, 0.0, 0.0, 0.0, 0.0, 1000.0)",-0.043,5.39,0.061,0.0,0.0,0.0,"(0.022090000000000002, 0.0, 0.0, 0.0, 0.0, 0.0, 0.0, 0.022090000000000002, 0.0, 0.0, 0.0, 0.0, 0.0, 0.0, 0.052640000000000006, 0.0, 0.0, 0.0, 0.0, 0.0, 0.0, 1000.0, 0.0, 0.0, 0.0, 0.0, 0.0, 0.0, 1000.0, 0.0, 0.0, 0.0, 0.0, 0.0, 0.0, 1000.0)"
2018/12/16/17:23:10.230950,10887,1545002590,230816798,gps,,4.76,16.694,1.549,0.0,0.0,0.0,0.0,"(100000000.0, 0.0, 0.0, 0.0, 0.0, 0.0, 0.0, 100000000.0, 0.0, 0.0, 0.0, 0.0, 0.0, 0.0, 441000000.0, 0.0, 0.0, 0.0, 0.0, 0.0, 0.0, 1000.0, 0.0, 0.0, 0.0, 0.0, 0.0, 0.0, 1000.0, 0.0, 0.0, 0.0, 0.0, 0.0, 0.0, 1000.0)",-0.045,5.428,0.024,0.0,0.0,0.0,"(0.022090000000000002, 0.0, 0.0, 0.0, 0.0, 0.0, 0.0, 0.022090000000000002, 0.0, 0.0, 0.0, 0.0, 0.0, 0.0, 0.052640000000000006, 0.0, 0.0, 0.0, 0.0, 0.0, 0.0, 1000.0, 0.0, 0.0, 0.0, 0.0, 0.0, 0.0, 1000.0, 0.0, 0.0, 0.0, 0.0, 0.0, 0.0, 1000.0)"
2018/12/16/17:23:10.369867,10888,1545002590,369734765,gps,,4.758,17.233,1.541,0.0,0.0,0.0,0.0,"(100000000.0, 0.0, 0.0, 0.0, 0.0, 0.0, 0.0, 100000000.0, 0.0, 0.0, 0.0, 0.0, 0.0, 0.0, 441000000.0, 0.0, 0.0, 0.0, 0.0, 0.0, 0.0, 1000.0, 0.0, 0.0, 0.0, 0.0, 0.0, 0.0, 1000.0, 0.0, 0.0, 0.0, 0.0, 0.0, 0.0, 1000.0)",-0.028,5.389,-0.059,0.0,0.0,0.0,"(0.022090000000000002, 0.0, 0.0, 0.0, 0.0, 0.0, 0.0, 0.022090000000000002, 0.0, 0.0, 0.0, 0.0, 0.0, 0.0, 0.052640000000000006, 0.0, 0.0, 0.0, 0.0, 0.0, 0.0, 1000.0, 0.0, 0.0, 0.0, 0.0, 0.0, 0.0, 1000.0, 0.0, 0.0, 0.0, 0.0, 0.0, 0.0, 1000.0)"
2018/12/16/17:23:10.428874,10889,1545002590,428734700,gps,,4.75,17.769,1.544,0.0,0.0,0.0,0.0,"(100000000.0, 0.0, 0.0, 0.0, 0.0, 0.0, 0.0, 100000000.0, 0.0, 0.0, 0.0, 0.0, 0.0, 0.0, 441000000.0, 0.0, 0.0, 0.0, 0.0, 0.0, 0.0, 1000.0, 0.0, 0.0, 0.0, 0.0, 0.0, 0.0, 1000.0, 0.0, 0.0, 0.0, 0.0, 0.0, 0.0, 1000.0)",-0.069,5.365,0.018,0.0,0.0,0.0,"(0.022090000000000002, 0.0, 0.0, 0.0, 0.0, 0.0, 0.0, 0.022090000000000002, 0.0, 0.0, 0.0, 0.0, 0.0, 0.0, 0.052640000000000006, 0.0, 0.0, 0.0, 0.0, 0.0, 0.0, 1000.0, 0.0, 0.0, 0.0, 0.0, 0.0, 0.0, 1000.0, 0.0, 0.0, 0.0, 0.0, 0.0, 0.0, 1000.0)"
2018/12/16/17:23:10.571731,10890,1545002590,571598833,gps,,4.751,18.303,1.545,0.0,0.0,0.0,0.0,"(100000000.0, 0.0, 0.0, 0.0, 0.0, 0.0, 0.0, 100000000.0, 0.0, 0.0, 0.0, 0.0, 0.0, 0.0, 484000000.0, 0.0, 0.0, 0.0, 0.0, 0.0, 0.0, 1000.0, 0.0, 0.0, 0.0, 0.0, 0.0, 0.0, 1000.0, 0.0, 0.0, 0.0, 0.0, 0.0, 0.0, 1000.0)",0.004,5.337,-0.023,0.0,0.0,0.0,"(0.022090000000000002, 0.0, 0.0, 0.0, 0.0, 0.0, 0.0, 0.022090000000000002, 0.0, 0.0, 0.0, 0.0, 0.0, 0.0, 0.052640000000000006, 0.0, 0.0, 0.0, 0.0, 0.0, 0.0, 1000.0, 0.0, 0.0, 0.0, 0.0, 0.0, 0.0, 1000.0, 0.0, 0.0, 0.0, 0.0, 0.0, 0.0, 1000.0)"
2018/12/16/17:23:10.635244,10891,1545002590,635119679,gps,,4.747,18.836,1.541,0.0,0.0,0.0,0.0,"(100000000.0, 0.0, 0.0, 0.0, 0.0, 0.0, 0.0, 100000000.0, 0.0, 0.0, 0.0, 0.0, 0.0, 0.0, 484000000.0, 0.0, 0.0, 0.0, 0.0, 0.0, 0.0, 1000.0, 0.0, 0.0, 0.0, 0.0, 0.0, 0.0, 1000.0, 0.0, 0.0, 0.0, 0.0, 0.0, 0.0, 1000.0)",-0.041,5.342,-0.012,0.0,0.0,0.0,"(0.022090000000000002, 0.0, 0.0, 0.0, 0.0, 0.0, 0.0, 0.022090000000000002, 0.0, 0.0, 0.0, 0.0, 0.0, 0.0, 0.052640000000000006, 0.0, 0.0, 0.0, 0.0, 0.0, 0.0, 1000.0, 0.0, 0.0, 0.0, 0.0, 0.0, 0.0, 1000.0, 0.0, 0.0, 0.0, 0.0, 0.0, 0.0, 1000.0)"
2018/12/16/17:23:10.769696,10892,1545002590,769558429,gps,,4.747,19.369,1.538,0.0,0.0,0.0,0.0,"(121000000.0, 0.0, 0.0, 0.0, 0.0, 0.0, 0.0, 121000000.0, 0.0, 0.0, 0.0, 0.0, 0.0, 0.0, 484000000.0, 0.0, 0.0, 0.0, 0.0, 0.0, 0.0, 1000.0, 0.0, 0.0, 0.0, 0.0, 0.0, 0.0, 1000.0, 0.0, 0.0, 0.0, 0.0, 0.0, 0.0, 1000.0)",-0.002,5.322,-0.034,0.0,0.0,0.0,"(0.022090000000000002, 0.0, 0.0, 0.0, 0.0, 0.0, 0.0, 0.022090000000000002, 0.0, 0.0, 0.0, 0.0, 0.0, 0.0, 0.052640000000000006, 0.0, 0.0, 0.0, 0.0, 0.0, 0.0, 1000.0, 0.0, 0.0, 0.0, 0.0, 0.0, 0.0, 1000.0, 0.0, 0.0, 0.0, 0.0, 0.0, 0.0, 1000.0)"
2018/12/16/17:23:10.827689,10893,1545002590,827525125,gps,,4.751,19.895,1.537,0.0,0.0,0.0,0.0,"(121000000.0, 0.0, 0.0, 0.0, 0.0, 0.0, 0.0, 121000000.0, 0.0, 0.0, 0.0, 0.0, 0.0, 0.0, 529000000.0, 0.0, 0.0, 0.0, 0.0, 0.0, 0.0, 1000.0, 0.0, 0.0, 0.0, 0.0, 0.0, 0.0, 1000.0, 0.0, 0.0, 0.0, 0.0, 0.0, 0.0, 1000.0)",0.035,5.273,0.011,0.0,0.0,0.0,"(0.022090000000000002, 0.0, 0.0, 0.0, 0.0, 0.0, 0.0, 0.022090000000000002, 0.0, 0.0, 0.0, 0.0, 0.0, 0.0, 0.052640000000000006, 0.0, 0.0, 0.0, 0.0, 0.0, 0.0, 1000.0, 0.0, 0.0, 0.0, 0.0, 0.0, 0.0, 1000.0, 0.0, 0.0, 0.0, 0.0, 0.0, 0.0, 1000.0)"
2018/12/16/17:23:10.969612,10894,1545002590,969456031,gps,,4.746,20.424,1.541,0.0,0.0,0.0,0.0,"(121000000.0, 0.0, 0.0, 0.0, 0.0, 0.0, 0.0, 121000000.0, 0.0, 0.0, 0.0, 0.0, 0.0, 0.0, 529000000.0, 0.0, 0.0, 0.0, 0.0, 0.0, 0.0, 1000.0, 0.0, 0.0, 0.0, 0.0, 0.0, 0.0, 1000.0, 0.0, 0.0, 0.0, 0.0, 0.0, 0.0, 1000.0)",-0.048,5.287,0.015,0.0,0.0,0.0,"(0.022090000000000002, 0.0, 0.0, 0.0, 0.0, 0.0, 0.0, 0.022090000000000002, 0.0, 0.0, 0.0, 0.0, 0.0, 0.0, 0.052640000000000006, 0.0, 0.0, 0.0, 0.0, 0.0, 0.0, 1000.0, 0.0, 0.0, 0.0, 0.0, 0.0, 0.0, 1000.0, 0.0, 0.0, 0.0, 0.0, 0.0, 0.0, 1000.0)"
2018/12/16/17:23:11.031555,10895,1545002591,31416452,gps,,4.745,20.948,1.545,0.0,0.0,0.0,0.0,"(121000000.0, 0.0, 0.0, 0.0, 0.0, 0.0, 0.0, 121000000.0, 0.0, 0.0, 0.0, 0.0, 0.0, 0.0, 529000000.0, 0.0, 0.0, 0.0, 0.0, 0.0, 0.0, 1000.0, 0.0, 0.0, 0.0, 0.0, 0.0, 0.0, 1000.0, 0.0, 0.0, 0.0, 0.0, 0.0, 0.0, 1000.0)",-0.002,5.244,0.025,0.0,0.0,0.0,"(0.022090000000000002, 0.0, 0.0, 0.0, 0.0, 0.0, 0.0, 0.022090000000000002, 0.0, 0.0, 0.0, 0.0, 0.0, 0.0, 0.052640000000000006, 0.0, 0.0, 0.0, 0.0, 0.0, 0.0, 1000.0, 0.0, 0.0, 0.0, 0.0, 0.0, 0.0, 1000.0, 0.0, 0.0, 0.0, 0.0, 0.0, 0.0, 1000.0)"
2018/12/16/17:23:11.170664,10896,1545002591,170508995,gps,,4.745,21.471,1.55,0.0,0.0,0.0,0.0,"(121000000.0, 0.0, 0.0, 0.0, 0.0, 0.0, 0.0, 121000000.0, 0.0, 0.0, 0.0, 0.0, 0.0, 0.0, 576000000.0, 0.0, 0.0, 0.0, 0.0, 0.0, 0.0, 1000.0, 0.0, 0.0, 0.0, 0.0, 0.0, 0.0, 1000.0, 0.0, 0.0, 0.0, 0.0, 0.0, 0.0, 1000.0)",0.002,5.228,0.027,0.0,0.0,0.0,"(0.022090000000000002, 0.0, 0.0, 0.0, 0.0, 0.0, 0.0, 0.022090000000000002, 0.0, 0.0, 0.0, 0.0, 0.0, 0.0, 0.052640000000000006, 0.0, 0.0, 0.0, 0.0, 0.0, 0.0, 1000.0, 0.0, 0.0, 0.0, 0.0, 0.0, 0.0, 1000.0, 0.0, 0.0, 0.0, 0.0, 0.0, 0.0, 1000.0)"
2018/12/16/17:23:11.230431,10897,1545002591,230301164,gps,,4.746,21.995,1.545,0.0,0.0,0.0,0.0,"(121000000.0, 0.0, 0.0, 0.0, 0.0, 0.0, 0.0, 121000000.0, 0.0, 0.0, 0.0, 0.0, 0.0, 0.0, 576000000.0, 0.0, 0.0, 0.0, 0.0, 0.0, 0.0, 1000.0, 0.0, 0.0, 0.0, 0.0, 0.0, 0.0, 1000.0, 0.0, 0.0, 0.0, 0.0, 0.0, 0.0, 1000.0)",0.011,5.24,-0.031,0.0,0.0,0.0,"(0.022090000000000002, 0.0, 0.0, 0.0, 0.0, 0.0, 0.0, 0.022090000000000002, 0.0, 0.0, 0.0, 0.0, 0.0, 0.0, 0.052640000000000006, 0.0, 0.0, 0.0, 0.0, 0.0, 0.0, 1000.0, 0.0, 0.0, 0.0, 0.0, 0.0, 0.0, 1000.0, 0.0, 0.0, 0.0, 0.0, 0.0, 0.0, 1000.0)"
2018/12/16/17:23:11.369407,10898,1545002591,369226941,gps,,4.752,22.512,1.542,0.0,0.0,0.0,0.0,"(121000000.0, 0.0, 0.0, 0.0, 0.0, 0.0, 0.0, 121000000.0, 0.0, 0.0, 0.0, 0.0, 0.0, 0.0, 576000000.0, 0.0, 0.0, 0.0, 0.0, 0.0, 0.0, 1000.0, 0.0, 0.0, 0.0, 0.0, 0.0, 0.0, 1000.0, 0.0, 0.0, 0.0, 0.0, 0.0, 0.0, 1000.0)",0.049,5.18,-0.014,0.0,0.0,0.0,"(0.022090000000000002, 0.0, 0.0, 0.0, 0.0, 0.0, 0.0, 0.022090000000000002, 0.0, 0.0, 0.0, 0.0, 0.0, 0.0, 0.052640000000000006, 0.0, 0.0, 0.0, 0.0, 0.0, 0.0, 1000.0, 0.0, 0.0, 0.0, 0.0, 0.0, 0.0, 1000.0, 0.0, 0.0, 0.0, 0.0, 0.0, 0.0, 1000.0)"
2018/12/16/17:23:11.429319,10899,1545002591,429187383,gps,,4.755,23.026,1.542,0.0,0.0,0.0,0.0,"(121000000.0, 0.0, 0.0, 0.0, 0.0, 0.0, 0.0, 121000000.0, 0.0, 0.0, 0.0, 0.0, 0.0, 0.0, 576000000.0, 0.0, 0.0, 0.0, 0.0, 0.0, 0.0, 1000.0, 0.0, 0.0, 0.0, 0.0, 0.0, 0.0, 1000.0, 0.0, 0.0, 0.0, 0.0, 0.0, 0.0, 1000.0)",0.029,5.139,0.012,0.0,0.0,0.0,"(0.022090000000000002, 0.0, 0.0, 0.0, 0.0, 0.0, 0.0, 0.022090000000000002, 0.0, 0.0, 0.0, 0.0, 0.0, 0.0, 0.052640000000000006, 0.0, 0.0, 0.0, 0.0, 0.0, 0.0, 1000.0, 0.0, 0.0, 0.0, 0.0, 0.0, 0.0, 1000.0, 0.0, 0.0, 0.0, 0.0, 0.0, 0.0, 1000.0)"
2018/12/16/17:23:11.579298,10900,1545002591,579143553,gps,,4.756,23.535,1.547,0.0,0.0,0.0,0.0,"(144000000.0, 0.0, 0.0, 0.0, 0.0, 0.0, 0.0, 144000000.0, 0.0, 0.0, 0.0, 0.0, 0.0, 0.0, 625000000.0, 0.0, 0.0, 0.0, 0.0, 0.0, 0.0, 1000.0, 0.0, 0.0, 0.0, 0.0, 0.0, 0.0, 1000.0, 0.0, 0.0, 0.0, 0.0, 0.0, 0.0, 1000.0)",0.012,5.095,0.015,0.0,0.0,0.0,"(0.022090000000000002, 0.0, 0.0, 0.0, 0.0, 0.0, 0.0, 0.022090000000000002, 0.0, 0.0, 0.0, 0.0, 0.0, 0.0, 0.052640000000000006, 0.0, 0.0, 0.0, 0.0, 0.0, 0.0, 1000.0, 0.0, 0.0, 0.0, 0.0, 0.0, 0.0, 1000.0, 0.0, 0.0, 0.0, 0.0, 0.0, 0.0, 1000.0)"
2018/12/16/17:23:11.627769,10901,1545002591,627614636,gps,,4.755,24.042,1.55,0.0,0.0,0.0,0.0,"(144000000.0, 0.0, 0.0, 0.0, 0.0, 0.0, 0.0, 144000000.0, 0.0, 0.0, 0.0, 0.0, 0.0, 0.0, 625000000.0, 0.0, 0.0, 0.0, 0.0, 0.0, 0.0, 1000.0, 0.0, 0.0, 0.0, 0.0, 0.0, 0.0, 1000.0, 0.0, 0.0, 0.0, 0.0, 0.0, 0.0, 1000.0)",0.001,5.072,0.027,0.0,0.0,0.0,"(0.022090000000000002, 0.0, 0.0, 0.0, 0.0, 0.0, 0.0, 0.022090000000000002, 0.0, 0.0, 0.0, 0.0, 0.0, 0.0, 0.052640000000000006, 0.0, 0.0, 0.0, 0.0, 0.0, 0.0, 1000.0, 0.0, 0.0, 0.0, 0.0, 0.0, 0.0, 1000.0, 0.0, 0.0, 0.0, 0.0, 0.0, 0.0, 1000.0)"
2018/12/16/17:23:11.769230,10902,1545002591,769064742,gps,,4.759,24.544,1.546,0.0,0.0,0.0,0.0,"(144000000.0, 0.0, 0.0, 0.0, 0.0, 0.0, 0.0, 144000000.0, 0.0, 0.0, 0.0, 0.0, 0.0, 0.0, 625000000.0, 0.0, 0.0, 0.0, 0.0, 0.0, 0.0, 1000.0, 0.0, 0.0, 0.0, 0.0, 0.0, 0.0, 1000.0, 0.0, 0.0, 0.0, 0.0, 0.0, 0.0, 1000.0)",0.037,5.017,-0.035,0.0,0.0,0.0,"(0.022090000000000002, 0.0, 0.0, 0.0, 0.0, 0.0, 0.0, 0.022090000000000002, 0.0, 0.0, 0.0, 0.0, 0.0, 0.0, 0.052640000000000006, 0.0, 0.0, 0.0, 0.0, 0.0, 0.0, 1000.0, 0.0, 0.0, 0.0, 0.0, 0.0, 0.0, 1000.0, 0.0, 0.0, 0.0, 0.0, 0.0, 0.0, 1000.0)"
2018/12/16/17:23:11.827187,10903,1545002591,827068671,gps,,4.768,25.041,1.545,0.0,0.0,0.0,0.0,"(144000000.0, 0.0, 0.0, 0.0, 0.0, 0.0, 0.0, 144000000.0, 0.0, 0.0, 0.0, 0.0, 0.0, 0.0, 625000000.0, 0.0, 0.0, 0.0, 0.0, 0.0, 0.0, 1000.0, 0.0, 0.0, 0.0, 0.0, 0.0, 0.0, 1000.0, 0.0, 0.0, 0.0, 0.0, 0.0, 0.0, 1000.0)",0.081,4.968,-0.02,0.0,0.0,0.0,"(0.022090000000000002, 0.0, 0.0, 0.0, 0.0, 0.0, 0.0, 0.022090000000000002, 0.0, 0.0, 0.0, 0.0, 0.0, 0.0, 0.052640000000000006, 0.0, 0.0, 0.0, 0.0, 0.0, 0.0, 1000.0, 0.0, 0.0, 0.0, 0.0, 0.0, 0.0, 1000.0, 0.0, 0.0, 0.0, 0.0, 0.0, 0.0, 1000.0)"
2018/12/16/17:23:11.970046,10904,1545002591,969822704,gps,,4.769,25.535,1.55,0.0,0.0,0.0,0.0,"(144000000.0, 0.0, 0.0, 0.0, 0.0, 0.0, 0.0, 144000000.0, 0.0, 0.0, 0.0, 0.0, 0.0, 0.0, 676000000.0, 0.0, 0.0, 0.0, 0.0, 0.0, 0.0, 1000.0, 0.0, 0.0, 0.0, 0.0, 0.0, 0.0, 1000.0, 0.0, 0.0, 0.0, 0.0, 0.0, 0.0, 1000.0)",0.016,4.944,0.009,0.0,0.0,0.0,"(0.022090000000000002, 0.0, 0.0, 0.0, 0.0, 0.0, 0.0, 0.022090000000000002, 0.0, 0.0, 0.0, 0.0, 0.0, 0.0, 0.052640000000000006, 0.0, 0.0, 0.0, 0.0, 0.0, 0.0, 1000.0, 0.0, 0.0, 0.0, 0.0, 0.0, 0.0, 1000.0, 0.0, 0.0, 0.0, 0.0, 0.0, 0.0, 1000.0)"
2018/12/16/17:23:12.031746,10905,1545002592,31445606,gps,,4.774,26.027,1.546,0.0,0.0,0.0,0.0,"(144000000.0, 0.0, 0.0, 0.0, 0.0, 0.0, 0.0, 144000000.0, 0.0, 0.0, 0.0, 0.0, 0.0, 0.0, 676000000.0, 0.0, 0.0, 0.0, 0.0, 0.0, 0.0, 1000.0, 0.0, 0.0, 0.0, 0.0, 0.0, 0.0, 1000.0, 0.0, 0.0, 0.0, 0.0, 0.0, 0.0, 1000.0)",0.047,4.924,0.009,0.0,0.0,0.0,"(0.022090000000000002, 0.0, 0.0, 0.0, 0.0, 0.0, 0.0, 0.022090000000000002, 0.0, 0.0, 0.0, 0.0, 0.0, 0.0, 0.052640000000000006, 0.0, 0.0, 0.0, 0.0, 0.0, 0.0, 1000.0, 0.0, 0.0, 0.0, 0.0, 0.0, 0.0, 1000.0, 0.0, 0.0, 0.0, 0.0, 0.0, 0.0, 1000.0)"
2018/12/16/17:23:12.171050,10906,1545002592,170910774,gps,,4.779,26.513,1.552,0.0,0.0,0.0,0.0,"(100000000.0, 0.0, 0.0, 0.0, 0.0, 0.0, 0.0, 100000000.0, 0.0, 0.0, 0.0, 0.0, 0.0, 0.0, 400000000.0, 0.0, 0.0, 0.0, 0.0, 0.0, 0.0, 1000.0, 0.0, 0.0, 0.0, 0.0, 0.0, 0.0, 1000.0, 0.0, 0.0, 0.0, 0.0, 0.0, 0.0, 1000.0)",0.043,4.871,0.057,0.0,0.0,0.0,"(0.022090000000000002, 0.0, 0.0, 0.0, 0.0, 0.0, 0.0, 0.022090000000000002, 0.0, 0.0, 0.0, 0.0, 0.0, 0.0, 0.052640000000000006, 0.0, 0.0, 0.0, 0.0, 0.0, 0.0, 1000.0, 0.0, 0.0, 0.0, 0.0, 0.0, 0.0, 1000.0, 0.0, 0.0, 0.0, 0.0, 0.0, 0.0, 1000.0)"
2018/12/16/17:23:12.235022,10907,1545002592,234879712,gps,,4.783,26.997,1.542,0.0,0.0,0.0,0.0,"(100000000.0, 0.0, 0.0, 0.0, 0.0, 0.0, 0.0, 100000000.0, 0.0, 0.0, 0.0, 0.0, 0.0, 0.0, 441000000.0, 0.0, 0.0, 0.0, 0.0, 0.0, 0.0, 1000.0, 0.0, 0.0, 0.0, 0.0, 0.0, 0.0, 1000.0, 0.0, 0.0, 0.0, 0.0, 0.0, 0.0, 1000.0)",0.046,4.843,-0.074,0.0,0.0,0.0,"(0.022090000000000002, 0.0, 0.0, 0.0, 0.0, 0.0, 0.0, 0.022090000000000002, 0.0, 0.0, 0.0, 0.0, 0.0, 0.0, 0.052640000000000006, 0.0, 0.0, 0.0, 0.0, 0.0, 0.0, 1000.0, 0.0, 0.0, 0.0, 0.0, 0.0, 0.0, 1000.0, 0.0, 0.0, 0.0, 0.0, 0.0, 0.0, 1000.0)"
2018/12/16/17:23:12.369952,10908,1545002592,369784287,gps,,4.787,27.48,1.547,0.0,0.0,0.0,0.0,"(100000000.0, 0.0, 0.0, 0.0, 0.0, 0.0, 0.0, 100000000.0, 0.0, 0.0, 0.0, 0.0, 0.0, 0.0, 441000000.0, 0.0, 0.0, 0.0, 0.0, 0.0, 0.0, 1000.0, 0.0, 0.0, 0.0, 0.0, 0.0, 0.0, 1000.0, 0.0, 0.0, 0.0, 0.0, 0.0, 0.0, 1000.0)",0.041,4.835,0.048,0.0,0.0,0.0,"(0.022090000000000002, 0.0, 0.0, 0.0, 0.0, 0.0, 0.0, 0.022090000000000002, 0.0, 0.0, 0.0, 0.0, 0.0, 0.0, 0.052640000000000006, 0.0, 0.0, 0.0, 0.0, 0.0, 0.0, 1000.0, 0.0, 0.0, 0.0, 0.0, 0.0, 0.0, 1000.0, 0.0, 0.0, 0.0, 0.0, 0.0, 0.0, 1000.0)"
2018/12/16/17:23:12.429033,10909,1545002592,428901334,gps,,4.793,27.96,1.551,0.0,0.0,0.0,0.0,"(100000000.0, 0.0, 0.0, 0.0, 0.0, 0.0, 0.0, 100000000.0, 0.0, 0.0, 0.0, 0.0, 0.0, 0.0, 441000000.0, 0.0, 0.0, 0.0, 0.0, 0.0, 0.0, 1000.0, 0.0, 0.0, 0.0, 0.0, 0.0, 0.0, 1000.0, 0.0, 0.0, 0.0, 0.0, 0.0, 0.0, 1000.0)",0.06,4.796,0.028,0.0,0.0,0.0,"(0.022090000000000002, 0.0, 0.0, 0.0, 0.0, 0.0, 0.0, 0.022090000000000002, 0.0, 0.0, 0.0, 0.0, 0.0, 0.0, 0.052640000000000006, 0.0, 0.0, 0.0, 0.0, 0.0, 0.0, 1000.0, 0.0, 0.0, 0.0, 0.0, 0.0, 0.0, 1000.0, 0.0, 0.0, 0.0, 0.0, 0.0, 0.0, 1000.0)"
2018/12/16/17:23:12.575799,10910,1545002592,575691345,gps,,4.802,28.437,1.546,0.0,0.0,0.0,0.0,"(100000000.0, 0.0, 0.0, 0.0, 0.0, 0.0, 0.0, 100000000.0, 0.0, 0.0, 0.0, 0.0, 0.0, 0.0, 484000000.0, 0.0, 0.0, 0.0, 0.0, 0.0, 0.0, 1000.0, 0.0, 0.0, 0.0, 0.0, 0.0, 0.0, 1000.0, 0.0, 0.0, 0.0, 0.0, 0.0, 0.0, 1000.0)",0.088,4.774,-0.03,0.0,0.0,0.0,"(0.022090000000000002, 0.0, 0.0, 0.0, 0.0, 0.0, 0.0, 0.022090000000000002, 0.0, 0.0, 0.0, 0.0, 0.0, 0.0, 0.052640000000000006, 0.0, 0.0, 0.0, 0.0, 0.0, 0.0, 1000.0, 0.0, 0.0, 0.0, 0.0, 0.0, 0.0, 1000.0, 0.0, 0.0, 0.0, 0.0, 0.0, 0.0, 1000.0)"
2018/12/16/17:23:12.627807,10911,1545002592,627669629,gps,,4.811,28.912,1.552,0.0,0.0,0.0,0.0,"(100000000.0, 0.0, 0.0, 0.0, 0.0, 0.0, 0.0, 100000000.0, 0.0, 0.0, 0.0, 0.0, 0.0, 0.0, 484000000.0, 0.0, 0.0, 0.0, 0.0, 0.0, 0.0, 1000.0, 0.0, 0.0, 0.0, 0.0, 0.0, 0.0, 1000.0, 0.0, 0.0, 0.0, 0.0, 0.0, 0.0, 1000.0)",0.086,4.76,0.052,0.0,0.0,0.0,"(0.022090000000000002, 0.0, 0.0, 0.0, 0.0, 0.0, 0.0, 0.022090000000000002, 0.0, 0.0, 0.0, 0.0, 0.0, 0.0, 0.052640000000000006, 0.0, 0.0, 0.0, 0.0, 0.0, 0.0, 1000.0, 0.0, 0.0, 0.0, 0.0, 0.0, 0.0, 1000.0, 0.0, 0.0, 0.0, 0.0, 0.0, 0.0, 1000.0)"
2018/12/16/17:23:12.769751,10912,1545002592,769602489,gps,,4.828,29.385,1.551,0.0,0.0,0.0,0.0,"(121000000.0, 0.0, 0.0, 0.0, 0.0, 0.0, 0.0, 121000000.0, 0.0, 0.0, 0.0, 0.0, 0.0, 0.0, 484000000.0, 0.0, 0.0, 0.0, 0.0, 0.0, 0.0, 1000.0, 0.0, 0.0, 0.0, 0.0, 0.0, 0.0, 1000.0, 0.0, 0.0, 0.0, 0.0, 0.0, 0.0, 1000.0)",0.171,4.731,0.001,0.0,0.0,0.0,"(0.022090000000000002, 0.0, 0.0, 0.0, 0.0, 0.0, 0.0, 0.022090000000000002, 0.0, 0.0, 0.0, 0.0, 0.0, 0.0, 0.052640000000000006, 0.0, 0.0, 0.0, 0.0, 0.0, 0.0, 1000.0, 0.0, 0.0, 0.0, 0.0, 0.0, 0.0, 1000.0, 0.0, 0.0, 0.0, 0.0, 0.0, 0.0, 1000.0)"
2018/12/16/17:23:12.827849,10913,1545002592,827628229,gps,,4.847,29.858,1.551,0.0,0.0,0.0,0.0,"(121000000.0, 0.0, 0.0, 0.0, 0.0, 0.0, 0.0, 121000000.0, 0.0, 0.0, 0.0, 0.0, 0.0, 0.0, 529000000.0, 0.0, 0.0, 0.0, 0.0, 0.0, 0.0, 1000.0, 0.0, 0.0, 0.0, 0.0, 0.0, 0.0, 1000.0, 0.0, 0.0, 0.0, 0.0, 0.0, 0.0, 1000.0)",0.192,4.729,-0.033,0.0,0.0,0.0,"(0.022090000000000002, 0.0, 0.0, 0.0, 0.0, 0.0, 0.0, 0.022090000000000002, 0.0, 0.0, 0.0, 0.0, 0.0, 0.0, 0.052640000000000006, 0.0, 0.0, 0.0, 0.0, 0.0, 0.0, 1000.0, 0.0, 0.0, 0.0, 0.0, 0.0, 0.0, 1000.0, 0.0, 0.0, 0.0, 0.0, 0.0, 0.0, 1000.0)"
2018/12/16/17:23:12.968660,10914,1545002592,968523159,gps,,4.873,30.327,1.552,0.0,0.0,0.0,0.0,"(121000000.0, 0.0, 0.0, 0.0, 0.0, 0.0, 0.0, 121000000.0, 0.0, 0.0, 0.0, 0.0, 0.0, 0.0, 529000000.0, 0.0, 0.0, 0.0, 0.0, 0.0, 0.0, 1000.0, 0.0, 0.0, 0.0, 0.0, 0.0, 0.0, 1000.0, 0.0, 0.0, 0.0, 0.0, 0.0, 0.0, 1000.0)",0.252,4.692,0.052,0.0,0.0,0.0,"(0.022090000000000002, 0.0, 0.0, 0.0, 0.0, 0.0, 0.0, 0.022090000000000002, 0.0, 0.0, 0.0, 0.0, 0.0, 0.0, 0.052640000000000006, 0.0, 0.0, 0.0, 0.0, 0.0, 0.0, 1000.0, 0.0, 0.0, 0.0, 0.0, 0.0, 0.0, 1000.0, 0.0, 0.0, 0.0, 0.0, 0.0, 0.0, 1000.0)"
2018/12/16/17:23:13.031679,10915,1545002593,31474150,gps,,4.906,30.796,1.548,0.0,0.0,0.0,0.0,"(121000000.0, 0.0, 0.0, 0.0, 0.0, 0.0, 0.0, 121000000.0, 0.0, 0.0, 0.0, 0.0, 0.0, 0.0, 529000000.0, 0.0, 0.0, 0.0, 0.0, 0.0, 0.0, 1000.0, 0.0, 0.0, 0.0, 0.0, 0.0, 0.0, 1000.0, 0.0, 0.0, 0.0, 0.0, 0.0, 0.0, 1000.0)",0.33,4.692,-0.054,0.0,0.0,0.0,"(0.022090000000000002, 0.0, 0.0, 0.0, 0.0, 0.0, 0.0, 0.022090000000000002, 0.0, 0.0, 0.0, 0.0, 0.0, 0.0, 0.052640000000000006, 0.0, 0.0, 0.0, 0.0, 0.0, 0.0, 1000.0, 0.0, 0.0, 0.0, 0.0, 0.0, 0.0, 1000.0, 0.0, 0.0, 0.0, 0.0, 0.0, 0.0, 1000.0)"
2018/12/16/17:23:13.170583,10916,1545002593,170444881,gps,,4.944,31.259,1.548,0.0,0.0,0.0,0.0,"(121000000.0, 0.0, 0.0, 0.0, 0.0, 0.0, 0.0, 121000000.0, 0.0, 0.0, 0.0, 0.0, 0.0, 0.0, 576000000.0, 0.0, 0.0, 0.0, 0.0, 0.0, 0.0, 1000.0, 0.0, 0.0, 0.0, 0.0, 0.0, 0.0, 1000.0, 0.0, 0.0, 0.0, 0.0, 0.0, 0.0, 1000.0)",0.384,4.632,-0.002,0.0,0.0,0.0,"(0.022090000000000002, 0.0, 0.0, 0.0, 0.0, 0.0, 0.0, 0.022090000000000002, 0.0, 0.0, 0.0, 0.0, 0.0, 0.0, 0.052640000000000006, 0.0, 0.0, 0.0, 0.0, 0.0, 0.0, 1000.0, 0.0, 0.0, 0.0, 0.0, 0.0, 0.0, 1000.0, 0.0, 0.0, 0.0, 0.0, 0.0, 0.0, 1000.0)"
2018/12/16/17:23:13.231525,10917,1545002593,231383323,gps,,4.98,31.722,1.556,0.0,0.0,0.0,0.0,"(121000000.0, 0.0, 0.0, 0.0, 0.0, 0.0, 0.0, 121000000.0, 0.0, 0.0, 0.0, 0.0, 0.0, 0.0, 576000000.0, 0.0, 0.0, 0.0, 0.0, 0.0, 0.0, 1000.0, 0.0, 0.0, 0.0, 0.0, 0.0, 0.0, 1000.0, 0.0, 0.0, 0.0, 0.0, 0.0, 0.0, 1000.0)",0.351,4.632,0.075,0.0,0.0,0.0,"(0.022090000000000002, 0.0, 0.0, 0.0, 0.0, 0.0, 0.0, 0.022090000000000002, 0.0, 0.0, 0.0, 0.0, 0.0, 0.0, 0.052640000000000006, 0.0, 0.0, 0.0, 0.0, 0.0, 0.0, 1000.0, 0.0, 0.0, 0.0, 0.0, 0.0, 0.0, 1000.0, 0.0, 0.0, 0.0, 0.0, 0.0, 0.0, 1000.0)"
2018/12/16/17:23:13.375440,10918,1545002593,375326792,gps,,5.017,32.181,1.558,0.0,0.0,0.0,0.0,"(121000000.0, 0.0, 0.0, 0.0, 0.0, 0.0, 0.0, 121000000.0, 0.0, 0.0, 0.0, 0.0, 0.0, 0.0, 576000000.0, 0.0, 0.0, 0.0, 0.0, 0.0, 0.0, 1000.0, 0.0, 0.0, 0.0, 0.0, 0.0, 0.0, 1000.0, 0.0, 0.0, 0.0, 0.0, 0.0, 0.0, 1000.0)",0.378,4.593,-0.006,0.0,0.0,0.0,"(0.022090000000000002, 0.0, 0.0, 0.0, 0.0, 0.0, 0.0, 0.022090000000000002, 0.0, 0.0, 0.0, 0.0, 0.0, 0.0, 0.052640000000000006, 0.0, 0.0, 0.0, 0.0, 0.0, 0.0, 1000.0, 0.0, 0.0, 0.0, 0.0, 0.0, 0.0, 1000.0, 0.0, 0.0, 0.0, 0.0, 0.0, 0.0, 1000.0)"
2018/12/16/17:23:13.430466,10919,1545002593,430304749,gps,,5.071,32.638,1.556,0.0,0.0,0.0,0.0,"(121000000.0, 0.0, 0.0, 0.0, 0.0, 0.0, 0.0, 121000000.0, 0.0, 0.0, 0.0, 0.0, 0.0, 0.0, 576000000.0, 0.0, 0.0, 0.0, 0.0, 0.0, 0.0, 1000.0, 0.0, 0.0, 0.0, 0.0, 0.0, 0.0, 1000.0, 0.0, 0.0, 0.0, 0.0, 0.0, 0.0, 1000.0)",0.534,4.569,0.009,0.0,0.0,0.0,"(0.022090000000000002, 0.0, 0.0, 0.0, 0.0, 0.0, 0.0, 0.022090000000000002, 0.0, 0.0, 0.0, 0.0, 0.0, 0.0, 0.052640000000000006, 0.0, 0.0, 0.0, 0.0, 0.0, 0.0, 1000.0, 0.0, 0.0, 0.0, 0.0, 0.0, 0.0, 1000.0, 0.0, 0.0, 0.0, 0.0, 0.0, 0.0, 1000.0)"
2018/12/16/17:23:13.579384,10920,1545002593,579246824,gps,,5.133,33.095,1.554,0.0,0.0,0.0,0.0,"(144000000.0, 0.0, 0.0, 0.0, 0.0, 0.0, 0.0, 144000000.0, 0.0, 0.0, 0.0, 0.0, 0.0, 0.0, 625000000.0, 0.0, 0.0, 0.0, 0.0, 0.0, 0.0, 1000.0, 0.0, 0.0, 0.0, 0.0, 0.0, 0.0, 1000.0, 0.0, 0.0, 0.0, 0.0, 0.0, 0.0, 1000.0)",0.62,4.581,-0.043,0.0,0.0,0.0,"(0.022090000000000002, 0.0, 0.0, 0.0, 0.0, 0.0, 0.0, 0.022090000000000002, 0.0, 0.0, 0.0, 0.0, 0.0, 0.0, 0.052640000000000006, 0.0, 0.0, 0.0, 0.0, 0.0, 0.0, 1000.0, 0.0, 0.0, 0.0, 0.0, 0.0, 0.0, 1000.0, 0.0, 0.0, 0.0, 0.0, 0.0, 0.0, 1000.0)"
2018/12/16/17:23:13.628403,10921,1545002593,628282289,gps,,5.202,33.55,1.555,0.0,0.0,0.0,0.0,"(144000000.0, 0.0, 0.0, 0.0, 0.0, 0.0, 0.0, 144000000.0, 0.0, 0.0, 0.0, 0.0, 0.0, 0.0, 625000000.0, 0.0, 0.0, 0.0, 0.0, 0.0, 0.0, 1000.0, 0.0, 0.0, 0.0, 0.0, 0.0, 0.0, 1000.0, 0.0, 0.0, 0.0, 0.0, 0.0, 0.0, 1000.0)",0.683,4.548,0.026,0.0,0.0,0.0,"(0.022090000000000002, 0.0, 0.0, 0.0, 0.0, 0.0, 0.0, 0.022090000000000002, 0.0, 0.0, 0.0, 0.0, 0.0, 0.0, 0.052640000000000006, 0.0, 0.0, 0.0, 0.0, 0.0, 0.0, 1000.0, 0.0, 0.0, 0.0, 0.0, 0.0, 0.0, 1000.0, 0.0, 0.0, 0.0, 0.0, 0.0, 0.0, 1000.0)"
2018/12/16/17:23:13.773264,10922,1545002593,773136768,gps,,5.271,34.003,1.558,0.0,0.0,0.0,0.0,"(144000000.0, 0.0, 0.0, 0.0, 0.0, 0.0, 0.0, 144000000.0, 0.0, 0.0, 0.0, 0.0, 0.0, 0.0, 625000000.0, 0.0, 0.0, 0.0, 0.0, 0.0, 0.0, 1000.0, 0.0, 0.0, 0.0, 0.0, 0.0, 0.0, 1000.0, 0.0, 0.0, 0.0, 0.0, 0.0, 0.0, 1000.0)",0.699,4.533,0.009,0.0,0.0,0.0,"(0.022090000000000002, 0.0, 0.0, 0.0, 0.0, 0.0, 0.0, 0.022090000000000002, 0.0, 0.0, 0.0, 0.0, 0.0, 0.0, 0.052640000000000006, 0.0, 0.0, 0.0, 0.0, 0.0, 0.0, 1000.0, 0.0, 0.0, 0.0, 0.0, 0.0, 0.0, 1000.0, 0.0, 0.0, 0.0, 0.0, 0.0, 0.0, 1000.0)"
2018/12/16/17:23:13.828425,10923,1545002593,828274488,gps,,5.344,34.454,1.562,0.0,0.0,0.0,0.0,"(144000000.0, 0.0, 0.0, 0.0, 0.0, 0.0, 0.0, 144000000.0, 0.0, 0.0, 0.0, 0.0, 0.0, 0.0, 625000000.0, 0.0, 0.0, 0.0, 0.0, 0.0, 0.0, 1000.0, 0.0, 0.0, 0.0, 0.0, 0.0, 0.0, 1000.0, 0.0, 0.0, 0.0, 0.0, 0.0, 0.0, 1000.0)",0.727,4.514,0.007,0.0,0.0,0.0,"(0.022090000000000002, 0.0, 0.0, 0.0, 0.0, 0.0, 0.0, 0.022090000000000002, 0.0, 0.0, 0.0, 0.0, 0.0, 0.0, 0.052640000000000006, 0.0, 0.0, 0.0, 0.0, 0.0, 0.0, 1000.0, 0.0, 0.0, 0.0, 0.0, 0.0, 0.0, 1000.0, 0.0, 0.0, 0.0, 0.0, 0.0, 0.0, 1000.0)"
2018/12/16/17:23:13.971211,10924,1545002593,971075956,gps,,5.417,34.907,1.563,0.0,0.0,0.0,0.0,"(144000000.0, 0.0, 0.0, 0.0, 0.0, 0.0, 0.0, 144000000.0, 0.0, 0.0, 0.0, 0.0, 0.0, 0.0, 676000000.0, 0.0, 0.0, 0.0, 0.0, 0.0, 0.0, 1000.0, 0.0, 0.0, 0.0, 0.0, 0.0, 0.0, 1000.0, 0.0, 0.0, 0.0, 0.0, 0.0, 0.0, 1000.0)",0.73,4.534,0.021,0.0,0.0,0.0,"(0.022090000000000002, 0.0, 0.0, 0.0, 0.0, 0.0, 0.0, 0.022090000000000002, 0.0, 0.0, 0.0, 0.0, 0.0, 0.0, 0.052640000000000006, 0.0, 0.0, 0.0, 0.0, 0.0, 0.0, 1000.0, 0.0, 0.0, 0.0, 0.0, 0.0, 0.0, 1000.0, 0.0, 0.0, 0.0, 0.0, 0.0, 0.0, 1000.0)"
2018/12/16/17:23:14.032215,10925,1545002594,32058730,gps,,5.501,35.361,1.568,0.0,0.0,0.0,0.0,"(144000000.0, 0.0, 0.0, 0.0, 0.0, 0.0, 0.0, 144000000.0, 0.0, 0.0, 0.0, 0.0, 0.0, 0.0, 676000000.0, 0.0, 0.0, 0.0, 0.0, 0.0, 0.0, 1000.0, 0.0, 0.0, 0.0, 0.0, 0.0, 0.0, 1000.0, 0.0, 0.0, 0.0, 0.0, 0.0, 0.0, 1000.0)",0.832,4.535,0.055,0.0,0.0,0.0,"(0.022090000000000002, 0.0, 0.0, 0.0, 0.0, 0.0, 0.0, 0.022090000000000002, 0.0, 0.0, 0.0, 0.0, 0.0, 0.0, 0.052640000000000006, 0.0, 0.0, 0.0, 0.0, 0.0, 0.0, 1000.0, 0.0, 0.0, 0.0, 0.0, 0.0, 0.0, 1000.0, 0.0, 0.0, 0.0, 0.0, 0.0, 0.0, 1000.0)"
2018/12/16/17:23:14.172147,10926,1545002594,171967592,gps,,5.596,35.811,1.56,0.0,0.0,0.0,0.0,"(100000000.0, 0.0, 0.0, 0.0, 0.0, 0.0, 0.0, 100000000.0, 0.0, 0.0, 0.0, 0.0, 0.0, 0.0, 400000000.0, 0.0, 0.0, 0.0, 0.0, 0.0, 0.0, 1000.0, 0.0, 0.0, 0.0, 0.0, 0.0, 0.0, 1000.0, 0.0, 0.0, 0.0, 0.0, 0.0, 0.0, 1000.0)",0.943,4.532,-0.041,0.0,0.0,0.0,"(0.022090000000000002, 0.0, 0.0, 0.0, 0.0, 0.0, 0.0, 0.022090000000000002, 0.0, 0.0, 0.0, 0.0, 0.0, 0.0, 0.052640000000000006, 0.0, 0.0, 0.0, 0.0, 0.0, 0.0, 1000.0, 0.0, 0.0, 0.0, 0.0, 0.0, 0.0, 1000.0, 0.0, 0.0, 0.0, 0.0, 0.0, 0.0, 1000.0)"
