time,.header.seq,.header.stamp.secs,.header.stamp.nsecs,.header.frame_id,.steering_wheel_angle,.steering_wheel_angle_cmd,.steering_wheel_torque,.speed,.enabled,.override,.timeout,.fault_wdc,.fault_bus1,.fault_bus2,.fault_calibration
2018/12/16/17:23:04.002862,54775,1545002583,997594639,,0.045378562063,0.0,-1.0625,4.2805557251,False,False,False,False,False,False,False
2018/12/16/17:23:04.033008,54776,1545002584,17619292,,0.0366519130766,0.0,-1.0625,4.28333330154,False,False,False,False,False,False,False
2018/12/16/17:23:04.038842,54777,1545002584,37648765,,0.0244346093386,0.0,-1.0625,4.28333330154,False,False,False,False,False,False,False
2018/12/16/17:23:04.057944,54778,1545002584,57699941,,0.0174532923847,0.0,-1.0625,4.28333330154,False,False,False,False,False,False,False
2018/12/16/17:23:04.077951,54779,1545002584,77713252,,0.0122173046693,0.0,-1.0,4.28611087799,False,False,False,False,False,False,False
2018/12/16/17:23:04.098004,54780,1545002584,97745954,,0.00872664619237,0.0,-0.9375,4.28888893127,False,False,False,False,False,False,False
2018/12/16/17:23:04.118093,54781,1545002584,117781272,,0.00523598771542,0.0,-0.8125,4.28888893127,False,False,False,False,False,False,False
2018/12/16/17:23:04.138185,54782,1545002584,137848483,,0.00523598771542,0.0,-0.75,4.29166650772,False,False,False,False,False,False,False
2018/12/16/17:23:04.158295,54783,1545002584,157886384,,0.0069813169539,0.0,-0.5,4.294444561,False,False,False,False,False,False,False
2018/12/16/17:23:04.178257,54784,1545002584,177885556,,0.0104719754308,0.0,-0.4375,4.30000019073,False,False,False,False,False,False,False
2018/12/16/17:23:04.198315,54785,1545002584,198011535,,0.0157079640776,0.0,-0.3125,4.30277776718,False,False,False,False,False,False,False
2018/12/16/17:23:04.218302,54786,1545002584,217983585,,0.0209439508617,0.0,-0.1875,4.31111097336,False,False,False,False,False,False,False
2018/12/16/17:23:04.238270,54787,1545002584,238019468,,0.0261799395084,0.0,-0.0625,4.31666660309,False,False,False,False,False,False,False
2018/12/16/17:23:04.258361,54788,1545002584,258030250,,0.0314159281552,0.0,0.125,4.32499980927,False,False,False,False,False,False,False
2018/12/16/17:23:04.278449,54789,1545002584,278067623,,0.0366519130766,0.0,0.0625,4.33333349228,False,False,False,False,False,False,False
2018/12/16/17:23:04.298411,54790,1545002584,298086693,,0.0383972451091,0.0,0.0,4.34166669846,False,False,False,False,False,False,False
2018/12/16/17:23:04.318501,54791,1545002584,318144841,,0.0418879017234,0.0,-0.0625,4.34999990463,False,False,False,False,False,False,False
2018/12/16/17:23:04.338428,54792,1545002584,338166364,,0.0418879017234,0.0,-0.125,4.35833311081,False,False,False,False,False,False,False
2018/12/16/17:23:04.358511,54793,1545002584,358188416,,0.0418879017234,0.0,-0.3125,4.36388874054,False,False,False,False,False,False,False
2018/12/16/17:23:04.378527,54794,1545002584,378220049,,0.0401425734162,0.0,-0.4375,4.36944437027,False,False,False,False,False,False,False
2018/12/16/17:23:04.398686,54795,1545002584,398271960,,0.0383972451091,0.0,-0.5625,4.37777757645,False,False,False,False,False,False,False
2018/12/16/17:23:04.418566,54796,1545002584,418293458,,0.0349065847695,0.0,-0.8125,4.38611125946,False,False,False,False,False,False,False
2018/12/16/17:23:04.438686,54797,1545002584,438318240,,0.0296705979854,0.0,-0.75,4.39444446564,False,False,False,False,False,False,False
2018/12/16/17:23:04.458633,54798,1545002584,458342725,,0.0226892810315,0.0,-0.9375,4.40000009537,False,False,False,False,False,False,False
2018/12/16/17:23:04.478710,54799,1545002584,478400873,,0.0139626339078,0.0,-1.0,4.40833330154,False,False,False,False,False,False,False
2018/12/16/17:23:04.498732,54800,1545002584,498433733,,0.00523598771542,0.0,-1.0,4.419444561,False,False,False,False,False,False,False
2018/12/16/17:23:04.518917,54801,1545002584,518449369,,-0.00174532923847,0.0,-1.0625,4.42777776718,False,False,False,False,False,False,False
2018/12/16/17:23:04.538825,54802,1545002584,538506833,,-0.0104719754308,0.0,-1.0,4.43333339691,False,False,False,False,False,False,False
2018/12/16/17:23:04.559178,54803,1545002584,558547999,,-0.0191986225545,0.0,-1.0625,4.44166660309,False,False,False,False,False,False,False
2018/12/16/17:23:04.578897,54804,1545002584,578573491,,-0.0296705979854,0.0,-1.125,4.44999980927,False,False,False,False,False,False,False
2018/12/16/17:23:04.599340,54805,1545002584,598590815,,-0.0401425734162,0.0,-1.0625,4.45833349228,False,False,False,False,False,False,False
2018/12/16/17:23:04.619170,54806,1545002584,618609996,,-0.0506145469844,0.0,-1.125,4.46666669846,False,False,False,False,False,False,False
2018/12/16/17:23:04.639642,54807,1545002584,638667018,,-0.0610865242779,0.0,-1.0625,4.47777795792,False,False,False,False,False,False,False
2018/12/16/17:23:04.659357,54808,1545002584,658696555,,-0.0715584978461,0.0,-1.0625,4.48611116409,False,False,False,False,False,False,False
2018/12/16/17:23:04.679034,54809,1545002584,678724701,,-0.0785398185253,0.0,-1.0625,4.5,False,False,False,False,False,False,False
2018/12/16/17:23:04.699193,54810,1545002584,698749069,,-0.0855211317539,0.0,-1.0625,4.51111125946,False,False,False,False,False,False,False
2018/12/16/17:23:04.719256,54811,1545002584,718784471,,-0.090757124126,0.0,-1.0,4.52222204208,False,False,False,False,False,False,False
2018/12/16/17:23:04.739105,54812,1545002584,738813471,,-0.0959931090474,0.0,-1.0,4.53611087799,False,False,False,False,False,False,False
2018/12/16/17:23:04.759629,54813,1545002584,758860508,,-0.0994837656617,0.0,-1.0,4.55000019073,False,False,False,False,False,False,False
2018/12/16/17:23:04.779177,54814,1545002584,778902195,,-0.101229093969,0.0,-1.0,4.56111097336,False,False,False,False,False,False,False
2018/12/16/17:23:04.799289,54815,1545002584,798985585,,-0.101229093969,0.0,-0.9375,4.57222223282,False,False,False,False,False,False,False
2018/12/16/17:23:04.819463,54816,1545002584,818985440,,-0.101229093969,0.0,-0.75,4.580555439,False,False,False,False,False,False,False
2018/12/16/17:23:04.839350,54817,1545002584,838980049,,-0.0994837656617,0.0,-0.6875,4.5944442749,False,False,False,False,False,False,False
2018/12/16/17:23:04.859445,54818,1545002584,859017896,,-0.0977384373546,0.0,-0.5625,4.60555553436,False,False,False,False,False,False,False
2018/12/16/17:23:04.879342,54819,1545002584,879060983,,-0.0942477807403,0.0,-0.25,4.61111116409,False,False,False,False,False,False,False
2018/12/16/17:23:04.899349,54820,1545002584,899083672,,-0.0890117883682,0.0,-0.625,4.61666679382,False,False,False,False,False,False,False
2018/12/16/17:23:04.919688,54821,1545002584,919154560,,-0.0872664600611,0.0,-0.4375,4.63055562973,False,False,False,False,False,False,False
2018/12/16/17:23:04.939793,54822,1545002584,939162802,,-0.0837758034468,0.0,-0.25,4.63888883591,False,False,False,False,False,False,False
2018/12/16/17:23:04.960063,54823,1545002584,959195293,,-0.0785398185253,0.0,-0.5625,4.64722204208,False,False,False,False,False,False,False
2018/12/16/17:23:04.979599,54824,1545002584,979227900,,-0.0785398185253,0.0,-0.5,4.6555557251,False,False,False,False,False,False,False
2018/12/16/17:23:04.999587,54825,1545002584,999297610,,-0.0785398185253,0.0,-0.5,4.66111087799,False,False,False,False,False,False,False
2018/12/16/17:23:05.019755,54826,1545002585,19305351,,-0.0785398185253,0.0,-0.625,4.669444561,False,False,False,False,False,False,False
2018/12/16/17:23:05.039810,54827,1545002585,39327548,,-0.0785398185253,0.0,-0.75,4.67777776718,False,False,False,False,False,False,False
2018/12/16/17:23:05.059634,54828,1545002585,59354630,,-0.0785398185253,0.0,-0.75,4.68611097336,False,False,False,False,False,False,False
2018/12/16/17:23:05.079808,54829,1545002585,79375298,,-0.0802851468325,0.0,-0.9375,4.69444465637,False,False,False,False,False,False,False
2018/12/16/17:23:05.100203,54830,1545002585,99891463,,-0.0820304751396,0.0,-0.9375,4.69999980927,False,False,False,False,False,False,False
2018/12/16/17:23:05.119874,54831,1545002585,119459914,,-0.0855211317539,0.0,-1.0625,4.70277786255,False,False,False,False,False,False,False
2018/12/16/17:23:05.139795,54832,1545002585,139477951,,-0.090757124126,0.0,-1.0625,4.71388912201,False,False,False,False,False,False,False
2018/12/16/17:23:05.162890,54833,1545002585,159503464,,-0.0942477807403,0.0,-1.0625,4.7194442749,False,False,False,False,False,False,False
2018/12/16/17:23:05.179927,54834,1545002585,179565871,,-0.0994837656617,0.0,-1.125,4.72777795792,False,False,False,False,False,False,False
2018/12/16/17:23:05.199900,54835,1545002585,199575664,,-0.104719758034,0.0,-1.0625,4.73611116409,False,False,False,False,False,False,False
2018/12/16/17:23:05.219944,54836,1545002585,219642852,,-0.109955742955,0.0,-1.0625,4.73888874054,False,False,False,False,False,False,False
2018/12/16/17:23:05.240535,54837,1545002585,239647891,,-0.11344639957,0.0,-1.0625,4.74722242355,False,False,False,False,False,False,False
2018/12/16/17:23:05.260000,54838,1545002585,259700851,,-0.115191727877,0.0,-0.9375,4.75555562973,False,False,False,False,False,False,False
2018/12/16/17:23:05.280467,54839,1545002585,279752783,,-0.11344639957,0.0,-0.875,4.75833320618,False,False,False,False,False,False,False
2018/12/16/17:23:05.300086,54840,1545002585,299746351,,-0.111701071262,0.0,-0.6875,4.76111125946,False,False,False,False,False,False,False
2018/12/16/17:23:05.320202,54841,1545002585,319860093,,-0.108210414648,0.0,-0.4375,4.76388883591,False,False,False,False,False,False,False
2018/12/16/17:23:05.340152,54842,1545002585,339815895,,-0.101229093969,0.0,-0.4375,4.76666688919,False,False,False,False,False,False,False
2018/12/16/17:23:05.360225,54843,1545002585,359852061,,-0.0925024524331,0.0,-0.1875,4.76944446564,False,False,False,False,False,False,False
2018/12/16/17:23:05.380348,54844,1545002585,380118251,,-0.0837758034468,0.0,-0.1875,4.77222204208,False,False,False,False,False,False,False
2018/12/16/17:23:05.400546,54845,1545002585,400174047,,-0.0715584978461,0.0,-0.1875,4.77500009537,False,False,False,False,False,False,False
2018/12/16/17:23:05.420582,54846,1545002585,420190654,,-0.0610865242779,0.0,0.0,4.77777767181,False,False,False,False,False,False,False
2018/12/16/17:23:05.440743,54847,1545002585,440441580,,-0.0488692186773,0.0,0.0,4.7805557251,False,False,False,False,False,False,False
2018/12/16/17:23:05.460656,54848,1545002585,460410661,,-0.0383972451091,0.0,0.0,4.7805557251,False,False,False,False,False,False,False
2018/12/16/17:23:05.480749,54849,1545002585,480415420,,-0.0279252678156,0.0,-0.0625,4.78333330154,False,False,False,False,False,False,False
2018/12/16/17:23:05.500687,54850,1545002585,500424907,,-0.0209439508617,0.0,-0.1875,4.78888893127,False,False,False,False,False,False,False
2018/12/16/17:23:05.520705,54851,1545002585,520434608,,-0.0157079640776,0.0,-0.125,4.78888893127,False,False,False,False,False,False,False
2018/12/16/17:23:05.540771,54852,1545002585,540459561,,-0.0157079640776,0.0,-0.375,4.79166650772,False,False,False,False,False,False,False
2018/12/16/17:23:05.560647,54853,1545002585,560407941,,-0.0157079640776,0.0,-0.5,4.794444561,False,False,False,False,False,False,False
2018/12/16/17:23:05.580739,54854,1545002585,580442508,,-0.0174532923847,0.0,-0.5625,4.80000019073,False,False,False,False,False,False,False
2018/12/16/17:23:05.601013,54855,1545002585,600719478,,-0.0191986225545,0.0,-0.75,4.80277776718,False,False,False,False,False,False,False
2018/12/16/17:23:05.620780,54856,1545002585,620497842,,-0.0244346093386,0.0,-0.875,4.80277776718,False,False,False,False,False,False,False
2018/12/16/17:23:05.640941,54857,1545002585,640530659,,-0.0296705979854,0.0,-0.9375,4.80555534363,False,False,False,False,False,False,False
2018/12/16/17:23:05.660927,54858,1545002585,660564668,,-0.0366519130766,0.0,-1.0625,4.81111097336,False,False,False,False,False,False,False
2018/12/16/17:23:05.680883,54859,1545002585,680585799,,-0.0418879017234,0.0,-1.0625,4.81388902664,False,False,False,False,False,False,False
2018/12/16/17:23:05.701143,54860,1545002585,700648762,,-0.0488692186773,0.0,-1.0625,4.81666660309,False,False,False,False,False,False,False
2018/12/16/17:23:05.720877,54861,1545002585,720653918,,-0.054105207324,0.0,-1.125,4.81666660309,False,False,False,False,False,False,False
2018/12/16/17:23:05.741048,54862,1545002585,740662043,,-0.0610865242779,0.0,-1.0625,4.81944465637,False,False,False,False,False,False,False
2018/12/16/17:23:05.761101,54863,1545002585,760723963,,-0.0663225129247,0.0,-1.125,4.82222223282,False,False,False,False,False,False,False
2018/12/16/17:23:05.781026,54864,1545002585,780767962,,-0.0715584978461,0.0,-1.125,4.82222223282,False,False,False,False,False,False,False
2018/12/16/17:23:05.801740,54865,1545002585,800881376,,-0.0785398185253,0.0,-1.0625,4.82499980927,False,False,False,False,False,False,False
2018/12/16/17:23:05.821124,54866,1545002585,820812250,,-0.0837758034468,0.0,-1.1875,4.82777786255,False,False,False,False,False,False,False
2018/12/16/17:23:05.841172,54867,1545002585,840859310,,-0.0925024524331,0.0,-1.25,4.82777786255,False,False,False,False,False,False,False
2018/12/16/17:23:05.861327,54868,1545002585,860868814,,-0.0977384373546,0.0,-1.1875,4.82777786255,False,False,False,False,False,False,False
2018/12/16/17:23:05.881532,54869,1545002585,880978751,,-0.108210414648,0.0,-1.375,4.82777786255,False,False,False,False,False,False,False
2018/12/16/17:23:05.901331,54870,1545002585,901009700,,-0.120427720249,0.0,-1.3125,4.82777786255,False,False,False,False,False,False,False
2018/12/16/17:23:05.921440,54871,1545002585,920983378,,-0.132645025849,0.0,-1.25,4.82777786255,False,False,False,False,False,False,False
2018/12/16/17:23:05.941240,54872,1545002585,941018750,,-0.143116995692,0.0,-1.25,4.830555439,False,False,False,False,False,False,False
2018/12/16/17:23:05.961271,54873,1545002585,961021877,,-0.153588980436,0.0,-1.1875,4.830555439,False,False,False,False,False,False,False
2018/12/16/17:23:05.981264,54874,1545002585,981043685,,-0.162315621972,0.0,-1.25,4.83333349228,False,False,False,False,False,False,False
2018/12/16/17:23:06.001372,54875,1545002586,1090646,,-0.165806278586,0.0,-1.125,4.83611106873,False,False,False,False,False,False,False
2018/12/16/17:23:06.021539,54876,1545002586,21127753,,-0.165806278586,0.0,-0.9375,4.83888912201,False,False,False,False,False,False,False
2018/12/16/17:23:06.041505,54877,1545002586,41148692,,-0.164060950279,0.0,-0.75,4.8444442749,False,False,False,False,False,False,False
2018/12/16/17:23:06.061429,54878,1545002586,61201024,,-0.158824965358,0.0,-0.375,4.84722232819,False,False,False,False,False,False,False
2018/12/16/17:23:06.081629,54879,1545002586,81225610,,-0.146607652307,0.0,-0.1875,4.84999990463,False,False,False,False,False,False,False
2018/12/16/17:23:06.101522,54880,1545002586,101274071,,-0.134390354156,0.0,-0.125,4.85555553436,False,False,False,False,False,False,False
2018/12/16/17:23:06.121563,54881,1545002586,121278066,,-0.115191727877,0.0,-0.0625,4.85833311081,False,False,False,False,False,False,False
2018/12/16/17:23:06.141522,54882,1545002586,141312757,,-0.0977384373546,0.0,-0.0625,4.85555553436,False,False,False,False,False,False,False
2018/12/16/17:23:06.161649,54883,1545002586,161352390,,-0.0785398185253,0.0,0.1875,4.86111116409,False,False,False,False,False,False,False
2018/12/16/17:23:06.181641,54884,1545002586,181371029,,-0.0628318563104,0.0,-0.0625,4.86944437027,False,False,False,False,False,False,False
2018/12/16/17:23:06.201719,54885,1545002586,201423391,,-0.0488692186773,0.0,0.25,4.87222242355,False,False,False,False,False,False,False
2018/12/16/17:23:06.221803,54886,1545002586,221435837,,-0.0349065847695,0.0,0.25,4.875,False,False,False,False,False,False,False
2018/12/16/17:23:06.241702,54887,1545002586,241482077,,-0.0226892810315,0.0,0.125,4.88055562973,False,False,False,False,False,False,False
2018/12/16/17:23:06.261890,54888,1545002586,261509356,,-0.0122173046693,0.0,0.0625,4.88333320618,False,False,False,False,False,False,False
2018/12/16/17:23:06.282189,54889,1545002586,281552066,,-0.00174532923847,0.0,0.1875,4.88888883591,False,False,False,False,False,False,False
2018/12/16/17:23:06.301801,54890,1545002586,301554353,,0.00523598771542,0.0,0.1875,4.89166688919,False,False,False,False,False,False,False
2018/12/16/17:23:06.322119,54891,1545002586,321775859,,0.0122173046693,0.0,0.1875,4.89444446564,False,False,False,False,False,False,False
2018/12/16/17:23:06.342076,54892,1545002586,341802599,,0.0174532923847,0.0,0.1875,4.89722204208,False,False,False,False,False,False,False
2018/12/16/17:23:06.362038,54893,1545002586,361805210,,0.0244346093386,0.0,0.1875,4.90277767181,False,False,False,False,False,False,False
2018/12/16/17:23:06.382175,54894,1545002586,381779791,,0.0261799395084,0.0,0.125,4.90833330154,False,False,False,False,False,False,False
2018/12/16/17:23:06.402122,54895,1545002586,401770672,,0.0296705979854,0.0,0.0625,4.91388893127,False,False,False,False,False,False,False
2018/12/16/17:23:06.422025,54896,1545002586,421768073,,0.0314159281552,0.0,0.125,4.92222213745,False,False,False,False,False,False,False
2018/12/16/17:23:06.442046,54897,1545002586,441795518,,0.0314159281552,0.0,0.0625,4.93055534363,False,False,False,False,False,False,False
2018/12/16/17:23:06.462108,54898,1545002586,461832116,,0.0314159281552,0.0,-0.0625,4.93611097336,False,False,False,False,False,False,False
2018/12/16/17:23:06.482279,54899,1545002586,481856948,,0.0314159281552,0.0,-0.125,4.94722223282,False,False,False,False,False,False,False
2018/12/16/17:23:06.502593,54900,1545002586,501889479,,0.0314159281552,0.0,-0.1875,4.955555439,False,False,False,False,False,False,False
2018/12/16/17:23:06.522244,54901,1545002586,521975651,,0.0314159281552,0.0,-0.375,4.96111106873,False,False,False,False,False,False,False
2018/12/16/17:23:06.542265,54902,1545002586,541991602,,0.0314159281552,0.0,-0.3125,4.97222232819,False,False,False,False,False,False,False
2018/12/16/17:23:06.562321,54903,1545002586,562005156,,0.0314159281552,0.0,-0.4375,4.98055553436,False,False,False,False,False,False,False
2018/12/16/17:23:06.582684,54904,1545002586,582030362,,0.0314159281552,0.0,-0.5625,4.98611116409,False,False,False,False,False,False,False
2018/12/16/17:23:06.602494,54905,1545002586,602029457,,0.0314159281552,0.0,-0.625,4.99444437027,False,False,False,False,False,False,False
2018/12/16/17:23:06.622366,54906,1545002586,622082466,,0.0296705979854,0.0,-0.75,5.00277757645,False,False,False,False,False,False,False
2018/12/16/17:23:06.642568,54907,1545002586,642295762,,0.0279252678156,0.0,-0.625,5.00833320618,False,False,False,False,False,False,False
2018/12/16/17:23:06.662652,54908,1545002586,662305337,,0.0244346093386,0.0,-0.75,5.01666688919,False,False,False,False,False,False,False
2018/12/16/17:23:06.682612,54909,1545002586,682317277,,0.0209439508617,0.0,-0.8125,5.02500009537,False,False,False,False,False,False,False
2018/12/16/17:23:06.702622,54910,1545002586,702359885,,0.0174532923847,0.0,-0.75,5.03333330154,False,False,False,False,False,False,False
2018/12/16/17:23:06.722776,54911,1545002586,722490790,,0.0122173046693,0.0,-0.8125,5.04166650772,False,False,False,False,False,False,False
2018/12/16/17:23:06.742946,54912,1545002586,742530691,,0.0069813169539,0.0,-0.8125,5.05000019073,False,False,False,False,False,False,False
2018/12/16/17:23:06.763560,54913,1545002586,762573678,,0.00349065847695,0.0,-0.875,5.05555534363,False,False,False,False,False,False,False
2018/12/16/17:23:06.783173,54914,1545002586,782685464,,-0.00174532923847,0.0,-0.875,5.06111097336,False,False,False,False,False,False,False
2018/12/16/17:23:06.802953,54915,1545002586,802581162,,-0.0069813169539,0.0,-0.8125,5.06944465637,False,False,False,False,False,False,False
2018/12/16/17:23:06.823544,54916,1545002586,822608814,,-0.0122173046693,0.0,-0.875,5.07777786255,False,False,False,False,False,False,False
2018/12/16/17:23:06.842824,54917,1545002586,842569737,,-0.0174532923847,0.0,-0.8125,5.08611106873,False,False,False,False,False,False,False
2018/12/16/17:23:06.863294,54918,1545002586,862548451,,-0.0226892810315,0.0,-0.9375,5.09722232819,False,False,False,False,False,False,False
2018/12/16/17:23:06.882928,54919,1545002586,882538894,,-0.0279252678156,0.0,-0.75,5.11111116409,False,False,False,False,False,False,False
2018/12/16/17:23:06.903310,54920,1545002586,902646408,,-0.0314159281552,0.0,-0.875,5.11666679382,False,False,False,False,False,False,False
2018/12/16/17:23:06.922920,54921,1545002586,922563498,,-0.0366519130766,0.0,-0.8125,5.125,False,False,False,False,False,False,False
2018/12/16/17:23:06.942935,54922,1545002586,942587928,,-0.0366519130766,0.0,-0.8125,5.13611125946,False,False,False,False,False,False,False
2018/12/16/17:23:06.963201,54923,1545002586,962612882,,-0.0383972451091,0.0,-0.875,5.14444446564,False,False,False,False,False,False,False
2018/12/16/17:23:06.983012,54924,1545002586,982635314,,-0.0383972451091,0.0,-0.75,5.15277767181,False,False,False,False,False,False,False
2018/12/16/17:23:07.002954,54925,1545002587,2667656,,-0.0366519130766,0.0,-0.5625,5.15833330154,False,False,False,False,False,False,False
2018/12/16/17:23:07.023258,54926,1545002587,22950911,,-0.0366519130766,0.0,-0.5,5.16666650772,False,False,False,False,False,False,False
2018/12/16/17:23:07.043252,54927,1545002587,43005426,,-0.0349065847695,0.0,-0.4375,5.17222213745,False,False,False,False,False,False,False
2018/12/16/17:23:07.063430,54928,1545002587,62771793,,-0.0314159281552,0.0,-0.375,5.17777776718,False,False,False,False,False,False,False
2018/12/16/17:23:07.083045,54929,1545002587,82798589,,-0.0296705979854,0.0,-0.375,5.18611097336,False,False,False,False,False,False,False
2018/12/16/17:23:07.105117,54930,1545002587,102818562,,-0.0279252678156,0.0,-0.3125,5.18888902664,False,False,False,False,False,False,False
2018/12/16/17:23:07.123095,54931,1545002587,122847949,,-0.0244346093386,0.0,-0.3125,5.19722223282,False,False,False,False,False,False,False
2018/12/16/17:23:07.143315,54932,1545002587,142888837,,-0.0226892810315,0.0,-0.25,5.205555439,False,False,False,False,False,False,False
2018/12/16/17:23:07.163308,54933,1545002587,162976338,,-0.0209439508617,0.0,-0.25,5.21111106873,False,False,False,False,False,False,False
2018/12/16/17:23:07.183347,54934,1545002587,182981823,,-0.0174532923847,0.0,-0.25,5.2194442749,False,False,False,False,False,False,False
2018/12/16/17:23:07.203215,54935,1545002587,202976959,,-0.0174532923847,0.0,-0.3125,5.22499990463,False,False,False,False,False,False,False
2018/12/16/17:23:07.223640,54936,1545002587,223282116,,-0.0139626339078,0.0,-0.25,5.23611116409,False,False,False,False,False,False,False
2018/12/16/17:23:07.243481,54937,1545002587,243054759,,-0.0122173046693,0.0,-0.25,5.24444437027,False,False,False,False,False,False,False
2018/12/16/17:23:07.263732,54938,1545002587,263348185,,-0.0122173046693,0.0,-0.1875,5.25555562973,False,False,False,False,False,False,False
2018/12/16/17:23:07.283624,54939,1545002587,283385966,,-0.00872664619237,0.0,-0.125,5.26388883591,False,False,False,False,False,False,False
2018/12/16/17:23:07.303712,54940,1545002587,303412962,,-0.0069813169539,0.0,-0.1875,5.27500009537,False,False,False,False,False,False,False
2018/12/16/17:23:07.323411,54941,1545002587,323176603,,-0.0069813169539,0.0,-0.25,5.27500009537,False,False,False,False,False,False,False
2018/12/16/17:23:07.343860,54942,1545002587,343480075,,-0.00523598771542,0.0,-0.0625,5.2805557251,False,False,False,False,False,False,False
2018/12/16/17:23:07.364197,54943,1545002587,363412062,,-0.00349065847695,0.0,-0.4375,5.294444561,False,False,False,False,False,False,False
2018/12/16/17:23:07.383666,54944,1545002587,383419676,,-0.00349065847695,0.0,-0.375,5.30277776718,False,False,False,False,False,False,False
2018/12/16/17:23:07.403748,54945,1545002587,403415703,,-0.00174532923847,0.0,-0.3125,5.30555534363,False,False,False,False,False,False,False
2018/12/16/17:23:07.424039,54946,1545002587,423413970,,-0.00174532923847,0.0,-0.4375,5.31111097336,False,False,False,False,False,False,False
2018/12/16/17:23:07.443664,54947,1545002587,443350467,,-0.00174532923847,0.0,-0.4375,5.31666660309,False,False,False,False,False,False,False
2018/12/16/17:23:07.464198,54948,1545002587,463414733,,-0.00349065847695,0.0,-0.5,5.32499980927,False,False,False,False,False,False,False
2018/12/16/17:23:07.483685,54949,1545002587,483479979,,-0.00523598771542,0.0,-0.625,5.32777786255,False,False,False,False,False,False,False
2018/12/16/17:23:07.504023,54950,1545002587,503445134,,-0.0069813169539,0.0,-0.625,5.330555439,False,False,False,False,False,False,False
2018/12/16/17:23:07.523784,54951,1545002587,523492483,,-0.00872664619237,0.0,-0.6875,5.33611106873,False,False,False,False,False,False,False
2018/12/16/17:23:07.544076,54952,1545002587,543732474,,-0.0122173046693,0.0,-0.8125,5.3444442749,False,False,False,False,False,False,False
2018/12/16/17:23:07.564178,54953,1545002587,563547587,,-0.0174532923847,0.0,-0.8125,5.34999990463,False,False,False,False,False,False,False
2018/12/16/17:23:07.583803,54954,1545002587,583580448,,-0.0191986225545,0.0,-0.8125,5.35833311081,False,False,False,False,False,False,False
2018/12/16/17:23:07.604208,54955,1545002587,603619767,,-0.0226892810315,0.0,-0.875,5.36666679382,False,False,False,False,False,False,False
2018/12/16/17:23:07.623923,54956,1545002587,623662942,,-0.0261799395084,0.0,-0.75,5.37222242355,False,False,False,False,False,False,False
2018/12/16/17:23:07.643921,54957,1545002587,643680972,,-0.0296705979854,0.0,-0.75,5.38055562973,False,False,False,False,False,False,False
2018/12/16/17:23:07.664329,54958,1545002587,663744542,,-0.0314159281552,0.0,-0.8125,5.38888883591,False,False,False,False,False,False,False
2018/12/16/17:23:07.683997,54959,1545002587,683757661,,-0.0349065847695,0.0,-0.8125,5.39444446564,False,False,False,False,False,False,False
2018/12/16/17:23:07.704072,54960,1545002587,703774865,,-0.0349065847695,0.0,-0.875,5.40277767181,False,False,False,False,False,False,False
2018/12/16/17:23:07.724029,54961,1545002587,723804052,,-0.0366519130766,0.0,-0.875,5.41388893127,False,False,False,False,False,False,False
2018/12/16/17:23:07.744073,54962,1545002587,743838123,,-0.0366519130766,0.0,-0.8125,5.41666650772,False,False,False,False,False,False,False
2018/12/16/17:23:07.764077,54963,1545002587,763859853,,-0.0366519130766,0.0,-0.875,5.42222213745,False,False,False,False,False,False,False
2018/12/16/17:23:07.784376,54964,1545002587,783979271,,-0.0366519130766,0.0,-0.8125,5.42500019073,False,False,False,False,False,False,False
2018/12/16/17:23:07.804214,54965,1545002587,803978472,,-0.0366519130766,0.0,-0.75,5.42777776718,False,False,False,False,False,False,False
2018/12/16/17:23:07.824425,54966,1545002587,823988464,,-0.0383972451091,0.0,-0.875,5.43055534363,False,False,False,False,False,False,False
2018/12/16/17:23:07.844975,54967,1545002587,844009526,,-0.0383972451091,0.0,-0.625,5.43333339691,False,False,False,False,False,False,False
2018/12/16/17:23:07.864258,54968,1545002587,864021394,,-0.0383972451091,0.0,-0.8125,5.43888902664,False,False,False,False,False,False,False
2018/12/16/17:23:07.884655,54969,1545002587,884077165,,-0.0383972451091,0.0,-0.625,5.44166660309,False,False,False,False,False,False,False
2018/12/16/17:23:07.904542,54970,1545002587,904101110,,-0.0383972451091,0.0,-0.6875,5.44166660309,False,False,False,False,False,False,False
2018/12/16/17:23:07.924684,54971,1545002587,924125530,,-0.0383972451091,0.0,-0.6875,5.44444465637,False,False,False,False,False,False,False
2018/12/16/17:23:07.944405,54972,1545002587,944162537,,-0.0383972451091,0.0,-0.625,5.45277786255,False,False,False,False,False,False,False
2018/12/16/17:23:07.964446,54973,1545002587,964177842,,-0.0383972451091,0.0,-0.8125,5.455555439,False,False,False,False,False,False,False
2018/12/16/17:23:07.984629,54974,1545002587,984205244,,-0.0401425734162,0.0,-0.75,5.46111106873,False,False,False,False,False,False,False
2018/12/16/17:23:08.004464,54975,1545002588,4243893,,-0.0418879017234,0.0,-0.8125,5.46388912201,False,False,False,False,False,False,False
2018/12/16/17:23:08.024602,54976,1545002588,24289686,,-0.0418879017234,0.0,-0.8125,5.4694442749,False,False,False,False,False,False,False
2018/12/16/17:23:08.044729,54977,1545002588,44319285,,-0.0436332300305,0.0,-0.8125,5.47777795792,False,False,False,False,False,False,False
2018/12/16/17:23:08.064721,54978,1545002588,64343468,,-0.045378562063,0.0,-0.8125,5.48333311081,False,False,False,False,False,False,False
2018/12/16/17:23:08.084654,54979,1545002588,84387108,,-0.0471238903701,0.0,-0.875,5.48611116409,False,False,False,False,False,False,False
2018/12/16/17:23:08.104759,54980,1545002588,104402873,,-0.0471238903701,0.0,-0.875,5.48888874054,False,False,False,False,False,False,False
2018/12/16/17:23:08.124806,54981,1545002588,124459668,,-0.0471238903701,0.0,-0.875,5.49166679382,False,False,False,False,False,False,False
2018/12/16/17:23:08.144800,54982,1545002588,144496150,,-0.0471238903701,0.0,-0.8125,5.49166679382,False,False,False,False,False,False,False
2018/12/16/17:23:08.164765,54983,1545002588,164528245,,-0.0471238903701,0.0,-0.625,5.49444437027,False,False,False,False,False,False,False
2018/12/16/17:23:08.184796,54984,1545002588,184538763,,-0.0471238903701,0.0,-0.5625,5.49722242355,False,False,False,False,False,False,False
2018/12/16/17:23:08.205227,54985,1545002588,204592187,,-0.045378562063,0.0,-0.4375,5.49722242355,False,False,False,False,False,False,False
2018/12/16/17:23:08.224939,54986,1545002588,224629505,,-0.0436332300305,0.0,-0.4375,5.49722242355,False,False,False,False,False,False,False
2018/12/16/17:23:08.245612,54987,1545002588,244894944,,-0.0418879017234,0.0,-0.375,5.49722242355,False,False,False,False,False,False,False
2018/12/16/17:23:08.264995,54988,1545002588,264709567,,-0.0383972451091,0.0,-0.375,5.50277757645,False,False,False,False,False,False,False
2018/12/16/17:23:08.285007,54989,1545002588,284709194,,-0.0349065847695,0.0,-0.3125,5.5,False,False,False,False,False,False,False
2018/12/16/17:23:08.305048,54990,1545002588,304745684,,-0.0314159281552,0.0,-0.3125,5.5,False,False,False,False,False,False,False
2018/12/16/17:23:08.325217,54991,1545002588,324804047,,-0.0279252678156,0.0,-0.25,5.50277757645,False,False,False,False,False,False,False
2018/12/16/17:23:08.345074,54992,1545002588,344814740,,-0.0244346093386,0.0,-0.125,5.50277757645,False,False,False,False,False,False,False
2018/12/16/17:23:08.365144,54993,1545002588,364843489,,-0.0191986225545,0.0,-0.125,5.50833320618,False,False,False,False,False,False,False
2018/12/16/17:23:08.385284,54994,1545002588,384983032,,-0.0157079640776,0.0,-0.0625,5.51111125946,False,False,False,False,False,False,False
2018/12/16/17:23:08.405567,54995,1545002588,404981662,,-0.0139626339078,0.0,0.125,5.51111125946,False,False,False,False,False,False,False
2018/12/16/17:23:08.425491,54996,1545002588,425286212,,-0.0122173046693,0.0,-0.3125,5.51111125946,False,False,False,False,False,False,False
2018/12/16/17:23:08.445325,54997,1545002588,445013171,,-0.0122173046693,0.0,-0.0625,5.51944446564,False,False,False,False,False,False,False
2018/12/16/17:23:08.465283,54998,1545002588,465032980,,-0.00872664619237,0.0,-0.3125,5.51944446564,False,False,False,False,False,False,False
2018/12/16/17:23:08.485385,54999,1545002588,485060838,,-0.00872664619237,0.0,-0.3125,5.52222204208,False,False,False,False,False,False,False
2018/12/16/17:23:08.505655,55000,1545002588,505086104,,-0.00872664619237,0.0,-0.4375,5.51944446564,False,False,False,False,False,False,False
2018/12/16/17:23:08.525504,55001,1545002588,525138020,,-0.0104719754308,0.0,-0.375,5.52222204208,False,False,False,False,False,False,False
2018/12/16/17:23:08.545518,55002,1545002588,545188697,,-0.0104719754308,0.0,-0.625,5.52222204208,False,False,False,False,False,False,False
2018/12/16/17:23:08.565926,55003,1545002588,565406084,,-0.0122173046693,0.0,-0.5625,5.51388883591,False,False,False,False,False,False,False
2018/12/16/17:23:08.585482,55004,1545002588,585243239,,-0.0122173046693,0.0,-0.6875,5.51666688919,False,False,False,False,False,False,False
2018/12/16/17:23:08.605838,55005,1545002588,605278961,,-0.0122173046693,0.0,-0.75,5.51666688919,False,False,False,False,False,False,False
2018/12/16/17:23:08.625504,55006,1545002588,625294085,,-0.0139626339078,0.0,-0.6875,5.51388883591,False,False,False,False,False,False,False
2018/12/16/17:23:08.645657,55007,1545002588,645447338,,-0.0139626339078,0.0,-0.75,5.51388883591,False,False,False,False,False,False,False
2018/12/16/17:23:08.666375,55008,1545002588,665590856,,-0.0139626339078,0.0,-0.625,5.51388883591,False,False,False,False,False,False,False
2018/12/16/17:23:08.685632,55009,1545002588,685386013,,-0.0157079640776,0.0,-0.625,5.51666688919,False,False,False,False,False,False,False
2018/12/16/17:23:08.705719,55010,1545002588,705438923,,-0.0174532923847,0.0,-0.625,5.51111125946,False,False,False,False,False,False,False
2018/12/16/17:23:08.725726,55011,1545002588,725438681,,-0.0174532923847,0.0,-0.625,5.51666688919,False,False,False,False,False,False,False
2018/12/16/17:23:08.745741,55012,1545002588,745491841,,-0.0174532923847,0.0,-0.625,5.51666688919,False,False,False,False,False,False,False
2018/12/16/17:23:08.765832,55013,1545002588,765505159,,-0.0174532923847,0.0,-0.625,5.51388883591,False,False,False,False,False,False,False
2018/12/16/17:23:08.785793,55014,1545002588,785571985,,-0.0174532923847,0.0,-0.5625,5.51666688919,False,False,False,False,False,False,False
2018/12/16/17:23:08.805840,55015,1545002588,805569963,,-0.0174532923847,0.0,-0.5,5.51666688919,False,False,False,False,False,False,False
2018/12/16/17:23:08.825863,55016,1545002588,825608837,,-0.0174532923847,0.0,-0.5,5.51666688919,False,False,False,False,False,False,False
2018/12/16/17:23:08.845918,55017,1545002588,845663058,,-0.0157079640776,0.0,-0.3125,5.51388883591,False,False,False,False,False,False,False
2018/12/16/17:23:08.865965,55018,1545002588,865690366,,-0.0122173046693,0.0,-0.3125,5.51388883591,False,False,False,False,False,False,False
2018/12/16/17:23:08.885980,55019,1545002588,885723986,,-0.00872664619237,0.0,-0.25,5.51111125946,False,False,False,False,False,False,False
2018/12/16/17:23:08.905986,55020,1545002588,905747490,,-0.00349065847695,0.0,-0.125,5.51111125946,False,False,False,False,False,False,False
2018/12/16/17:23:08.926069,55021,1545002588,925791930,,0.0,0.0,-0.1875,5.50833320618,False,False,False,False,False,False,False
2018/12/16/17:23:08.946174,55022,1545002588,945973543,,0.00523598771542,0.0,-0.1875,5.50833320618,False,False,False,False,False,False,False
2018/12/16/17:23:08.966057,55023,1545002588,965855154,,0.0122173046693,0.0,0.0,5.50555562973,False,False,False,False,False,False,False
2018/12/16/17:23:08.986090,55024,1545002588,985869608,,0.0174532923847,0.0,-0.0625,5.49722242355,False,False,False,False,False,False,False
2018/12/16/17:23:09.006172,55025,1545002589,5976445,,0.0226892810315,0.0,-0.3125,5.49444437027,False,False,False,False,False,False,False
2018/12/16/17:23:09.026174,55026,1545002589,25987917,,0.0244346093386,0.0,0.0,5.49722242355,False,False,False,False,False,False,False
2018/12/16/17:23:09.046216,55027,1545002589,45974864,,0.0261799395084,0.0,-0.4375,5.49166679382,False,False,False,False,False,False,False
2018/12/16/17:23:09.066347,55028,1545002589,66004562,,0.0279252678156,0.0,-0.3125,5.48888874054,False,False,False,False,False,False,False
2018/12/16/17:23:09.086421,55029,1545002589,86040179,,0.0279252678156,0.0,-0.3125,5.49166679382,False,False,False,False,False,False,False
2018/12/16/17:23:09.106357,55030,1545002589,106083292,,0.0261799395084,0.0,-0.5625,5.49166679382,False,False,False,False,False,False,False
2018/12/16/17:23:09.126614,55031,1545002589,126372323,,0.0226892810315,0.0,-0.625,5.49444437027,False,False,False,False,False,False,False
2018/12/16/17:23:09.146329,55032,1545002589,146133295,,0.0191986225545,0.0,-0.625,5.49444437027,False,False,False,False,False,False,False
2018/12/16/17:23:09.166421,55033,1545002589,166170393,,0.0157079640776,0.0,-0.8125,5.49444437027,False,False,False,False,False,False,False
2018/12/16/17:23:09.186489,55034,1545002589,186221307,,0.00872664619237,0.0,-0.75,5.49166679382,False,False,False,False,False,False,False
2018/12/16/17:23:09.206529,55035,1545002589,206239895,,0.00349065847695,0.0,-0.75,5.48611116409,False,False,False,False,False,False,False
2018/12/16/17:23:09.226552,55036,1545002589,226296527,,-0.00174532923847,0.0,-0.75,5.48611116409,False,False,False,False,False,False,False
2018/12/16/17:23:09.246592,55037,1545002589,246335714,,-0.00872664619237,0.0,-0.8125,5.48611116409,False,False,False,False,False,False,False
2018/12/16/17:23:09.266741,55038,1545002589,266351411,,-0.0139626339078,0.0,-0.8125,5.47777795792,False,False,False,False,False,False,False
2018/12/16/17:23:09.286623,55039,1545002589,286377801,,-0.0174532923847,0.0,-0.9375,5.47499990463,False,False,False,False,False,False,False
2018/12/16/17:23:09.306622,55040,1545002589,306397961,,-0.0209439508617,0.0,-0.875,5.47222232819,False,False,False,False,False,False,False
2018/12/16/17:23:09.326704,55041,1545002589,326454986,,-0.0226892810315,0.0,-0.8125,5.46666669846,False,False,False,False,False,False,False
2018/12/16/17:23:09.346727,55042,1545002589,346492167,,-0.0226892810315,0.0,-0.8125,5.46111106873,False,False,False,False,False,False,False
2018/12/16/17:23:09.366788,55043,1545002589,366534243,,-0.0226892810315,0.0,-0.6875,5.455555439,False,False,False,False,False,False,False
2018/12/16/17:23:09.387610,55044,1545002589,386528222,,-0.0209439508617,0.0,-0.625,5.44999980927,False,False,False,False,False,False,False
2018/12/16/17:23:09.406822,55045,1545002589,406583539,,-0.0174532923847,0.0,-0.5,5.44444465637,False,False,False,False,False,False,False
2018/12/16/17:23:09.426924,55046,1545002589,426628519,,-0.0157079640776,0.0,-0.375,5.44166660309,False,False,False,False,False,False,False
2018/12/16/17:23:09.446997,55047,1545002589,446657767,,-0.0122173046693,0.0,-0.3125,5.43888902664,False,False,False,False,False,False,False
2018/12/16/17:23:09.466909,55048,1545002589,466680484,,-0.00872664619237,0.0,-0.3125,5.43333339691,False,False,False,False,False,False,False
2018/12/16/17:23:09.487050,55049,1545002589,486736918,,-0.00523598771542,0.0,-0.125,5.43333339691,False,False,False,False,False,False,False
2018/12/16/17:23:09.507230,55050,1545002589,506742652,,-0.00174532923847,0.0,-0.0625,5.43055534363,False,False,False,False,False,False,False
2018/12/16/17:23:09.527113,55051,1545002589,526790950,,0.0,0.0,-0.1875,5.43333339691,False,False,False,False,False,False,False
2018/12/16/17:23:09.547182,55052,1545002589,546821512,,0.0,0.0,-0.0625,5.43055534363,False,False,False,False,False,False,False
2018/12/16/17:23:09.567124,55053,1545002589,566844801,,0.0,0.0,-0.125,5.42222213745,False,False,False,False,False,False,False
2018/12/16/17:23:09.587252,55054,1545002589,586882273,,0.00174532923847,0.0,-0.3125,5.42500019073,False,False,False,False,False,False,False
2018/12/16/17:23:09.607246,55055,1545002589,606978146,,0.00174532923847,0.0,-0.3125,5.42222213745,False,False,False,False,False,False,False
2018/12/16/17:23:09.627274,55056,1545002589,626998807,,0.00174532923847,0.0,-0.4375,5.419444561,False,False,False,False,False,False,False
2018/12/16/17:23:09.647260,55057,1545002589,647004313,,0.00174532923847,0.0,-0.5,5.41666650772,False,False,False,False,False,False,False
2018/12/16/17:23:09.667503,55058,1545002589,667025513,,0.00174532923847,0.0,-0.5,5.41111087799,False,False,False,False,False,False,False
2018/12/16/17:23:09.687315,55059,1545002589,687071325,,0.00174532923847,0.0,-0.5,5.4055557251,False,False,False,False,False,False,False
2018/12/16/17:23:09.707388,55060,1545002589,707065908,,0.00174532923847,0.0,-0.4375,5.40277767181,False,False,False,False,False,False,False
2018/12/16/17:23:09.727411,55061,1545002589,727138622,,0.00174532923847,0.0,-0.375,5.40000009537,False,False,False,False,False,False,False
2018/12/16/17:23:09.747433,55062,1545002589,747162634,,0.00174532923847,0.0,-0.3125,5.39444446564,False,False,False,False,False,False,False
2018/12/16/17:23:09.767498,55063,1545002589,767180050,,0.00174532923847,0.0,-0.25,5.38611125946,False,False,False,False,False,False,False
2018/12/16/17:23:09.787537,55064,1545002589,787229552,,0.00349065847695,0.0,-0.25,5.38055562973,False,False,False,False,False,False,False
2018/12/16/17:23:09.807521,55065,1545002589,807249218,,0.00349065847695,0.0,-0.1875,5.375,False,False,False,False,False,False,False
2018/12/16/17:23:09.827546,55066,1545002589,827284717,,0.00523598771542,0.0,-0.1875,5.375,False,False,False,False,False,False,False
2018/12/16/17:23:09.847584,55067,1545002589,847312180,,0.00523598771542,0.0,-0.3125,5.37222242355,False,False,False,False,False,False,False
2018/12/16/17:23:09.867591,55068,1545002589,867357614,,0.00523598771542,0.0,-0.25,5.36944437027,False,False,False,False,False,False,False
2018/12/16/17:23:09.887672,55069,1545002589,887404806,,0.00523598771542,0.0,-0.375,5.36944437027,False,False,False,False,False,False,False
2018/12/16/17:23:09.907775,55070,1545002589,907394348,,0.00523598771542,0.0,-0.625,5.36944437027,False,False,False,False,False,False,False
2018/12/16/17:23:09.927755,55071,1545002589,927452678,,0.0,0.0,-0.75,5.36944437027,False,False,False,False,False,False,False
2018/12/16/17:23:09.947736,55072,1545002589,947486277,,-0.00523598771542,0.0,-0.9375,5.36666679382,False,False,False,False,False,False,False
2018/12/16/17:23:09.967787,55073,1545002589,967520218,,-0.0139626339078,0.0,-0.9375,5.36388874054,False,False,False,False,False,False,False
2018/12/16/17:23:09.987795,55074,1545002589,987543638,,-0.0261799395084,0.0,-1.0625,5.36111116409,False,False,False,False,False,False,False
2018/12/16/17:23:10.007908,55075,1545002590,7604135,,-0.0383972451091,0.0,-1.1875,5.36111116409,False,False,False,False,False,False,False
2018/12/16/17:23:10.027993,55076,1545002590,27624961,,-0.0488692186773,0.0,-1.0625,5.35555553436,False,False,False,False,False,False,False
2018/12/16/17:23:10.047937,55077,1545002590,47654335,,-0.0610865242779,0.0,-1.1875,5.35555553436,False,False,False,False,False,False,False
2018/12/16/17:23:10.068115,55078,1545002590,67680008,,-0.0715584978461,0.0,-1.125,5.35277795792,False,False,False,False,False,False,False
2018/12/16/17:23:10.088047,55079,1545002590,87726093,,-0.0785398185253,0.0,-1.0625,5.34722232819,False,False,False,False,False,False,False
2018/12/16/17:23:10.108012,55080,1545002590,107739139,,-0.0855211317539,0.0,-1.1875,5.33888912201,False,False,False,False,False,False,False
2018/12/16/17:23:10.128022,55081,1545002590,127794006,,-0.090757124126,0.0,-1.125,5.33611106873,False,False,False,False,False,False,False
2018/12/16/17:23:10.148244,55082,1545002590,147848192,,-0.0925024524331,0.0,-1.1875,5.32777786255,False,False,False,False,False,False,False
2018/12/16/17:23:10.168161,55083,1545002590,167877886,,-0.0977384373546,0.0,-1.0625,5.32499980927,False,False,False,False,False,False,False
2018/12/16/17:23:10.188330,55084,1545002590,187903615,,-0.0994837656617,0.0,-1.125,5.31666660309,False,False,False,False,False,False,False
2018/12/16/17:23:10.208287,55085,1545002590,207987199,,-0.101229093969,0.0,-1.125,5.31111097336,False,False,False,False,False,False,False
2018/12/16/17:23:10.228319,55086,1545002590,227978031,,-0.106465086341,0.0,-1.0,5.30833339691,False,False,False,False,False,False,False
2018/12/16/17:23:10.248317,55087,1545002590,248021267,,-0.109955742955,0.0,-1.125,5.30833339691,False,False,False,False,False,False,False
2018/12/16/17:23:10.268467,55088,1545002590,268007581,,-0.11344639957,0.0,-1.0,5.30833339691,False,False,False,False,False,False,False
2018/12/16/17:23:10.288287,55089,1545002590,288041333,,-0.116937056184,0.0,-0.875,5.30833339691,False,False,False,False,False,False,False
2018/12/16/17:23:10.308388,55090,1545002590,308100274,,-0.120427720249,0.0,-0.9375,5.30833339691,False,False,False,False,False,False,False
2018/12/16/17:23:10.328364,55091,1545002590,328128013,,-0.122173048556,0.0,-0.9375,5.30833339691,False,False,False,False,False,False,False
2018/12/16/17:23:10.348480,55092,1545002590,348139136,,-0.122173048556,0.0,-1.0,5.30555534363,False,False,False,False,False,False,False
2018/12/16/17:23:10.368691,55093,1545002590,368229366,,-0.123918376863,0.0,-0.9375,5.30555534363,False,False,False,False,False,False,False
2018/12/16/17:23:10.388468,55094,1545002590,388226773,,-0.125663712621,0.0,-1.0625,5.30277776718,False,False,False,False,False,False,False
2018/12/16/17:23:10.408548,55095,1545002590,408254534,,-0.127409040928,0.0,-1.0625,5.29722213745,False,False,False,False,False,False,False
2018/12/16/17:23:10.428506,55096,1545002590,428301639,,-0.127409040928,0.0,-0.9375,5.29166650772,False,False,False,False,False,False,False
2018/12/16/17:23:10.448690,55097,1545002590,448340755,,-0.127409040928,0.0,-0.9375,5.28611087799,False,False,False,False,False,False,False
2018/12/16/17:23:10.468690,55098,1545002590,468344347,,-0.127409040928,0.0,-0.875,5.2805557251,False,False,False,False,False,False,False
2018/12/16/17:23:10.488689,55099,1545002590,488374725,,-0.127409040928,0.0,-0.9375,5.27777767181,False,False,False,False,False,False,False
2018/12/16/17:23:10.508699,55100,1545002590,508445822,,-0.129154369235,0.0,-0.875,5.27222204208,False,False,False,False,False,False,False
2018/12/16/17:23:10.528743,55101,1545002590,528460521,,-0.127409040928,0.0,-0.8125,5.26388883591,False,False,False,False,False,False,False
2018/12/16/17:23:10.548878,55102,1545002590,548484972,,-0.127409040928,0.0,-0.75,5.25555562973,False,False,False,False,False,False,False
2018/12/16/17:23:10.568988,55103,1545002590,568512044,,-0.127409040928,0.0,-0.875,5.25,False,False,False,False,False,False,False
2018/12/16/17:23:10.588832,55104,1545002590,588573946,,-0.129154369235,0.0,-0.875,5.24722242355,False,False,False,False,False,False,False
2018/12/16/17:23:10.608881,55105,1545002590,608595510,,-0.129154369235,0.0,-0.8125,5.24166679382,False,False,False,False,False,False,False
2018/12/16/17:23:10.628841,55106,1545002590,628620015,,-0.129154369235,0.0,-0.8125,5.23888874054,False,False,False,False,False,False,False
2018/12/16/17:23:10.649070,55107,1545002590,648675622,,-0.129154369235,0.0,-0.75,5.24166679382,False,False,False,False,False,False,False
2018/12/16/17:23:10.668894,55108,1545002590,668665943,,-0.127409040928,0.0,-0.6875,5.22499990463,False,False,False,False,False,False,False
2018/12/16/17:23:10.689005,55109,1545002590,688745818,,-0.129154369235,0.0,-0.9375,5.2194442749,False,False,False,False,False,False,False
2018/12/16/17:23:10.709169,55110,1545002590,708751495,,-0.129154369235,0.0,-0.5,5.23333311081,False,False,False,False,False,False,False
2018/12/16/17:23:10.729067,55111,1545002590,728804577,,-0.127409040928,0.0,-0.8125,5.24166679382,False,False,False,False,False,False,False
2018/12/16/17:23:10.749096,55112,1545002590,748813070,,-0.127409040928,0.0,-0.25,5.22777795792,False,False,False,False,False,False,False
2018/12/16/17:23:10.769217,55113,1545002590,768872759,,-0.125663712621,0.0,-0.625,5.21666669846,False,False,False,False,False,False,False
2018/12/16/17:23:10.789190,55114,1545002590,788891440,,-0.127409040928,0.0,-0.875,5.23888874054,False,False,False,False,False,False,False
2018/12/16/17:23:10.809261,55115,1545002590,808981983,,-0.129154369235,0.0,-0.5,5.24166679382,False,False,False,False,False,False,False
2018/12/16/17:23:10.829239,55116,1545002590,829003694,,-0.123918376863,0.0,-0.75,5.23055553436,False,False,False,False,False,False,False
2018/12/16/17:23:10.849339,55117,1545002590,848991387,,-0.122173048556,0.0,-0.8125,5.21666669846,False,False,False,False,False,False,False
2018/12/16/17:23:10.869416,55118,1545002590,869028481,,-0.125663712621,0.0,-0.5625,5.21111106873,False,False,False,False,False,False,False
2018/12/16/17:23:10.889379,55119,1545002590,889081339,,-0.123918376863,0.0,-0.5625,5.19999980927,False,False,False,False,False,False,False
2018/12/16/17:23:10.909427,55120,1545002590,909095995,,-0.123918376863,0.0,-0.8125,5.19722223282,False,False,False,False,False,False,False
2018/12/16/17:23:10.929442,55121,1545002590,929127404,,-0.125663712621,0.0,-0.625,5.18888902664,False,False,False,False,False,False,False
2018/12/16/17:23:10.949581,55122,1545002590,949155982,,-0.123918376863,0.0,-0.6875,5.18611097336,False,False,False,False,False,False,False
2018/12/16/17:23:10.969416,55123,1545002590,969188347,,-0.123918376863,0.0,-0.75,5.18055534363,False,False,False,False,False,False,False
2018/12/16/17:23:10.989473,55124,1545002590,989225090,,-0.123918376863,0.0,-0.75,5.17500019073,False,False,False,False,False,False,False
2018/12/16/17:23:11.009491,55125,1545002591,9251741,,-0.123918376863,0.0,-0.6875,5.17222213745,False,False,False,False,False,False,False
2018/12/16/17:23:11.029503,55126,1545002591,29277137,,-0.123918376863,0.0,-0.75,5.169444561,False,False,False,False,False,False,False
2018/12/16/17:23:11.050004,55127,1545002591,49340124,,-0.123918376863,0.0,-0.75,5.16388893127,False,False,False,False,False,False,False
2018/12/16/17:23:11.069808,55128,1545002591,69371889,,-0.123918376863,0.0,-0.6875,5.16111087799,False,False,False,False,False,False,False
2018/12/16/17:23:11.089707,55129,1545002591,89400710,,-0.123918376863,0.0,-0.75,5.1555557251,False,False,False,False,False,False,False
2018/12/16/17:23:11.109710,55130,1545002591,109417071,,-0.123918376863,0.0,-0.75,5.15277767181,False,False,False,False,False,False,False
2018/12/16/17:23:11.129694,55131,1545002591,129451067,,-0.123918376863,0.0,-0.5625,5.15000009537,False,False,False,False,False,False,False
2018/12/16/17:23:11.149759,55132,1545002591,149502630,,-0.122173048556,0.0,-0.75,5.15000009537,False,False,False,False,False,False,False
2018/12/16/17:23:11.169778,55133,1545002591,169495801,,-0.123918376863,0.0,-0.625,5.14444446564,False,False,False,False,False,False,False
2018/12/16/17:23:11.189763,55134,1545002591,189555437,,-0.122173048556,0.0,-0.625,5.14166688919,False,False,False,False,False,False,False
2018/12/16/17:23:11.210059,55135,1545002591,209578361,,-0.122173048556,0.0,-0.5625,5.13611125946,False,False,False,False,False,False,False
2018/12/16/17:23:11.229904,55136,1545002591,229626595,,-0.122173048556,0.0,-0.5625,5.13055562973,False,False,False,False,False,False,False
2018/12/16/17:23:11.250083,55137,1545002591,249655733,,-0.120427720249,0.0,-0.5625,5.125,False,False,False,False,False,False,False
2018/12/16/17:23:11.269997,55138,1545002591,269682644,,-0.120427720249,0.0,-0.5,5.11666679382,False,False,False,False,False,False,False
2018/12/16/17:23:11.290055,55139,1545002591,289736804,,-0.120427720249,0.0,-0.625,5.11388874054,False,False,False,False,False,False,False
2018/12/16/17:23:11.310066,55140,1545002591,309726777,,-0.118682391942,0.0,-0.625,5.10555553436,False,False,False,False,False,False,False
2018/12/16/17:23:11.330053,55141,1545002591,329787184,,-0.116937056184,0.0,-0.625,5.09722232819,False,False,False,False,False,False,False
2018/12/16/17:23:11.350202,55142,1545002591,349843991,,-0.116937056184,0.0,-0.625,5.0944442749,False,False,False,False,False,False,False
2018/12/16/17:23:11.370166,55143,1545002591,369857826,,-0.115191727877,0.0,-0.5625,5.080555439,False,False,False,False,False,False,False
2018/12/16/17:23:11.390273,55144,1545002591,389903606,,-0.115191727877,0.0,-0.625,5.06944465637,False,False,False,False,False,False,False
2018/12/16/17:23:11.410271,55145,1545002591,409895712,,-0.115191727877,0.0,-0.625,5.05555534363,False,False,False,False,False,False,False
2018/12/16/17:23:11.430259,55146,1545002591,429989847,,-0.115191727877,0.0,-0.625,5.05277776718,False,False,False,False,False,False,False
2018/12/16/17:23:11.450418,55147,1545002591,449995016,,-0.115191727877,0.0,-0.625,5.044444561,False,False,False,False,False,False,False
2018/12/16/17:23:11.470266,55148,1545002591,470027452,,-0.115191727877,0.0,-0.625,5.03611087799,False,False,False,False,False,False,False
2018/12/16/17:23:11.490824,55149,1545002591,490037335,,-0.115191727877,0.0,-0.625,5.02222204208,False,False,False,False,False,False,False
2018/12/16/17:23:11.510553,55150,1545002591,510099510,,-0.115191727877,0.0,-0.6875,5.01944446564,False,False,False,False,False,False,False
2018/12/16/17:23:11.530376,55151,1545002591,530127920,,-0.115191727877,0.0,-0.6875,5.01666688919,False,False,False,False,False,False,False
2018/12/16/17:23:11.550424,55152,1545002591,550173967,,-0.115191727877,0.0,-0.6875,5.00833320618,False,False,False,False,False,False,False
2018/12/16/17:23:11.570472,55153,1545002591,570191125,,-0.115191727877,0.0,-0.625,5.0,False,False,False,False,False,False,False
2018/12/16/17:23:11.590456,55154,1545002591,590216503,,-0.115191727877,0.0,-0.625,4.98888874054,False,False,False,False,False,False,False
2018/12/16/17:23:11.610672,55155,1545002591,610228813,,-0.115191727877,0.0,-0.6875,4.97777795792,False,False,False,False,False,False,False
2018/12/16/17:23:11.630575,55156,1545002591,630292057,,-0.115191727877,0.0,-0.5625,4.97222232819,False,False,False,False,False,False,False
2018/12/16/17:23:11.650607,55157,1545002591,650312769,,-0.115191727877,0.0,-0.625,4.9694442749,False,False,False,False,False,False,False
2018/12/16/17:23:11.670624,55158,1545002591,670336971,,-0.115191727877,0.0,-0.5625,4.955555439,False,False,False,False,False,False,False
2018/12/16/17:23:11.690689,55159,1545002591,690400435,,-0.11344639957,0.0,-0.625,4.94722223282,False,False,False,False,False,False,False
2018/12/16/17:23:11.710717,55160,1545002591,710412591,,-0.109955742955,0.0,-0.5625,4.94166660309,False,False,False,False,False,False,False
2018/12/16/17:23:11.730774,55161,1545002591,730453289,,-0.106465086341,0.0,-0.4375,4.93333339691,False,False,False,False,False,False,False
2018/12/16/17:23:11.750807,55162,1545002591,750487728,,-0.102974422276,0.0,-0.4375,4.93055534363,False,False,False,False,False,False,False
2018/12/16/17:23:11.771642,55163,1545002591,770981993,,-0.0977384373546,0.0,-0.25,4.91666650772,False,False,False,False,False,False,False
2018/12/16/17:23:11.791326,55164,1545002591,790999129,,-0.0942477807403,0.0,-0.1875,4.9055557251,False,False,False,False,False,False,False
2018/12/16/17:23:11.811561,55165,1545002591,810992590,,-0.0890117883682,0.0,-0.1875,4.90277767181,False,False,False,False,False,False,False
2018/12/16/17:23:11.831351,55166,1545002591,830982429,,-0.0837758034468,0.0,-0.1875,4.90000009537,False,False,False,False,False,False,False
2018/12/16/17:23:11.851274,55167,1545002591,850984470,,-0.0785398185253,0.0,-0.125,4.88333320618,False,False,False,False,False,False,False
2018/12/16/17:23:11.871799,55168,1545002591,871013067,,-0.0750491544604,0.0,-0.375,4.87222242355,False,False,False,False,False,False,False
2018/12/16/17:23:11.891423,55169,1545002591,891008295,,-0.0733038261533,0.0,-0.3125,4.87222242355,False,False,False,False,False,False,False
2018/12/16/17:23:11.911305,55170,1545002591,910984490,,-0.0715584978461,0.0,-0.375,4.86388874054,False,False,False,False,False,False,False
2018/12/16/17:23:11.931223,55171,1545002591,930997142,,-0.069813169539,0.0,-0.5625,4.85833311081,False,False,False,False,False,False,False
2018/12/16/17:23:11.951374,55172,1545002591,950993364,,-0.0715584978461,0.0,-0.6875,4.85277795792,False,False,False,False,False,False,False
2018/12/16/17:23:11.972618,55173,1545002591,970984829,,-0.0715584978461,0.0,-0.8125,4.84722232819,False,False,False,False,False,False,False
2018/12/16/17:23:11.991506,55174,1545002591,990981593,,-0.0733038261533,0.0,-0.9375,4.84722232819,False,False,False,False,False,False,False
2018/12/16/17:23:12.011461,55175,1545002592,10985177,,-0.0750491544604,0.0,-0.9375,4.84166669846,False,False,False,False,False,False,False
2018/12/16/17:23:12.031735,55176,1545002592,30984117,,-0.0767944902182,0.0,-0.8125,4.83333349228,False,False,False,False,False,False,False
2018/12/16/17:23:12.051225,55177,1545002592,50991570,,-0.0785398185253,0.0,-0.9375,4.82777786255,False,False,False,False,False,False,False
2018/12/16/17:23:12.071826,55178,1545002592,71013196,,-0.0785398185253,0.0,-0.9375,4.82222223282,False,False,False,False,False,False,False
2018/12/16/17:23:12.091466,55179,1545002592,91033894,,-0.0802851468325,0.0,-0.875,4.81388902664,False,False,False,False,False,False,False
2018/12/16/17:23:12.111517,55180,1545002592,111210520,,-0.0802851468325,0.0,-1.0,4.80555534363,False,False,False,False,False,False,False
2018/12/16/17:23:12.131356,55181,1545002592,131111830,,-0.0802851468325,0.0,-1.125,4.79722213745,False,False,False,False,False,False,False
2018/12/16/17:23:12.151393,55182,1545002592,151141838,,-0.0837758034468,0.0,-1.125,4.79166650772,False,False,False,False,False,False,False
2018/12/16/17:23:12.171508,55183,1545002592,171166250,,-0.090757124126,0.0,-1.4375,4.78333330154,False,False,False,False,False,False,False
2018/12/16/17:23:12.191506,55184,1545002592,191226740,,-0.101229093969,0.0,-1.5,4.77500009537,False,False,False,False,False,False,False
2018/12/16/17:23:12.211815,55185,1545002592,211275672,,-0.120427720249,0.0,-1.625,4.76666688919,False,False,False,False,False,False,False
2018/12/16/17:23:12.231608,55186,1545002592,231271319,,-0.146607652307,0.0,-1.6875,4.76111125946,False,False,False,False,False,False,False
2018/12/16/17:23:12.251578,55187,1545002592,251303809,,-0.176278248429,0.0,-1.625,4.75555562973,False,False,False,False,False,False,False
2018/12/16/17:23:12.271824,55188,1545002592,271354995,,-0.20769418776,0.0,-1.6875,4.75,False,False,False,False,False,False,False
2018/12/16/17:23:12.291601,55189,1545002592,291382748,,-0.240855440497,0.0,-1.5625,4.74722242355,False,False,False,False,False,False,False
2018/12/16/17:23:12.311922,55190,1545002592,311404568,,-0.270526021719,0.0,-1.5625,4.74444437027,False,False,False,False,False,False,False
2018/12/16/17:23:12.331752,55191,1545002592,331460212,,-0.298451304436,0.0,-1.5625,4.74166679382,False,False,False,False,False,False,False
2018/12/16/17:23:12.351741,55192,1545002592,351479718,,-0.32114058733,0.0,-1.5,4.73888874054,False,False,False,False,False,False,False
2018/12/16/17:23:12.371805,55193,1545002592,371525665,,-0.34033921361,0.0,-1.5625,4.73333311081,False,False,False,False,False,False,False
2018/12/16/17:23:12.391864,55194,1545002592,391547053,,-0.356047153473,0.0,-1.5,4.72499990463,False,False,False,False,False,False,False
2018/12/16/17:23:12.411927,55195,1545002592,411584838,,-0.366519153118,0.0,-1.625,4.72222232819,False,False,False,False,False,False,False
2018/12/16/17:23:12.432260,55196,1545002592,431615623,,-0.376991122961,0.0,-1.6875,4.7194442749,False,False,False,False,False,False,False
2018/12/16/17:23:12.451977,55197,1545002592,451666000,,-0.385717779398,0.0,-1.6875,4.71666669846,False,False,False,False,False,False,False
2018/12/16/17:23:12.472128,55198,1545002592,471702157,,-0.399680405855,0.0,-1.75,4.71388912201,False,False,False,False,False,False,False
2018/12/16/17:23:12.492093,55199,1545002592,491696869,,-0.415388375521,0.0,-1.75,4.71111106873,False,False,False,False,False,False,False
2018/12/16/17:23:12.512225,55200,1545002592,511740210,,-0.434586971998,0.0,-1.75,4.705555439,False,False,False,False,False,False,False
2018/12/16/17:23:12.532720,55201,1545002592,531785667,,-0.457276254892,0.0,-1.8125,4.69999980927,False,False,False,False,False,False,False
2018/12/16/17:23:12.552510,55202,1545002592,551809331,,-0.483456194401,0.0,-1.875,4.69722223282,False,False,False,False,False,False,False
2018/12/16/17:23:12.572175,55203,1545002592,571850841,,-0.513126790524,0.0,-1.9375,4.69444465637,False,False,False,False,False,False,False
2018/12/16/17:23:12.592104,55204,1545002592,591863402,,-0.546288073063,0.0,-2.0,4.68888902664,False,False,False,False,False,False,False
2018/12/16/17:23:12.612276,55205,1545002592,611992005,,-0.579449295998,0.0,-2.0,4.68333339691,False,False,False,False,False,False,False
2018/12/16/17:23:12.632488,55206,1545002592,632086274,,-0.617846548557,0.0,-2.0625,4.68055534363,False,False,False,False,False,False,False
