time,.header.seq,.header.stamp.secs,.header.stamp.nsecs,.header.frame_id,.twist.linear.x,.twist.linear.y,.twist.linear.z,.twist.angular.x,.twist.angular.y,.twist.angular.z
2018/12/16/17:22:06.353067,51891,1545002526,221486647,base_footprint,0.447222232819,0.0,0.0,0.0,0.0,-0.00129548552231
2018/12/16/17:22:06.353681,51892,1545002526,241514523,base_footprint,0.463888883591,0.0,0.0,0.0,0.0,-0.00132456696087
2018/12/16/17:22:06.353993,51893,1545002526,261528749,base_footprint,0.480555564165,0.0,0.0,0.0,0.0,-0.00133238184602
2018/12/16/17:22:06.354050,51894,1545002526,281582410,base_footprint,0.497222214937,0.0,0.0,0.0,0.0,-0.00135801475564
2018/12/16/17:22:06.354085,51895,1545002526,301620435,base_footprint,0.513888895512,0.0,0.0,0.0,0.0,-0.00136100186472
2018/12/16/17:22:06.354110,51896,1545002526,321641032,base_footprint,0.533333361149,0.0,0.0,0.0,0.0,-0.0013683571103
2018/12/16/17:22:06.354141,51897,1545002526,341677765,base_footprint,0.547222197056,0.0,0.0,0.0,0.0,-0.00138134547657
2018/12/16/17:22:06.362292,51898,1545002526,361697209,base_footprint,0.566666662693,0.0,0.0,0.0,0.0,-0.00138352795365
2018/12/16/17:22:06.383223,51899,1545002526,381723155,base_footprint,0.583333313465,0.0,0.0,0.0,0.0,-0.00142421991376
2018/12/16/17:22:06.402464,51900,1545002526,401889246,base_footprint,0.600000023842,0.0,0.0,0.0,0.0,-0.0014649120194
2018/12/16/17:22:06.422208,51901,1545002526,421805223,base_footprint,0.619444429874,0.0,0.0,0.0,0.0,-0.001538020529
2018/12/16/17:22:06.442158,51902,1545002526,441836130,base_footprint,0.638888895512,0.0,0.0,0.0,0.0,-0.00158629925407
2018/12/16/17:22:06.463027,51903,1545002526,461923200,base_footprint,0.658333361149,0.0,0.0,0.0,0.0,-0.00166182186211
2018/12/16/17:22:06.482297,51904,1545002526,481932786,base_footprint,0.677777767181,0.0,0.0,0.0,0.0,-0.0017389537098
2018/12/16/17:22:06.502312,51905,1545002526,501956667,base_footprint,0.697222232819,0.0,0.0,0.0,0.0,-0.00181769510542
2018/12/16/17:22:06.522257,51906,1545002526,521983175,base_footprint,0.716666638851,0.0,0.0,0.0,0.0,-0.00192770384738
2018/12/16/17:22:06.542345,51907,1545002526,542034000,base_footprint,0.736111104488,0.0,0.0,0.0,0.0,-0.00204093167452
2018/12/16/17:22:06.562454,51908,1545002526,562070315,base_footprint,0.755555570126,0.0,0.0,0.0,0.0,-0.00215737858934
2018/12/16/17:22:06.582662,51909,1545002526,582091823,base_footprint,0.772222220898,0.0,0.0,0.0,0.0,-0.00223692525498
2018/12/16/17:22:06.604156,51910,1545002526,602112200,base_footprint,0.78888887167,0.0,0.0,0.0,0.0,-0.00235049891723
2018/12/16/17:22:06.622702,51911,1545002526,622406577,base_footprint,0.811111092567,0.0,0.0,0.0,0.0,-0.00248384431184
2018/12/16/17:22:06.642521,51912,1545002526,642181864,base_footprint,0.833333313465,0.0,0.0,0.0,0.0,-0.00262086857437
2018/12/16/17:22:06.662556,51913,1545002526,662224688,base_footprint,0.852777779102,0.0,0.0,0.0,0.0,-0.00275260566586
2018/12/16/17:22:06.682628,51914,1545002526,682261748,base_footprint,0.87222224474,0.0,0.0,0.0,0.0,-0.00288756186214
2018/12/16/17:22:06.702607,51915,1545002526,702277928,base_footprint,0.891666650772,0.0,0.0,0.0,0.0,-0.00306263854514
2018/12/16/17:22:06.722631,51916,1545002526,722312503,base_footprint,0.911111116409,0.0,0.0,0.0,0.0,-0.00320483791711
2018/12/16/17:22:06.742636,51917,1545002526,742340209,base_footprint,0.930555582047,0.0,0.0,0.0,0.0,-0.00335025682408
2018/12/16/17:22:06.762694,51918,1545002526,762394377,base_footprint,0.949999988079,0.0,0.0,0.0,0.0,-0.00349889442736
2018/12/16/17:22:06.782727,51919,1545002526,782428824,base_footprint,0.969444453716,0.0,0.0,0.0,0.0,-0.0036507515153
2018/12/16/17:22:06.802925,51920,1545002526,802442335,base_footprint,0.991666674614,0.0,0.0,0.0,0.0,-0.00381651834716
2018/12/16/17:22:06.822954,51921,1545002526,822483871,base_footprint,1.01666665077,0.0,0.0,0.0,0.0,-0.00395480880606
2018/12/16/17:22:06.843029,51922,1545002526,842508790,base_footprint,1.03888893127,0.0,0.0,0.0,0.0,-0.00404125294245
2018/12/16/17:22:06.862996,51923,1545002526,862561684,base_footprint,1.06111109257,0.0,0.0,0.0,0.0,-0.00412769661512
2018/12/16/17:22:06.883142,51924,1545002526,882591671,base_footprint,1.08333337307,0.0,0.0,0.0,0.0,-0.00425897574332
2018/12/16/17:22:06.902990,51925,1545002526,902624177,base_footprint,1.1027777195,0.0,0.0,0.0,0.0,-0.00433541850955
2018/12/16/17:22:06.923764,51926,1545002526,922640674,base_footprint,1.125,0.0,0.0,0.0,0.0,-0.00437622292758
2018/12/16/17:22:06.943415,51927,1545002526,942700424,base_footprint,1.1472222805,0.0,0.0,0.0,0.0,-0.00446266706397
2018/12/16/17:22:06.963493,51928,1545002526,962699814,base_footprint,1.1694444418,0.0,0.0,0.0,0.0,-0.00454911073664
2018/12/16/17:22:06.983323,51929,1545002526,982753419,base_footprint,1.1916667223,0.0,0.0,0.0,0.0,-0.00463555487303
2018/12/16/17:22:07.003403,51930,1545002527,2786105,base_footprint,1.21388888359,0.0,0.0,0.0,0.0,-0.00477223672677
2018/12/16/17:22:07.023122,51931,1545002527,22819321,base_footprint,1.23611116409,0.0,0.0,0.0,0.0,-0.00491075856845
2018/12/16/17:22:07.043385,51932,1545002527,42858244,base_footprint,1.25833332539,0.0,0.0,0.0,0.0,-0.00510319744693
2018/12/16/17:22:07.063736,51933,1545002527,62938183,base_footprint,1.27777779102,0.0,0.0,0.0,0.0,-0.00523493775349
2018/12/16/17:22:07.083690,51934,1545002527,82927262,base_footprint,1.29999995232,0.0,0.0,0.0,0.0,-0.00554119211008
2018/12/16/17:22:07.103404,51935,1545002527,102972728,base_footprint,1.32222223282,0.0,0.0,0.0,0.0,-0.0058000831819
2018/12/16/17:22:07.123549,51936,1545002527,122975133,base_footprint,1.34444439411,0.0,0.0,0.0,0.0,-0.00612013725075
2018/12/16/17:22:07.143568,51937,1545002527,143020329,base_footprint,1.36666667461,0.0,0.0,0.0,0.0,-0.00644755244761
2018/12/16/17:22:07.163519,51938,1545002527,163069992,base_footprint,1.39166665077,0.0,0.0,0.0,0.0,-0.00679589274232
2018/12/16/17:22:07.183573,51939,1545002527,183089596,base_footprint,1.41111111641,0.0,0.0,0.0,0.0,-0.00718287089395
2018/12/16/17:22:07.203638,51940,1545002527,203115090,base_footprint,1.4333332777,0.0,0.0,0.0,0.0,-0.00765194188962
2018/12/16/17:22:07.223668,51941,1545002527,223137860,base_footprint,1.45277774334,0.0,0.0,0.0,0.0,-0.0081766725416
2018/12/16/17:22:07.243624,51942,1545002527,243190199,base_footprint,1.4777777195,0.0,0.0,0.0,0.0,-0.00874555935328
2018/12/16/17:22:07.263689,51943,1545002527,263212082,base_footprint,1.5,0.0,0.0,0.0,0.0,-0.00918752134273
2018/12/16/17:22:07.283861,51944,1545002527,283246800,base_footprint,1.52499997616,0.0,0.0,0.0,0.0,-0.00959314968572
2018/12/16/17:22:07.303861,51945,1545002527,303418600,base_footprint,1.54722225666,0.0,0.0,0.0,0.0,-0.00998912788104
2018/12/16/17:22:07.323814,51946,1545002527,323436994,base_footprint,1.56944441795,0.0,0.0,0.0,0.0,-0.0102625328139
2018/12/16/17:22:07.343749,51947,1545002527,343452641,base_footprint,1.59166669846,0.0,0.0,0.0,0.0,-0.0105396192572
2018/12/16/17:22:07.363837,51948,1545002527,363466197,base_footprint,1.61388885975,0.0,0.0,0.0,0.0,-0.0108203857054
2018/12/16/17:22:07.383748,51949,1545002527,383430672,base_footprint,1.63611114025,0.0,0.0,0.0,0.0,-0.0111048338113
2018/12/16/17:22:07.403771,51950,1545002527,403512746,base_footprint,1.65833330154,0.0,0.0,0.0,0.0,-0.0113243129726
2018/12/16/17:22:07.423917,51951,1545002527,423495763,base_footprint,1.67777776718,0.0,0.0,0.0,0.0,-0.0115265479993
2018/12/16/17:22:07.444086,51952,1545002527,443672200,base_footprint,1.70000004768,0.0,0.0,0.0,0.0,-0.0116792179106
2018/12/16/17:22:07.463992,51953,1545002527,463675036,base_footprint,1.72222220898,0.0,0.0,0.0,0.0,-0.0118318870029
2018/12/16/17:22:07.484013,51954,1545002527,483751517,base_footprint,1.74444448948,0.0,0.0,0.0,0.0,-0.0119845569142
2018/12/16/17:22:07.503977,51955,1545002527,503691198,base_footprint,1.76666665077,0.0,0.0,0.0,0.0,-0.0121372260064
2018/12/16/17:22:07.524053,51956,1545002527,523680526,base_footprint,1.78611111641,0.0,0.0,0.0,0.0,-0.0122708119741
2018/12/16/17:22:07.544178,51957,1545002527,543749006,base_footprint,1.8083332777,0.0,0.0,0.0,0.0,-0.0124234810664
2018/12/16/17:22:07.564265,51958,1545002527,563869266,base_footprint,1.8305555582,0.0,0.0,0.0,0.0,-0.0125761509776
2018/12/16/17:22:07.584177,51959,1545002527,583745456,base_footprint,1.8527777195,0.0,0.0,0.0,0.0,-0.0128055200953
2018/12/16/17:22:07.604169,51960,1545002527,603919859,base_footprint,1.875,0.0,0.0,0.0,0.0,-0.0130367289528
2018/12/16/17:22:07.624442,51961,1545002527,623810705,base_footprint,1.8972222805,0.0,0.0,0.0,0.0,-0.013269779381
2018/12/16/17:22:07.644110,51962,1545002527,643836411,base_footprint,1.9194444418,0.0,0.0,0.0,0.0,-0.0135841292286
2018/12/16/17:22:07.664292,51963,1545002527,663921159,base_footprint,1.93888890743,0.0,0.0,0.0,0.0,-0.0138822723317
2018/12/16/17:22:07.684237,51964,1545002527,683923532,base_footprint,1.9555555582,0.0,0.0,0.0,0.0,-0.014163517944
2018/12/16/17:22:07.704189,51965,1545002527,703947044,base_footprint,1.97500002384,0.0,0.0,0.0,0.0,-0.0145496379418
2018/12/16/17:22:07.724416,51966,1545002527,723976044,base_footprint,1.98888885975,0.0,0.0,0.0,0.0,-0.0147342936758
2018/12/16/17:22:07.744364,51967,1545002527,744006210,base_footprint,2.00555562973,0.0,0.0,0.0,0.0,-0.0150238248062
2018/12/16/17:22:07.764345,51968,1545002527,764028762,base_footprint,2.01944446564,0.0,0.0,0.0,0.0,-0.0152950778119
2018/12/16/17:22:07.784398,51969,1545002527,784080072,base_footprint,2.03611111641,0.0,0.0,0.0,0.0,-0.0157584951863
2018/12/16/17:22:07.804504,51970,1545002527,804103585,base_footprint,2.05277776718,0.0,0.0,0.0,0.0,-0.0162274411747
2018/12/16/17:22:07.824436,51971,1545002527,824139443,base_footprint,2.06666660309,0.0,0.0,0.0,0.0,-0.0165083631987
2018/12/16/17:22:07.844486,51972,1545002527,844181801,base_footprint,2.080555439,0.0,0.0,0.0,0.0,-0.0168777277058
2018/12/16/17:22:07.864517,51973,1545002527,864216433,base_footprint,2.09444451332,0.0,0.0,0.0,0.0,-0.0172505501216
2018/12/16/17:22:07.884558,51974,1545002527,884242428,base_footprint,2.1027777195,0.0,0.0,0.0,0.0,-0.017580375634
2018/12/16/17:22:07.904617,51975,1545002527,904303840,base_footprint,2.11388897896,0.0,0.0,0.0,0.0,-0.0177607973617
2018/12/16/17:22:07.924728,51976,1545002527,924311532,base_footprint,2.125,0.0,0.0,0.0,0.0,-0.0179421361935
2018/12/16/17:22:07.944679,51977,1545002527,944375748,base_footprint,2.1333334446,0.0,0.0,0.0,0.0,-0.0180124984513
2018/12/16/17:22:07.964939,51978,1545002527,964415472,base_footprint,2.14444446564,0.0,0.0,0.0,0.0,-0.0181063127821
2018/12/16/17:22:07.984713,51979,1545002527,984414128,base_footprint,2.15555548668,0.0,0.0,0.0,0.0,-0.0182001271128
2018/12/16/17:22:08.004812,51980,1545002528,4442193,base_footprint,2.16388893127,0.0,0.0,0.0,0.0,-0.0182704893706
2018/12/16/17:22:08.024766,51981,1545002528,24497729,base_footprint,2.17222213745,0.0,0.0,0.0,0.0,-0.0183408496154
2018/12/16/17:22:08.044821,51982,1545002528,44502883,base_footprint,2.18055558205,0.0,0.0,0.0,0.0,-0.0184112118732
2018/12/16/17:22:08.065053,51983,1545002528,64554778,base_footprint,2.19166660309,0.0,0.0,0.0,0.0,-0.0185050262039
2018/12/16/17:22:08.084965,51984,1545002528,84580669,base_footprint,2.19722223282,0.0,0.0,0.0,0.0,-0.0185519343758
2018/12/16/17:22:08.105113,51985,1545002528,104609960,base_footprint,2.205555439,0.0,0.0,0.0,0.0,-0.0186222946206
2018/12/16/17:22:08.125242,51986,1545002528,124642219,base_footprint,2.21666669846,0.0,0.0,0.0,0.0,-0.0187161109644
2018/12/16/17:22:08.145199,51987,1545002528,144673723,base_footprint,2.22222232819,0.0,0.0,0.0,0.0,-0.0187630191363
2018/12/16/17:22:08.165259,51988,1545002528,164700504,base_footprint,2.22499990463,0.0,0.0,0.0,0.0,-0.0187864712091
2018/12/16/17:22:08.185146,51989,1545002528,184758362,base_footprint,2.23055553436,0.0,0.0,0.0,0.0,-0.018833379381
2018/12/16/17:22:08.205179,51990,1545002528,204769711,base_footprint,2.23888897896,0.0,0.0,0.0,0.0,-0.0188110415762
2018/12/16/17:22:08.225087,51991,1545002528,224808303,base_footprint,2.2416665554,0.0,0.0,0.0,0.0,-0.0188343786449
2018/12/16/17:22:08.245429,51992,1545002528,244841827,base_footprint,2.24722218513,0.0,0.0,0.0,0.0,-0.0188810567888
2018/12/16/17:22:08.265617,51993,1545002528,264932307,base_footprint,2.25277781487,0.0,0.0,0.0,0.0,-0.0188344587438
2018/12/16/17:22:08.285378,51994,1545002528,284922604,base_footprint,2.2583334446,0.0,0.0,0.0,0.0,-0.0187874027596
2018/12/16/17:22:08.305282,51995,1545002528,304948838,base_footprint,2.26666665077,0.0,0.0,0.0,0.0,-0.0187628777043
2018/12/16/17:22:08.325304,51996,1545002528,324973389,base_footprint,2.26944446564,0.0,0.0,0.0,0.0,-0.0186919086439
2018/12/16/17:22:08.345452,51997,1545002528,345025735,base_footprint,2.27500009537,0.0,0.0,0.0,0.0,-0.0187376666807
2018/12/16/17:22:08.365342,51998,1545002528,365065084,base_footprint,2.27777767181,0.0,0.0,0.0,0.0,-0.0185719274594
2018/12/16/17:22:08.385661,51999,1545002528,385087443,base_footprint,2.28055548668,0.0,0.0,0.0,0.0,-0.0185001532767
2018/12/16/17:22:08.405387,52000,1545002528,405111199,base_footprint,2.28611111641,0.0,0.0,0.0,0.0,-0.0184505701758
2018/12/16/17:22:08.425474,52001,1545002528,425166307,base_footprint,2.294444561,0.0,0.0,0.0,0.0,-0.0183278348311
2018/12/16/17:22:08.445825,52002,1545002528,445229164,base_footprint,2.29722213745,0.0,0.0,0.0,0.0,-0.0181598016584
2018/12/16/17:22:08.465728,52003,1545002528,465228778,base_footprint,2.30277776718,0.0,0.0,0.0,0.0,-0.0180130396838
2018/12/16/17:22:08.485616,52004,1545002528,485269115,base_footprint,2.30833339691,0.0,0.0,0.0,0.0,-0.0178653612911
2018/12/16/17:22:08.505785,52005,1545002528,505295002,base_footprint,2.31388878822,0.0,0.0,0.0,0.0,-0.017716763024
2018/12/16/17:22:08.525754,52006,1545002528,525311678,base_footprint,2.31944441795,0.0,0.0,0.0,0.0,-0.0174712239536
2018/12/16/17:22:08.545689,52007,1545002528,545348674,base_footprint,2.32500004768,0.0,0.0,0.0,0.0,-0.0172243075982
2018/12/16/17:22:08.566594,52008,1545002528,565369080,base_footprint,2.33333325386,0.0,0.0,0.0,0.0,-0.0169962493641
2018/12/16/17:22:08.585911,52009,1545002528,585401167,base_footprint,2.33888888359,0.0,0.0,0.0,0.0,-0.0167462366261
2018/12/16/17:22:08.605801,52010,1545002528,605470808,base_footprint,2.34444451332,0.0,0.0,0.0,0.0,-0.0164948481183
2018/12/16/17:22:08.625781,52011,1545002528,625471266,base_footprint,2.34999990463,0.0,0.0,0.0,0.0,-0.0163393662911
2018/12/16/17:22:08.645834,52012,1545002528,645520077,base_footprint,2.35833334923,0.0,0.0,0.0,0.0,-0.0162020519523
2018/12/16/17:22:08.665870,52013,1545002528,665555909,base_footprint,2.36388897896,0.0,0.0,0.0,0.0,-0.0160445055436
2018/12/16/17:22:08.686010,52014,1545002528,685585348,base_footprint,2.3666665554,0.0,0.0,0.0,0.0,-0.015769445675
2018/12/16/17:22:08.706054,52015,1545002528,705627026,base_footprint,2.37222218513,0.0,0.0,0.0,0.0,-0.0156100638581
2018/12/16/17:22:08.725976,52016,1545002528,725666932,base_footprint,2.38055562973,0.0,0.0,0.0,0.0,-0.0154678112125
2018/12/16/17:22:08.746060,52017,1545002528,745686136,base_footprint,2.38888883591,0.0,0.0,0.0,0.0,-0.0153241805775
2018/12/16/17:22:08.766141,52018,1545002528,765714029,base_footprint,2.39166665077,0.0,0.0,0.0,0.0,-0.0151439951918
2018/12/16/17:22:08.786039,52019,1545002528,785736485,base_footprint,2.39444446564,0.0,0.0,0.0,0.0,-0.0148642366564
2018/12/16/17:22:08.806227,52020,1545002528,805891330,base_footprint,2.40277767181,0.0,0.0,0.0,0.0,-0.0146175871337
2018/12/16/17:22:08.826093,52021,1545002528,825795560,base_footprint,2.41111111641,0.0,0.0,0.0,0.0,-0.0142690711179
2018/12/16/17:22:08.846186,52022,1545002528,845841500,base_footprint,2.419444561,0.0,0.0,0.0,0.0,-0.0138176561375
2018/12/16/17:22:08.866432,52023,1545002528,865928487,base_footprint,2.42777776718,0.0,0.0,0.0,0.0,-0.0134632880092
2018/12/16/17:22:08.886264,52024,1545002528,885925221,base_footprint,2.43333339691,0.0,0.0,0.0,0.0,-0.0129905068423
2018/12/16/17:22:08.906308,52025,1545002528,905980386,base_footprint,2.44166660309,0.0,0.0,0.0,0.0,-0.0125296886506
2018/12/16/17:22:08.926393,52026,1545002528,925990500,base_footprint,2.44722223282,0.0,0.0,0.0,0.0,-0.0120517514354
2018/12/16/17:22:08.946229,52027,1545002528,945991289,base_footprint,2.45277786255,0.0,0.0,0.0,0.0,-0.0115715223067
2018/12/16/17:22:08.966304,52028,1545002528,966046883,base_footprint,2.46388888359,0.0,0.0,0.0,0.0,-0.0110120869573
2018/12/16/17:22:08.986396,52029,1545002528,986071442,base_footprint,2.47222232819,0.0,0.0,0.0,0.0,-0.0106400562575
2018/12/16/17:22:09.006364,52030,1545002529,6115611,base_footprint,2.48333334923,0.0,0.0,0.0,0.0,-0.0103795419264
2018/12/16/17:22:09.026396,52031,1545002529,26124043,base_footprint,2.48888897896,0.0,0.0,0.0,0.0,-0.0100937419576
2018/12/16/17:22:09.046468,52032,1545002529,46175487,base_footprint,2.49722218513,0.0,0.0,0.0,0.0,-0.0101275374517
2018/12/16/17:22:09.066796,52033,1545002529,66225430,base_footprint,2.50555562973,0.0,0.0,0.0,0.0,-0.0101613339127
2018/12/16/17:22:09.086527,52034,1545002529,86244932,base_footprint,2.51388883591,0.0,0.0,0.0,0.0,-0.0101951294069
2018/12/16/17:22:09.106588,52035,1545002529,106277313,base_footprint,2.5222222805,0.0,0.0,0.0,0.0,-0.0102289258679
2018/12/16/17:22:09.126607,52036,1545002529,126305806,base_footprint,2.53055548668,0.0,0.0,0.0,0.0,-0.010262721362
2018/12/16/17:22:09.146576,52037,1545002529,146339717,base_footprint,2.53888893127,0.0,0.0,0.0,0.0,-0.010296517823
2018/12/16/17:22:09.166677,52038,1545002529,166368874,base_footprint,2.54999995232,0.0,0.0,0.0,0.0,-0.0103415788041
2018/12/16/17:22:09.186726,52039,1545002529,186392941,base_footprint,2.55555558205,0.0,0.0,0.0,0.0,-0.0102583443376
2018/12/16/17:22:09.206791,52040,1545002529,206451835,base_footprint,2.55833339691,0.0,0.0,0.0,0.0,-0.0102694948606
2018/12/16/17:22:09.226796,52041,1545002529,226473221,base_footprint,2.56388878822,0.0,0.0,0.0,0.0,-0.0102917949497
2018/12/16/17:22:09.246963,52042,1545002529,246500371,base_footprint,2.57500004768,0.0,0.0,0.0,0.0,-0.0103363970418
2018/12/16/17:22:09.266881,52043,1545002529,266555774,base_footprint,2.58611106873,0.0,0.0,0.0,0.0,-0.0102739684412
2018/12/16/17:22:09.286866,52044,1545002529,286577693,base_footprint,2.59166669846,0.0,0.0,0.0,0.0,-0.0101887801833
2018/12/16/17:22:09.306999,52045,1545002529,306603159,base_footprint,2.59722232819,0.0,0.0,0.0,0.0,-0.00999564361788
2018/12/16/17:22:09.327067,52046,1545002529,326629493,base_footprint,2.60555553436,0.0,0.0,0.0,0.0,-0.00981204831158
2018/12/16/17:22:09.346989,52047,1545002529,346692235,base_footprint,2.61388897896,0.0,0.0,0.0,0.0,-0.0095188983347
2018/12/16/17:22:09.367009,52048,1545002529,366724176,base_footprint,2.61944437027,0.0,0.0,0.0,0.0,-0.00910550269201
2018/12/16/17:22:09.387017,52049,1545002529,386783216,base_footprint,2.62222218513,0.0,0.0,0.0,0.0,-0.00878959732259
2018/12/16/17:22:09.407352,52050,1545002529,406794133,base_footprint,2.62777781487,0.0,0.0,0.0,0.0,-0.00848197065996
2018/12/16/17:22:09.427091,52051,1545002529,426801415,base_footprint,2.63611102104,0.0,0.0,0.0,0.0,-0.00818158726631
2018/12/16/17:22:09.447297,52052,1545002529,446926096,base_footprint,2.64444446564,0.0,0.0,0.0,0.0,-0.00776969943305
2018/12/16/17:22:09.467445,52053,1545002529,466923245,base_footprint,2.6472222805,0.0,0.0,0.0,0.0,-0.00755875662226
2018/12/16/17:22:09.487171,52054,1545002529,486922962,base_footprint,2.65277767181,0.0,0.0,0.0,0.0,-0.00724527407172
2018/12/16/17:22:09.507236,52055,1545002529,506947864,base_footprint,2.65833330154,0.0,0.0,0.0,0.0,-0.00704042568741
2018/12/16/17:22:09.527240,52056,1545002529,526983915,base_footprint,2.66111111641,0.0,0.0,0.0,0.0,-0.00682753148913
2018/12/16/17:22:09.547295,52057,1545002529,547000614,base_footprint,2.66666674614,0.0,0.0,0.0,0.0,-0.00651072002156
2018/12/16/17:22:09.567325,52058,1545002529,567029416,base_footprint,2.669444561,0.0,0.0,0.0,0.0,-0.00640703255533
2018/12/16/17:22:09.587424,52059,1545002529,587091369,base_footprint,2.67499995232,0.0,0.0,0.0,0.0,-0.00630966697871
2018/12/16/17:22:09.607500,52060,1545002529,607117525,base_footprint,2.67777776718,0.0,0.0,0.0,0.0,-0.00631621916078
2018/12/16/17:22:09.627401,52061,1545002529,627133054,base_footprint,2.68333339691,0.0,0.0,0.0,0.0,-0.00621827956217
2018/12/16/17:22:09.647502,52062,1545002529,647195715,base_footprint,2.68888878822,0.0,0.0,0.0,0.0,-0.00623115346606
2018/12/16/17:22:09.667893,52063,1545002529,667213574,base_footprint,2.69444441795,0.0,0.0,0.0,0.0,-0.00624402792245
2018/12/16/17:22:09.687535,52064,1545002529,687244526,base_footprint,2.70000004768,0.0,0.0,0.0,0.0,-0.00625690237884
2018/12/16/17:22:09.707659,52065,1545002529,707285357,base_footprint,2.705555439,0.0,0.0,0.0,0.0,-0.00626977628273
2018/12/16/17:22:09.727607,52066,1545002529,727312937,base_footprint,2.71111106873,0.0,0.0,0.0,0.0,-0.00605826429673
2018/12/16/17:22:09.747617,52067,1545002529,747348712,base_footprint,2.71666669846,0.0,0.0,0.0,0.0,-0.00607067893869
2018/12/16/17:22:09.767926,52068,1545002529,767379230,base_footprint,2.72222232819,0.0,0.0,0.0,0.0,-0.00597044080039
2018/12/16/17:22:09.787739,52069,1545002529,787430124,base_footprint,2.7277777195,0.0,0.0,0.0,0.0,-0.00586974250207
2018/12/16/17:22:09.807833,52070,1545002529,807457210,base_footprint,2.73611116409,0.0,0.0,0.0,0.0,-0.00566122000981
2018/12/16/17:22:09.827760,52071,1545002529,827472870,base_footprint,2.7416665554,0.0,0.0,0.0,0.0,-0.00555925774884
2018/12/16/17:22:09.847810,52072,1545002529,847498954,base_footprint,2.74722218513,0.0,0.0,0.0,0.0,-0.00545683632536
2018/12/16/17:22:09.868028,52073,1545002529,867565759,base_footprint,2.75555562973,0.0,0.0,0.0,0.0,-0.00535935789436
2018/12/16/17:22:09.887819,52074,1545002529,887570440,base_footprint,2.76388883591,0.0,0.0,0.0,0.0,-0.00514681365369
2018/12/16/17:22:09.907900,52075,1545002529,907609275,base_footprint,2.76666665077,0.0,0.0,0.0,0.0,-0.00503749580003
2018/12/16/17:22:09.928103,52076,1545002529,927648957,base_footprint,2.7722222805,0.0,0.0,0.0,0.0,-0.00481817030938
2018/12/16/17:22:09.947990,52077,1545002529,947679967,base_footprint,2.77777767181,0.0,0.0,0.0,0.0,-0.00471287569034
2018/12/16/17:22:09.968027,52078,1545002529,967704241,base_footprint,2.78611111641,0.0,0.0,0.0,0.0,-0.00472701450672
2018/12/16/17:22:09.988122,52079,1545002529,987760261,base_footprint,2.79166674614,0.0,0.0,0.0,0.0,-0.00462091577314
2018/12/16/17:22:10.008048,52080,1545002530,7764984,base_footprint,2.79722213745,0.0,0.0,0.0,0.0,-0.00439860272824
2018/12/16/17:22:10.028055,52081,1545002530,27801080,base_footprint,2.80277776718,0.0,0.0,0.0,0.0,-0.00440733889823
2018/12/16/17:22:10.048134,52082,1545002530,47833305,base_footprint,2.80833339691,0.0,0.0,0.0,0.0,-0.00441607506821
2018/12/16/17:22:10.068325,52083,1545002530,67936721,base_footprint,2.81666660309,0.0,0.0,0.0,0.0,-0.00431262017362
2018/12/16/17:22:10.088308,52084,1545002530,87925918,base_footprint,2.82222223282,0.0,0.0,0.0,0.0,-0.00432112644157
2018/12/16/17:22:10.108290,52085,1545002530,107968970,base_footprint,2.82777786255,0.0,0.0,0.0,0.0,-0.00421261425119
2018/12/16/17:22:10.128220,52086,1545002530,127979088,base_footprint,2.83611106873,0.0,0.0,0.0,0.0,-0.00410766501109
2018/12/16/17:22:10.148343,52087,1545002530,148021874,base_footprint,2.84444451332,0.0,0.0,0.0,0.0,-0.00411973470722
2018/12/16/17:22:10.168376,52088,1545002530,168070446,base_footprint,2.8527777195,0.0,0.0,0.0,0.0,-0.00413180405804
2018/12/16/17:22:10.188396,52089,1545002530,188078697,base_footprint,2.86388897896,0.0,0.0,0.0,0.0,-0.00414789698621
2018/12/16/17:22:10.208402,52090,1545002530,208109477,base_footprint,2.87222218513,0.0,0.0,0.0,0.0,-0.00415996633702
2018/12/16/17:22:10.228598,52091,1545002530,228130965,base_footprint,2.87777781487,0.0,0.0,0.0,0.0,-0.00416801280111
2018/12/16/17:22:10.248641,52092,1545002530,248194505,base_footprint,2.88611102104,0.0,0.0,0.0,0.0,-0.00418008215193
2018/12/16/17:22:10.268483,52093,1545002530,268218651,base_footprint,2.89444446564,0.0,0.0,0.0,0.0,-0.00419215184805
2018/12/16/17:22:10.288920,52094,1545002530,288259213,base_footprint,2.90277767181,0.0,0.0,0.0,0.0,-0.00420422119887
2018/12/16/17:22:10.308558,52095,1545002530,308275046,base_footprint,2.90555548668,0.0,0.0,0.0,0.0,-0.00408800763414
2018/12/16/17:22:10.328787,52096,1545002530,328309621,base_footprint,2.91111111641,0.0,0.0,0.0,0.0,-0.00409582419688
2018/12/16/17:22:10.348660,52097,1545002530,348341587,base_footprint,2.91666674614,0.0,0.0,0.0,0.0,-0.00386224764212
2018/12/16/17:22:10.368671,52098,1545002530,368394373,base_footprint,2.92222213745,0.0,0.0,0.0,0.0,-0.00374867792863
2018/12/16/17:22:10.388752,52099,1545002530,388416693,base_footprint,2.93055558205,0.0,0.0,0.0,0.0,-0.00351682625124
2018/12/16/17:22:10.408701,52100,1545002530,408441487,base_footprint,2.93888878822,0.0,0.0,0.0,0.0,-0.00340521100654
2018/12/16/17:22:10.428792,52101,1545002530,428470456,base_footprint,2.94444441795,0.0,0.0,0.0,0.0,-0.00304611212241
2018/12/16/17:22:10.449001,52102,1545002530,448752882,base_footprint,2.95277786255,0.0,0.0,0.0,0.0,-0.00281035351938
2018/12/16/17:22:10.469040,52103,1545002530,468784634,base_footprint,2.95833325386,0.0,0.0,0.0,0.0,-0.00257080143451
2018/12/16/17:22:10.489124,52104,1545002530,488807304,base_footprint,2.96388888359,0.0,0.0,0.0,0.0,-0.00233033052755
2018/12/16/17:22:10.509105,52105,1545002530,508852848,base_footprint,2.98055553436,0.0,0.0,0.0,0.0,-0.00209675651752
2018/12/16/17:22:10.529205,52106,1545002530,528922538,base_footprint,2.98888897896,0.0,0.0,0.0,0.0,-0.00197893508552
2018/12/16/17:22:10.549231,52107,1545002530,548922642,base_footprint,2.9916665554,0.0,0.0,0.0,0.0,-0.00185697552842
2018/12/16/17:22:10.569221,52108,1545002530,568922479,base_footprint,3.00277781487,0.0,0.0,0.0,0.0,-0.00198813084517
2018/12/16/17:22:10.589217,52109,1545002530,588973464,base_footprint,3.01111102104,0.0,0.0,0.0,0.0,-0.00211825164321
2018/12/16/17:22:10.609231,52110,1545002530,609004757,base_footprint,3.01944446564,0.0,0.0,0.0,0.0,-0.00249895890354
2018/12/16/17:22:10.629395,52111,1545002530,629053198,base_footprint,3.02777767181,0.0,0.0,0.0,0.0,-0.00288173578643
2018/12/16/17:22:10.649669,52112,1545002530,649312324,base_footprint,3.03333330154,0.0,0.0,0.0,0.0,-0.00338911761038
2018/12/16/17:22:10.669405,52113,1545002530,669102900,base_footprint,3.04166674614,0.0,0.0,0.0,0.0,-0.00365016569755
2018/12/16/17:22:10.689455,52114,1545002530,689131369,base_footprint,3.04999995232,0.0,0.0,0.0,0.0,-0.00403880736114
2018/12/16/17:22:10.709531,52115,1545002530,709153407,base_footprint,3.05555558205,0.0,0.0,0.0,0.0,-0.00429905214449
2018/12/16/17:22:10.729470,52116,1545002530,729195102,base_footprint,3.06111121178,0.0,0.0,0.0,0.0,-0.00430686870723
2018/12/16/17:22:10.749488,52117,1545002530,749218775,base_footprint,3.07500004768,0.0,0.0,0.0,0.0,-0.00432640977863
2018/12/16/17:22:10.769468,52118,1545002530,769234723,base_footprint,3.08333325386,0.0,0.0,0.0,0.0,-0.00433813428729
2018/12/16/17:22:10.789578,52119,1545002530,789278789,base_footprint,3.08888888359,0.0,0.0,0.0,0.0,-0.00421812725548
2018/12/16/17:22:10.809625,52120,1545002530,809304271,base_footprint,3.09444451332,0.0,0.0,0.0,0.0,-0.0042257139166
2018/12/16/17:22:10.829662,52121,1545002530,829358679,base_footprint,3.10555553436,0.0,0.0,0.0,0.0,-0.00424088691325
2018/12/16/17:22:10.849761,52122,1545002530,849396973,base_footprint,3.11388897896,0.0,0.0,0.0,0.0,-0.00425226690492
2018/12/16/17:22:10.869715,52123,1545002530,869415538,base_footprint,3.12222218513,0.0,0.0,0.0,0.0,-0.00439284955556
2018/12/16/17:22:10.889736,52124,1545002530,889447082,base_footprint,3.1333334446,0.0,0.0,0.0,0.0,-0.00479747124101
2018/12/16/17:22:10.909706,52125,1545002530,909476746,base_footprint,3.14166665077,0.0,0.0,0.0,0.0,-0.00520025429273
2018/12/16/17:22:10.929749,52126,1545002530,929522035,base_footprint,3.1472222805,0.0,0.0,0.0,0.0,-0.00586064330593
2018/12/16/17:22:10.949773,52127,1545002530,949545953,base_footprint,3.15555548668,0.0,0.0,0.0,0.0,-0.00665966658376
2018/12/16/17:22:10.969897,52128,1545002530,969581285,base_footprint,3.16388893127,0.0,0.0,0.0,0.0,-0.00772469789886
2018/12/16/17:22:10.989884,52129,1545002530,989601923,base_footprint,3.17222213745,0.0,0.0,0.0,0.0,-0.00892653873598
2018/12/16/17:22:11.009894,52130,1545002531,9636773,base_footprint,3.17777776718,0.0,0.0,0.0,0.0,-0.0101257560429
2018/12/16/17:22:11.029979,52131,1545002531,29677867,base_footprint,3.18888878822,0.0,0.0,0.0,0.0,-0.0113489051302
2018/12/16/17:22:11.049969,52132,1545002531,49706078,base_footprint,3.19722223282,0.0,0.0,0.0,0.0,-0.0125694382487
2018/12/16/17:22:11.070021,52133,1545002531,69761882,base_footprint,3.20277786255,0.0,0.0,0.0,0.0,-0.0136516985179
2018/12/16/17:22:11.090047,52134,1545002531,89760514,base_footprint,3.21388888359,0.0,0.0,0.0,0.0,-0.0146301633317
2018/12/16/17:22:11.110036,52135,1545002531,109797265,base_footprint,3.22222232819,0.0,0.0,0.0,0.0,-0.0153349099452
2018/12/16/17:22:11.130290,52136,1545002531,129979605,base_footprint,3.23055553436,0.0,0.0,0.0,0.0,-0.0160431162791
2018/12/16/17:22:11.150229,52137,1545002531,149977244,base_footprint,3.2416665554,0.0,0.0,0.0,0.0,-0.0166349789921
2018/12/16/17:22:11.170227,52138,1545002531,169932509,base_footprint,3.25,0.0,0.0,0.0,0.0,-0.0170812961975
2018/12/16/17:22:11.190230,52139,1545002531,189924825,base_footprint,3.2583334446,0.0,0.0,0.0,0.0,-0.0173948226577
2018/12/16/17:22:11.210271,52140,1545002531,209992944,base_footprint,3.26388883591,0.0,0.0,0.0,0.0,-0.0174244804715
2018/12/16/17:22:11.230248,52141,1545002531,229995288,base_footprint,3.27500009537,0.0,0.0,0.0,0.0,-0.0172126912849
2018/12/16/17:22:11.250703,52142,1545002531,250028054,base_footprint,3.28888893127,0.0,0.0,0.0,0.0,-0.0164689281491
2018/12/16/17:22:11.270490,52143,1545002531,270071493,base_footprint,3.28333330154,0.0,0.0,0.0,0.0,-0.0152180678467
2018/12/16/17:22:11.290491,52144,1545002531,290092866,base_footprint,3.28611111641,0.0,0.0,0.0,0.0,-0.0137348971367
2018/12/16/17:22:11.310468,52145,1545002531,310142935,base_footprint,3.30833339691,0.0,0.0,0.0,0.0,-0.012869337301
2018/12/16/17:22:11.330406,52146,1545002531,330135121,base_footprint,3.31944441795,0.0,0.0,0.0,0.0,-0.0118135382844
2018/12/16/17:22:11.350446,52147,1545002531,350200773,base_footprint,3.32222223282,0.0,0.0,0.0,0.0,-0.010860994807
2018/12/16/17:22:11.370479,52148,1545002531,370216634,base_footprint,3.330555439,0.0,0.0,0.0,0.0,-0.0101990729238
2018/12/16/17:22:11.390774,52149,1545002531,390494502,base_footprint,3.33888888359,0.0,0.0,0.0,0.0,-0.00981006158493
2018/12/16/17:22:11.410825,52150,1545002531,410550399,base_footprint,3.34722232819,0.0,0.0,0.0,0.0,-0.00955750453058
2018/12/16/17:22:11.430871,52151,1545002531,430572867,base_footprint,3.35555553436,0.0,0.0,0.0,0.0,-0.00958129878384
2018/12/16/17:22:11.451130,52152,1545002531,450549517,base_footprint,3.36388897896,0.0,0.0,0.0,0.0,-0.00960509371786
2018/12/16/17:22:11.470815,52153,1545002531,470544925,base_footprint,3.375,0.0,0.0,0.0,0.0,-0.00977648989015
2018/12/16/17:22:11.490886,52154,1545002531,490591075,base_footprint,3.3833334446,0.0,0.0,0.0,0.0,-0.00980062969366
2018/12/16/17:22:11.510806,52155,1545002531,510550401,base_footprint,3.39444446564,0.0,0.0,0.0,0.0,-0.0098328154077
2018/12/16/17:22:11.530945,52156,1545002531,530547422,base_footprint,3.40000009537,0.0,0.0,0.0,0.0,-0.00984890861004
2018/12/16/17:22:11.550833,52157,1545002531,550553989,base_footprint,3.40833330154,0.0,0.0,0.0,0.0,-0.0100140977301
2018/12/16/17:22:11.570865,52158,1545002531,570567221,base_footprint,3.41666674614,0.0,0.0,0.0,0.0,-0.0103213736036
2018/12/16/17:22:11.590921,52159,1545002531,590541842,base_footprint,3.42499995232,0.0,0.0,0.0,0.0,-0.01048828789
2018/12/16/17:22:11.610957,52160,1545002531,610603170,base_footprint,3.43333339691,0.0,0.0,0.0,0.0,-0.0107979789838
2018/12/16/17:22:11.630984,52161,1545002531,630623834,base_footprint,3.43888878822,0.0,0.0,0.0,0.0,-0.0111000837436
2018/12/16/17:22:11.651042,52162,1545002531,650660915,base_footprint,3.45000004768,0.0,0.0,0.0,0.0,-0.0114215025151
2018/12/16/17:22:11.670969,52163,1545002531,670687363,base_footprint,3.45833325386,0.0,0.0,0.0,0.0,-0.0117353349946
2018/12/16/17:22:11.690953,52164,1545002531,690710304,base_footprint,3.46666669846,0.0,0.0,0.0,0.0,-0.0120505490834
2018/12/16/17:22:11.711025,52165,1545002531,710769227,base_footprint,3.47499990463,0.0,0.0,0.0,0.0,-0.0123671431851
2018/12/16/17:22:11.731006,52166,1545002531,730765699,base_footprint,3.48611116409,0.0,0.0,0.0,0.0,-0.0128395106087
2018/12/16/17:22:11.751233,52167,1545002531,750826769,base_footprint,3.49444437027,0.0,0.0,0.0,0.0,-0.0133040624779
2018/12/16/17:22:11.771288,52168,1545002531,770847917,base_footprint,3.50277781487,0.0,0.0,0.0,0.0,-0.0137706878774
2018/12/16/17:22:11.791201,52169,1545002531,790920974,base_footprint,3.51111102104,0.0,0.0,0.0,0.0,-0.0142393850953
2018/12/16/17:22:11.811225,52170,1545002531,810937234,base_footprint,3.51666665077,0.0,0.0,0.0,0.0,-0.014698545789
2018/12/16/17:22:11.831314,52171,1545002531,830925868,base_footprint,3.52777767181,0.0,0.0,0.0,0.0,-0.0150369957832
2018/12/16/17:22:11.851400,52172,1545002531,851007133,base_footprint,3.53888893127,0.0,0.0,0.0,0.0,-0.0153772866563
2018/12/16/17:22:11.871664,52173,1545002531,871015813,base_footprint,3.544444561,0.0,0.0,0.0,0.0,-0.0155481225298
2018/12/16/17:22:11.891306,52174,1545002531,891051992,base_footprint,3.55277776718,0.0,0.0,0.0,0.0,-0.0157317178252
2018/12/16/17:22:11.911523,52175,1545002531,911079481,base_footprint,3.56111121178,0.0,0.0,0.0,0.0,-0.0157686183598
2018/12/16/17:22:11.931364,52176,1545002531,931114727,base_footprint,3.56944441795,0.0,0.0,0.0,0.0,-0.0158055178387
2018/12/16/17:22:11.951449,52177,1545002531,951145388,base_footprint,3.57500004768,0.0,0.0,0.0,0.0,-0.0158301181951
2018/12/16/17:22:11.971476,52178,1545002531,971173798,base_footprint,3.58333325386,0.0,0.0,0.0,0.0,-0.015867017674
2018/12/16/17:22:11.991718,52179,1545002531,991456467,base_footprint,3.59166669846,0.0,0.0,0.0,0.0,-0.0159039182086
2018/12/16/17:22:12.011827,52180,1545002532,11488832,base_footprint,3.59722232819,0.0,0.0,0.0,0.0,-0.015928518565
2018/12/16/17:22:12.031952,52181,1545002532,31505648,base_footprint,3.60833334923,0.0,0.0,0.0,0.0,-0.015977718222
2018/12/16/17:22:12.051912,52182,1545002532,51518183,base_footprint,3.6166665554,0.0,0.0,0.0,0.0,-0.0158649327941
2018/12/16/17:22:12.071722,52183,1545002532,71490433,base_footprint,3.625,0.0,0.0,0.0,0.0,-0.015901488428
2018/12/16/17:22:12.091637,52184,1545002532,91349885,base_footprint,3.63611102104,0.0,0.0,0.0,0.0,-0.0161007178926
2018/12/16/17:22:12.111765,52185,1545002532,111485319,base_footprint,3.6472222805,0.0,0.0,0.0,0.0,-0.0161499186053
2018/12/16/17:22:12.131753,52186,1545002532,131479046,base_footprint,3.65000009537,0.0,0.0,0.0,0.0,-0.0161622187835
2018/12/16/17:22:12.151761,52187,1545002532,151505023,base_footprint,3.65833330154,0.0,0.0,0.0,0.0,-0.0161991182624
2018/12/16/17:22:12.171725,52188,1545002532,171483034,base_footprint,3.669444561,0.0,0.0,0.0,0.0,-0.016096449717
2018/12/16/17:22:12.191770,52189,1545002532,191525669,base_footprint,3.67499995232,0.0,0.0,0.0,0.0,-0.0161208190937
2018/12/16/17:22:12.211741,52190,1545002532,211539471,base_footprint,3.68333339691,0.0,0.0,0.0,0.0,-0.0160049310942
2018/12/16/17:22:12.231829,52191,1545002532,231603083,base_footprint,3.69166660309,0.0,0.0,0.0,0.0,-0.0158883527153
2018/12/16/17:22:12.251962,52192,1545002532,251606948,base_footprint,3.70000004768,0.0,0.0,0.0,0.0,-0.0157710860181
2018/12/16/17:22:12.271944,52193,1545002532,271636403,base_footprint,3.70833325386,0.0,0.0,0.0,0.0,-0.0156531276485
2018/12/16/17:22:12.292034,52194,1545002532,291679394,base_footprint,3.71944451332,0.0,0.0,0.0,0.0,-0.0155460926263
2018/12/16/17:22:12.312392,52195,1545002532,311701265,base_footprint,3.7277777195,0.0,0.0,0.0,0.0,-0.0155809227722
2018/12/16/17:22:12.332294,52196,1545002532,332006446,base_footprint,3.73611116409,0.0,0.0,0.0,0.0,-0.0153065028376
2018/12/16/17:22:12.352162,52197,1545002532,351762304,base_footprint,3.74444437027,0.0,0.0,0.0,0.0,-0.0151856734341
2018/12/16/17:22:12.372288,52198,1545002532,372029487,base_footprint,3.75555562973,0.0,0.0,0.0,0.0,-0.015075306168
2018/12/16/17:22:12.392143,52199,1545002532,391837659,base_footprint,3.76388883591,0.0,0.0,0.0,0.0,-0.0149529831042
2018/12/16/17:22:12.412267,52200,1545002532,411924336,base_footprint,3.76944446564,0.0,0.0,0.0,0.0,-0.0148190510364
2018/12/16/17:22:12.432372,52201,1545002532,432033289,base_footprint,3.77500009537,0.0,0.0,0.0,0.0,-0.014684659528
2018/12/16/17:22:12.452476,52202,1545002532,452192839,base_footprint,3.78333330154,0.0,0.0,0.0,0.0,-0.0142473451991
2018/12/16/17:22:12.472249,52203,1545002532,472012340,base_footprint,3.79166674614,0.0,0.0,0.0,0.0,-0.0138079660483
2018/12/16/17:22:12.492561,52204,1545002532,492269989,base_footprint,3.79722213745,0.0,0.0,0.0,0.0,-0.0131995994216
2018/12/16/17:22:12.512537,52205,1545002532,512243228,base_footprint,3.80555558205,0.0,0.0,0.0,0.0,-0.0124411061385
2018/12/16/17:22:12.532427,52206,1545002532,532054503,base_footprint,3.81388878822,0.0,0.0,0.0,0.0,-0.0116791720141
2018/12/16/17:22:12.552523,52207,1545002532,552262939,base_footprint,3.82500004768,0.0,0.0,0.0,0.0,-0.0109217290341
2018/12/16/17:22:12.572381,52208,1545002532,572119199,base_footprint,3.83333325386,0.0,0.0,0.0,0.0,-0.0103109742538
2018/12/16/17:22:12.592497,52209,1545002532,592234709,base_footprint,3.84444451332,0.0,0.0,0.0,0.0,-0.00970447848604
2018/12/16/17:22:12.612504,52210,1545002532,612274577,base_footprint,3.8527777195,0.0,0.0,0.0,0.0,-0.00924719420582
2018/12/16/17:22:12.632546,52211,1545002532,632221152,base_footprint,3.86111116409,0.0,0.0,0.0,0.0,-0.0089476278522
2018/12/16/17:22:12.652467,52212,1545002532,652250652,base_footprint,3.875,0.0,0.0,0.0,0.0,-0.00849873937994
2018/12/16/17:22:12.672579,52213,1545002532,672282745,base_footprint,3.8833334446,0.0,0.0,0.0,0.0,-0.0083563140818
2018/12/16/17:22:12.692549,52214,1545002532,692302568,base_footprint,3.89166665077,0.0,0.0,0.0,0.0,-0.00789110475216
2018/12/16/17:22:12.712709,52215,1545002532,712358525,base_footprint,3.8972222805,0.0,0.0,0.0,0.0,-0.00774109361206
2018/12/16/17:22:12.732828,52216,1545002532,732360588,base_footprint,3.90000009537,0.0,0.0,0.0,0.0,-0.00742382944993
2018/12/16/17:22:12.753082,52217,1545002532,752699244,base_footprint,3.90833330154,0.0,0.0,0.0,0.0,-0.00711622145955
2018/12/16/17:22:12.772728,52218,1545002532,772466446,base_footprint,3.91388893127,0.0,0.0,0.0,0.0,-0.00664044217292
2018/12/16/17:22:12.792803,52219,1545002532,792478633,base_footprint,3.919444561,0.0,0.0,0.0,0.0,-0.00616328582145
2018/12/16/17:22:12.812797,52220,1545002532,812509728,base_footprint,3.92499995232,0.0,0.0,0.0,0.0,-0.00568475090784
2018/12/16/17:22:12.832990,52221,1545002532,832521879,base_footprint,3.93333339691,0.0,0.0,0.0,0.0,-0.00504574922692
2018/12/16/17:22:12.852812,52222,1545002532,852569471,base_footprint,3.94166660309,0.0,0.0,0.0,0.0,-0.00440399071607
2018/12/16/17:22:12.872878,52223,1545002532,872606658,base_footprint,3.95277786255,0.0,0.0,0.0,0.0,-0.0039256906778
2018/12/16/17:22:12.892915,52224,1545002532,892632515,base_footprint,3.95833325386,0.0,0.0,0.0,0.0,-0.00343980475966
2018/12/16/17:22:12.912956,52225,1545002532,912654443,base_footprint,3.96388888359,0.0,0.0,0.0,0.0,-0.00311657138174
2018/12/16/17:22:12.933015,52226,1545002532,932699807,base_footprint,3.9777777195,0.0,0.0,0.0,0.0,-0.00279828081123
2018/12/16/17:22:12.952995,52227,1545002532,952747883,base_footprint,3.98888897896,0.0,0.0,0.0,0.0,-0.00280609734255
2018/12/16/17:22:12.973046,52228,1545002532,972750241,base_footprint,3.9916665554,0.0,0.0,0.0,0.0,-0.00280805130766
2018/12/16/17:22:12.993021,52229,1545002532,992791267,base_footprint,4.0,0.0,0.0,0.0,0.0,-0.00314496341675
2018/12/16/17:22:13.013064,52230,1545002533,12835759,base_footprint,4.00555562973,0.0,0.0,0.0,0.0,-0.00348084116131
2018/12/16/17:22:13.033141,52231,1545002533,32836443,base_footprint,4.00555562973,0.0,0.0,0.0,0.0,-0.00331508627446
2018/12/16/17:22:13.053375,52232,1545002533,52945058,base_footprint,4.01666688919,0.0,0.0,0.0,0.0,-0.00299185310162
2018/12/16/17:22:13.073219,52233,1545002533,72961197,base_footprint,4.01944446564,0.0,0.0,0.0,0.0,-0.00282759246824
2018/12/16/17:22:13.093386,52234,1545002533,92963657,base_footprint,4.01944446564,0.0,0.0,0.0,0.0,-0.00266126300887
2018/12/16/17:22:13.113200,52235,1545002533,112986106,base_footprint,4.02500009537,0.0,0.0,0.0,0.0,-0.00266494137588
2018/12/16/17:22:13.133298,52236,1545002533,133004218,base_footprint,4.03333330154,0.0,0.0,0.0,0.0,-0.00267045876853
2018/12/16/17:22:13.153272,52237,1545002533,153040698,base_footprint,4.044444561,0.0,0.0,0.0,0.0,-0.00267781550253
2018/12/16/17:22:13.173357,52238,1545002533,173091738,base_footprint,4.05000019073,0.0,0.0,0.0,0.0,-0.00284908776165
2018/12/16/17:22:13.193396,52239,1545002533,193113311,base_footprint,4.05555534363,0.0,0.0,0.0,0.0,-0.00285299569187
2018/12/16/17:22:13.213426,52240,1545002533,213135806,base_footprint,4.06388902664,0.0,0.0,0.0,0.0,-0.00319519557963
2018/12/16/17:22:13.233492,52241,1545002533,233166046,base_footprint,4.06944465637,0.0,0.0,0.0,0.0,-0.00336796224346
2018/12/16/17:22:13.253762,52242,1545002533,253220504,base_footprint,4.07499980927,0.0,0.0,0.0,0.0,-0.00354118838424
2018/12/16/17:22:13.273809,52243,1545002533,273440533,base_footprint,4.07499980927,0.0,0.0,0.0,0.0,-0.00370981741626
2018/12/16/17:22:13.293693,52244,1545002533,293437249,base_footprint,4.080555439,0.0,0.0,0.0,0.0,-0.00388373385091
2018/12/16/17:22:13.313615,52245,1545002533,313303794,base_footprint,4.08611106873,0.0,0.0,0.0,0.0,-0.00405811019206
2018/12/16/17:22:13.333768,52246,1545002533,333333718,base_footprint,4.08888912201,0.0,0.0,0.0,0.0,-0.00406086920819
2018/12/16/17:22:13.353853,52247,1545002533,353559458,base_footprint,4.09166669846,0.0,0.0,0.0,0.0,-0.00406362775075
2018/12/16/17:22:13.374267,52248,1545002533,373542921,base_footprint,4.0944442749,0.0,0.0,0.0,0.0,-0.00406638629331
2018/12/16/17:22:13.393923,52249,1545002533,393523705,base_footprint,4.09999990463,0.0,0.0,0.0,0.0,-0.004071903852
2018/12/16/17:22:13.413697,52250,1545002533,413465652,base_footprint,4.10277795792,0.0,0.0,0.0,0.0,-0.00407466286813
2018/12/16/17:22:13.434098,52251,1545002533,433601276,base_footprint,4.10833311081,0.0,0.0,0.0,0.0,-0.00408017995325
2018/12/16/17:22:13.454358,52252,1545002533,453578434,base_footprint,4.11388874054,0.0,0.0,0.0,0.0,-0.00391545935336
2018/12/16/17:22:13.473948,52253,1545002533,473574771,base_footprint,4.11666679382,0.0,0.0,0.0,0.0,-0.00374775040085
2018/12/16/17:22:13.493969,52254,1545002533,493588969,base_footprint,4.11944437027,0.0,0.0,0.0,0.0,-0.00357981085554
2018/12/16/17:22:13.513921,52255,1545002533,513634859,base_footprint,4.125,0.0,0.0,0.0,0.0,-0.00307254606485
2018/12/16/17:22:13.534092,52256,1545002533,533698637,base_footprint,4.125,0.0,0.0,0.0,0.0,-0.00290184850946
2018/12/16/17:22:13.554234,52257,1545002533,553929275,base_footprint,4.13055562973,0.0,0.0,0.0,0.0,-0.00256390228694
2018/12/16/17:22:13.574197,52258,1545002533,573952847,base_footprint,4.13333320618,0.0,0.0,0.0,0.0,-0.0022235422918
2018/12/16/17:22:13.594280,52259,1545002533,593989249,base_footprint,4.13611125946,0.0,0.0,0.0,0.0,-0.00205387976024
2018/12/16/17:22:13.614022,52260,1545002533,613786232,base_footprint,4.14166688919,0.0,0.0,0.0,0.0,-0.00205663853406
2018/12/16/17:22:13.634265,52261,1545002533,633994373,base_footprint,4.14444446564,0.0,0.0,0.0,0.0,-0.0018865162094
2018/12/16/17:22:13.654302,52262,1545002533,654065905,base_footprint,4.14722204208,0.0,0.0,0.0,0.0,-0.0018877805388
2018/12/16/17:22:13.674250,52263,1545002533,674036099,base_footprint,4.15000009537,0.0,0.0,0.0,0.0,-0.00206077657639
2018/12/16/17:22:13.694183,52264,1545002533,693962342,base_footprint,4.15277767181,0.0,0.0,0.0,0.0,-0.00206215584491
2018/12/16/17:22:13.714250,52265,1545002533,713953399,base_footprint,4.15833330154,0.0,0.0,0.0,0.0,-0.00206491461873
2018/12/16/17:22:13.734378,52266,1545002533,733980775,base_footprint,4.15833330154,0.0,0.0,0.0,0.0,-0.00206491461873
2018/12/16/17:22:13.754273,52267,1545002533,754006620,base_footprint,4.16111087799,0.0,0.0,0.0,0.0,-0.00206629388725
2018/12/16/17:22:13.774333,52268,1545002533,774057118,base_footprint,4.169444561,0.0,0.0,0.0,0.0,-0.00172535978672
2018/12/16/17:22:13.794352,52269,1545002533,794062486,base_footprint,4.17222213745,0.0,0.0,0.0,0.0,-0.00172650917692
2018/12/16/17:22:13.814623,52270,1545002533,814326708,base_footprint,4.17777776718,0.0,0.0,0.0,0.0,-0.00155592729438
2018/12/16/17:22:13.834417,52271,1545002533,834136195,base_footprint,4.17777776718,0.0,0.0,0.0,0.0,-0.00121016542214
2018/12/16/17:22:13.854559,52272,1545002533,854167151,base_footprint,4.18055534363,0.0,0.0,0.0,0.0,-0.000691982748479
2018/12/16/17:22:13.874590,52273,1545002533,874222527,base_footprint,4.18888902664,0.0,0.0,0.0,0.0,-0.000173340531455
2018/12/16/17:22:13.894528,52274,1545002533,894249593,base_footprint,4.19166660309,0.0,0.0,0.0,0.0,0.0
2018/12/16/17:22:13.914657,52275,1545002533,914391112,base_footprint,4.18888902664,0.0,0.0,0.0,0.0,0.000693362174034
2018/12/16/17:22:13.934659,52276,1545002533,934306941,base_footprint,4.19166660309,0.0,0.0,0.0,0.0,0.00121418856313
2018/12/16/17:22:13.954581,52277,1545002533,954358464,base_footprint,4.19444465637,0.0,0.0,0.0,0.0,0.00156213453403
2018/12/16/17:22:13.974600,52278,1545002533,974358966,base_footprint,4.19166660309,0.0,0.0,0.0,0.0,0.00190801132859
2018/12/16/17:22:13.994847,52279,1545002533,994416143,base_footprint,4.19722223282,0.0,0.0,0.0,0.0,0.00225791163626
2018/12/16/17:22:14.014669,52280,1545002534,14438171,base_footprint,4.19722223282,0.0,0.0,0.0,0.0,0.00225791163626
2018/12/16/17:22:14.035050,52281,1545002534,34472976,base_footprint,4.19722223282,0.0,0.0,0.0,0.0,0.00243159735128
2018/12/16/17:22:14.054899,52282,1545002534,54502334,base_footprint,4.19999980927,0.0,0.0,0.0,0.0,0.00225940584406
2018/12/16/17:22:14.074753,52283,1545002534,74533069,base_footprint,4.20277786255,0.0,0.0,0.0,0.0,0.00226090030837
2018/12/16/17:22:14.094991,52284,1545002534,94574376,base_footprint,4.20277786255,0.0,0.0,0.0,0.0,0.00226090030837
2018/12/16/17:22:14.115437,52285,1545002534,114733481,base_footprint,4.20833349228,0.0,0.0,0.0,0.0,0.00243803449174
2018/12/16/17:22:14.135057,52286,1545002534,134656782,base_footprint,4.21111106873,0.0,0.0,0.0,0.0,0.00243964363874
2018/12/16/17:22:14.155122,52287,1545002534,154682688,base_footprint,4.21388912201,0.0,0.0,0.0,0.0,0.00244125306198
2018/12/16/17:22:14.175425,52288,1545002534,174738351,base_footprint,4.21388912201,0.0,0.0,0.0,0.0,0.00244125306198
2018/12/16/17:22:14.195112,52289,1545002534,194784879,base_footprint,4.21666669846,0.0,0.0,0.0,0.0,0.00244286220897
2018/12/16/17:22:14.215791,52290,1545002534,214794597,base_footprint,4.2194442749,0.0,0.0,0.0,0.0,0.00244447135596
2018/12/16/17:22:14.235083,52291,1545002534,234830422,base_footprint,4.2194442749,0.0,0.0,0.0,0.0,0.00244447135596
2018/12/16/17:22:14.255671,52292,1545002534,254845706,base_footprint,4.2194442749,0.0,0.0,0.0,0.0,0.00226986606817
2018/12/16/17:22:14.275234,52293,1545002534,274936156,base_footprint,4.22222232819,0.0,0.0,0.0,0.0,0.00227136053249
2018/12/16/17:22:14.295206,52294,1545002534,294929620,base_footprint,4.22222232819,0.0,0.0,0.0,0.0,0.00227136053249
2018/12/16/17:22:14.315906,52295,1545002534,314956327,base_footprint,4.22222232819,0.0,0.0,0.0,0.0,0.00227136053249
2018/12/16/17:22:14.335217,52296,1545002534,334979999,base_footprint,4.22499990463,0.0,0.0,0.0,0.0,0.002098019431
2018/12/16/17:22:14.355328,52297,1545002534,355043814,base_footprint,4.22777795792,0.0,0.0,0.0,0.0,0.0020993989363
2018/12/16/17:22:14.375282,52298,1545002534,375033606,base_footprint,4.23611116409,0.0,0.0,0.0,0.0,0.00192824211837
2018/12/16/17:22:14.395514,52299,1545002534,395091878,base_footprint,4.23611116409,0.0,0.0,0.0,0.0,0.00175294712465
2018/12/16/17:22:14.415424,52300,1545002534,415130320,base_footprint,4.23888874054,0.0,0.0,0.0,0.0,0.00157868681792
2018/12/16/17:22:14.435617,52301,1545002534,435134595,base_footprint,4.24444437027,0.0,0.0,0.0,0.0,0.00140511615956
2018/12/16/17:22:14.455528,52302,1545002534,455172184,base_footprint,4.24166679382,0.0,0.0,0.0,0.0,0.00122867198118
2018/12/16/17:22:14.475686,52303,1545002534,475401822,base_footprint,4.24444437027,0.0,0.0,0.0,0.0,0.00122947655413
2018/12/16/17:22:14.495733,52304,1545002534,495249890,base_footprint,4.24722242355,0.0,0.0,0.0,0.0,0.0012302812652
2018/12/16/17:22:14.516105,52305,1545002534,515286662,base_footprint,4.24444437027,0.0,0.0,0.0,0.0,0.00105383698289
2018/12/16/17:22:14.535685,52306,1545002534,535316842,base_footprint,4.24722242355,0.0,0.0,0.0,0.0,0.000878772234515
2018/12/16/17:22:14.555751,52307,1545002534,555352533,base_footprint,4.24722242355,0.0,0.0,0.0,0.0,0.000703017758282
2018/12/16/17:22:14.575811,52308,1545002534,575399236,base_footprint,4.25,0.0,0.0,0.0,0.0,0.000527608118516
2018/12/16/17:22:14.595855,52309,1545002534,595430785,base_footprint,4.25,0.0,0.0,0.0,0.0,0.000351738737524
2018/12/16/17:22:14.615750,52310,1545002534,615445178,base_footprint,4.25,0.0,0.0,0.0,0.0,0.0
2018/12/16/17:22:14.635863,52311,1545002534,635496732,base_footprint,4.25555562973,0.0,0.0,0.0,0.0,-0.000528297811539
2018/12/16/17:22:14.656216,52312,1545002534,655508650,base_footprint,4.25555562973,0.0,0.0,0.0,0.0,-0.00123269512216
2018/12/16/17:22:14.675929,52313,1545002534,675544659,base_footprint,4.25833320618,0.0,0.0,0.0,0.0,-0.00193835740474
2018/12/16/17:22:14.695886,52314,1545002534,695593746,base_footprint,4.26111125946,0.0,0.0,0.0,0.0,-0.00282126992137
2018/12/16/17:22:14.716066,52315,1545002534,715613088,base_footprint,4.26111125946,0.0,0.0,0.0,0.0,-0.00370291985331
2018/12/16/17:22:14.735907,52316,1545002534,735626811,base_footprint,4.26111125946,0.0,0.0,0.0,0.0,-0.00458457273645
2018/12/16/17:22:14.755952,52317,1545002534,755691191,base_footprint,4.26388883591,0.0,0.0,0.0,0.0,-0.0052933452665
2018/12/16/17:22:14.776109,52318,1545002534,775706151,base_footprint,4.26666688919,0.0,0.0,0.0,0.0,-0.00600304034643
2018/12/16/17:22:14.795988,52319,1545002534,795742814,base_footprint,4.26666688919,0.0,0.0,0.0,0.0,-0.006532726905
2018/12/16/17:22:14.816068,52320,1545002534,815782623,base_footprint,4.27222204208,0.0,0.0,0.0,0.0,-0.0067180247426
2018/12/16/17:22:14.836044,52321,1545002534,835804349,base_footprint,4.27500009537,0.0,0.0,0.0,0.0,-0.0070762082896
2018/12/16/17:22:14.856072,52322,1545002534,855837437,base_footprint,4.27777767181,0.0,0.0,0.0,0.0,-0.00725782866021
2018/12/16/17:22:14.876195,52323,1545002534,875925128,base_footprint,4.2805557251,0.0,0.0,0.0,0.0,-0.00726254200351
2018/12/16/17:22:14.896290,52324,1545002534,895927379,base_footprint,4.28611087799,0.0,0.0,0.0,0.0,-0.00709459944992
2018/12/16/17:22:14.916243,52325,1545002534,915957073,base_footprint,4.28611087799,0.0,0.0,0.0,0.0,-0.00673986479266
2018/12/16/17:22:14.936410,52326,1545002534,935985750,base_footprint,4.28611087799,0.0,0.0,0.0,0.0,-0.00620776382185
2018/12/16/17:22:14.956408,52327,1545002534,956007042,base_footprint,4.28888893127,0.0,0.0,0.0,0.0,-0.0058568242428
2018/12/16/17:22:14.976321,52328,1545002534,976034344,base_footprint,4.28888893127,0.0,0.0,0.0,0.0,-0.00514690022416
2018/12/16/17:22:14.996549,52329,1545002534,996086390,base_footprint,4.28888893127,0.0,0.0,0.0,0.0,-0.00461445901473
2018/12/16/17:22:15.016514,52330,1545002535,16114549,base_footprint,4.28888893127,0.0,0.0,0.0,0.0,-0.00390453879715
2018/12/16/17:22:15.036508,52331,1545002535,36138428,base_footprint,4.28888893127,0.0,0.0,0.0,0.0,-0.00319462031718
2018/12/16/17:22:15.056603,52332,1545002535,56166794,base_footprint,4.28888893127,0.0,0.0,0.0,0.0,-0.00248470306949
2018/12/16/17:22:15.076491,52333,1545002535,76217207,base_footprint,4.29166650772,0.0,0.0,0.0,0.0,-0.00195353044281
2018/12/16/17:22:15.096535,52334,1545002535,96245152,base_footprint,4.294444561,0.0,0.0,0.0,0.0,-0.00142166863849
2018/12/16/17:22:15.116537,52335,1545002535,116281904,base_footprint,4.294444561,0.0,0.0,0.0,0.0,-0.000888542738414
2018/12/16/17:22:15.136634,52336,1545002535,136323827,base_footprint,4.29722213745,0.0,0.0,0.0,0.0,-0.00053347042042
2018/12/16/17:22:15.156597,52337,1545002535,156357522,base_footprint,4.29722213745,0.0,0.0,0.0,0.0,-0.000177823466879
2018/12/16/17:22:15.176691,52338,1545002535,176383045,base_footprint,4.30000019073,0.0,0.0,0.0,0.0,0.0
2018/12/16/17:22:15.196892,52339,1545002535,196551540,base_footprint,4.30000019073,0.0,0.0,0.0,0.0,0.0
2018/12/16/17:22:15.217226,52340,1545002535,216495157,base_footprint,4.30277776718,0.0,0.0,0.0,0.0,0.0
2018/12/16/17:22:15.236820,52341,1545002535,236455235,base_footprint,4.30277776718,0.0,0.0,0.0,0.0,0.0
2018/12/16/17:22:15.256928,52342,1545002535,256507850,base_footprint,4.30833339691,0.0,0.0,0.0,0.0,0.0
2018/12/16/17:22:15.276913,52343,1545002535,276557839,base_footprint,4.31111097336,0.0,0.0,0.0,0.0,0.0
2018/12/16/17:22:15.296930,52344,1545002535,296558163,base_footprint,4.31111097336,0.0,0.0,0.0,0.0,0.0
2018/12/16/17:22:15.317190,52345,1545002535,316619335,base_footprint,4.31666660309,0.0,0.0,0.0,0.0,0.0
2018/12/16/17:22:15.336934,52346,1545002535,336640961,base_footprint,4.31666660309,0.0,0.0,0.0,0.0,0.000178628098843
2018/12/16/17:22:15.357095,52347,1545002535,356686010,base_footprint,4.32222223282,0.0,0.0,0.0,0.0,0.000536574009427
2018/12/16/17:22:15.377391,52348,1545002535,376707834,base_footprint,4.32499980927,0.0,0.0,0.0,0.0,0.000715891791684
2018/12/16/17:22:15.397630,52349,1545002535,396747074,base_footprint,4.32499980927,0.0,0.0,0.0,0.0,0.00089486477694
2018/12/16/17:22:15.417206,52350,1545002535,416788138,base_footprint,4.32499980927,0.0,0.0,0.0,0.0,0.00107383778708
2018/12/16/17:22:15.437150,52351,1545002535,436812677,base_footprint,4.32499980927,0.0,0.0,0.0,0.0,0.00107383778708
2018/12/16/17:22:15.457300,52352,1545002535,456841075,base_footprint,4.32222223282,0.0,0.0,0.0,0.0,0.00107314815317
2018/12/16/17:22:15.477326,52353,1545002535,476929610,base_footprint,4.32222223282,0.0,0.0,0.0,0.0,0.00107314815317
2018/12/16/17:22:15.497222,52354,1545002535,496931703,base_footprint,4.32222223282,0.0,0.0,0.0,0.0,0.00125200625415
2018/12/16/17:22:15.518130,52355,1545002535,516958963,base_footprint,4.32222223282,0.0,0.0,0.0,0.0,0.00107314815317
2018/12/16/17:22:15.537863,52356,1545002535,536982549,base_footprint,4.32222223282,0.0,0.0,0.0,0.0,0.00107314815317
2018/12/16/17:22:15.557578,52357,1545002535,557010792,base_footprint,4.32499980927,0.0,0.0,0.0,0.0,0.00107383778708
2018/12/16/17:22:15.577348,52358,1545002535,577037062,base_footprint,4.32499980927,0.0,0.0,0.0,0.0,0.00107383778708
2018/12/16/17:22:15.597331,52359,1545002535,597089152,base_footprint,4.32777786255,0.0,0.0,0.0,0.0,0.00107452753939
2018/12/16/17:22:15.617418,52360,1545002535,617116286,base_footprint,4.32777786255,0.0,0.0,0.0,0.0,0.00107452753939
2018/12/16/17:22:15.637425,52361,1545002535,637164507,base_footprint,4.330555439,0.0,0.0,0.0,0.0,0.0010752171733
2018/12/16/17:22:15.657477,52362,1545002535,657167394,base_footprint,4.330555439,0.0,0.0,0.0,0.0,0.0010752171733
2018/12/16/17:22:15.677522,52363,1545002535,677214903,base_footprint,4.330555439,0.0,0.0,0.0,0.0,0.0010752171733
2018/12/16/17:22:15.697577,52364,1545002535,697255066,base_footprint,4.32777786255,0.0,0.0,0.0,0.0,0.00107452753939
2018/12/16/17:22:15.717688,52365,1545002535,717278754,base_footprint,4.330555439,0.0,0.0,0.0,0.0,0.0010752171733
2018/12/16/17:22:15.737732,52366,1545002535,737304650,base_footprint,4.33333349228,0.0,0.0,0.0,0.0,0.00107590692561
2018/12/16/17:22:15.757785,52367,1545002535,757350469,base_footprint,4.33333349228,0.0,0.0,0.0,0.0,0.00107590692561
2018/12/16/17:22:15.777781,52368,1545002535,777375612,base_footprint,4.32777786255,0.0,0.0,0.0,0.0,0.00125361553817
2018/12/16/17:22:15.797712,52369,1545002535,797437726,base_footprint,4.330555439,0.0,0.0,0.0,0.0,0.00125442011112
2018/12/16/17:22:15.818022,52370,1545002535,817452751,base_footprint,4.33888912201,0.0,0.0,0.0,0.0,0.00125683410621
2018/12/16/17:22:15.837891,52371,1545002535,837512247,base_footprint,4.3444442749,0.0,0.0,0.0,0.0,0.00161799880294
2018/12/16/17:22:15.857797,52372,1545002535,857495198,base_footprint,4.3444442749,0.0,0.0,0.0,0.0,0.00215733223938
2018/12/16/17:22:15.877835,52373,1545002535,877544496,base_footprint,4.33611106873,0.0,0.0,0.0,0.0,0.00233262741287
2018/12/16/17:22:15.897872,52374,1545002535,897568079,base_footprint,4.33611106873,0.0,0.0,0.0,0.0,0.00215319419704
2018/12/16/17:22:15.918001,52375,1545002535,917615077,base_footprint,4.34166669846,0.0,0.0,0.0,0.0,0.00179662710926
2018/12/16/17:22:15.937893,52376,1545002535,937628553,base_footprint,4.34166669846,0.0,0.0,0.0,0.0,0.00107797594574
2018/12/16/17:22:15.957973,52377,1545002535,957665878,base_footprint,4.33888912201,0.0,0.0,0.0,0.0,0.000718190807967
2018/12/16/17:22:15.978140,52378,1545002535,977704405,base_footprint,4.33888912201,0.0,0.0,0.0,0.0,0.000718190807967
2018/12/16/17:22:15.998029,52379,1545002535,997739101,base_footprint,4.33888912201,0.0,0.0,0.0,0.0,0.000538643088497
2018/12/16/17:22:16.018244,52380,1545002536,17769243,base_footprint,4.33888912201,0.0,0.0,0.0,0.0,0.000538643088497
2018/12/16/17:22:16.038117,52381,1545002536,37793379,base_footprint,4.33888912201,0.0,0.0,0.0,0.0,0.000359095384008
2018/12/16/17:22:16.058124,52382,1545002536,57843815,base_footprint,4.33888912201,0.0,0.0,0.0,0.0,0.000179547689507
2018/12/16/17:22:16.078341,52383,1545002536,77934994,base_footprint,4.34166669846,0.0,0.0,0.0,0.0,0.0
2018/12/16/17:22:16.098340,52384,1545002536,97934384,base_footprint,4.33888912201,0.0,0.0,0.0,0.0,0.0
2018/12/16/17:22:16.118301,52385,1545002536,117935375,base_footprint,4.34166669846,0.0,0.0,0.0,0.0,0.0
2018/12/16/17:22:16.138844,52386,1545002536,138018305,base_footprint,4.33888912201,0.0,0.0,0.0,0.0,0.0
2018/12/16/17:22:16.158319,52387,1545002536,158012686,base_footprint,4.33888912201,0.0,0.0,0.0,0.0,0.0
2018/12/16/17:22:16.178451,52388,1545002536,178043076,base_footprint,4.33888912201,0.0,0.0,0.0,0.0,0.0
2018/12/16/17:22:16.199075,52389,1545002536,198070398,base_footprint,4.34166669846,0.0,0.0,0.0,0.0,0.0
2018/12/16/17:22:16.218524,52390,1545002536,218115780,base_footprint,4.34166669846,0.0,0.0,0.0,0.0,0.0
2018/12/16/17:22:16.238896,52391,1545002536,238149674,base_footprint,4.33888912201,0.0,0.0,0.0,0.0,0.0
2018/12/16/17:22:16.258570,52392,1545002536,258173774,base_footprint,4.34166669846,0.0,0.0,0.0,0.0,0.0
2018/12/16/17:22:16.278490,52393,1545002536,278200992,base_footprint,4.34166669846,0.0,0.0,0.0,0.0,0.0
2018/12/16/17:22:16.298496,52394,1545002536,298234987,base_footprint,4.34166669846,0.0,0.0,0.0,0.0,0.0
2018/12/16/17:22:16.318934,52395,1545002536,318282813,base_footprint,4.34166669846,0.0,0.0,0.0,0.0,0.0
2018/12/16/17:22:16.338710,52396,1545002536,338308887,base_footprint,4.3444442749,0.0,0.0,0.0,0.0,-0.000179777567441
2018/12/16/17:22:16.358718,52397,1545002536,358343150,base_footprint,4.3444442749,0.0,0.0,0.0,0.0,-0.000179777567441
2018/12/16/17:22:16.378706,52398,1545002536,378366333,base_footprint,4.3444442749,0.0,0.0,0.0,0.0,-0.000539332722324
2018/12/16/17:22:16.400087,52399,1545002536,398408705,base_footprint,4.3444442749,0.0,0.0,0.0,0.0,-0.000539332722324
2018/12/16/17:22:16.418932,52400,1545002536,418649725,base_footprint,4.34722232819,0.0,0.0,0.0,0.0,-0.000539677598434
2018/12/16/17:22:16.438906,52401,1545002536,438473338,base_footprint,4.34999990463,0.0,0.0,0.0,0.0,-0.000720029910494
2018/12/16/17:22:16.458893,52402,1545002536,458514840,base_footprint,4.34999990463,0.0,0.0,0.0,0.0,-0.000720029910494
2018/12/16/17:22:16.478945,52403,1545002536,478556942,base_footprint,4.34999990463,0.0,0.0,0.0,0.0,-0.000540022415347
2018/12/16/17:22:16.499243,52404,1545002536,498575700,base_footprint,4.35277795792,0.0,0.0,0.0,0.0,-0.000540367291457
2018/12/16/17:22:16.518987,52405,1545002536,518626310,base_footprint,4.35555553436,0.0,0.0,0.0,0.0,-0.000540712108371
2018/12/16/17:22:16.538932,52406,1545002536,538641257,base_footprint,4.35555553436,0.0,0.0,0.0,0.0,-0.000540712108371
2018/12/16/17:22:16.559048,52407,1545002536,558683559,base_footprint,4.35555553436,0.0,0.0,0.0,0.0,-0.000540712108371
2018/12/16/17:22:16.579015,52408,1545002536,578704902,base_footprint,4.35277795792,0.0,0.0,0.0,0.0,-0.000540367291457
