time,.header.seq,.header.stamp.secs,.header.stamp.nsecs,.header.frame_id,.orientation.x,.orientation.y,.orientation.z,.orientation.w,.orientation_covariance,.angular_velocity.x,.angular_velocity.y,.angular_velocity.z,.angular_velocity_covariance,.linear_acceleration.x,.linear_acceleration.y,.linear_acceleration.z,.linear_acceleration_covariance
2018/12/16/17:23:03.773338,109445,1545002583,772262280,base_footprint,0.0,0.0,0.0,0.0,"(-1.0, 0.0, 0.0, 0.0, 0.0, 0.0, 0.0, 0.0, 0.0)",0.0,0.0,0.0208,"(5.0, 0.0, 0.0, 0.0, 5.0, 0.0, 0.0, 0.0, 0.5)",-0.2,-0.0,-9.67,"(1.0, 0.0, 0.0, 0.0, 1.0, 0.0, 0.0, 0.0, 1.0)"
2018/12/16/17:23:03.783419,109446,1545002583,782861217,base_footprint,0.0,0.0,0.0,0.0,"(-1.0, 0.0, 0.0, 0.0, 0.0, 0.0, 0.0, 0.0, 0.0)",0.0,0.0,0.0216,"(5.0, 0.0, 0.0, 0.0, 5.0, 0.0, 0.0, 0.0, 0.5)",-0.17,0.07,-9.7,"(1.0, 0.0, 0.0, 0.0, 1.0, 0.0, 0.0, 0.0, 1.0)"
2018/12/16/17:23:03.793320,109447,1545002583,792374225,base_footprint,0.0,0.0,0.0,0.0,"(-1.0, 0.0, 0.0, 0.0, 0.0, 0.0, 0.0, 0.0, 0.0)",-0.0002,0.0,0.0218,"(5.0, 0.0, 0.0, 0.0, 5.0, 0.0, 0.0, 0.0, 0.5)",-0.2,0.11,-9.7,"(1.0, 0.0, 0.0, 0.0, 1.0, 0.0, 0.0, 0.0, 1.0)"
2018/12/16/17:23:03.803374,109448,1545002583,802414705,base_footprint,0.0,0.0,0.0,0.0,"(-1.0, 0.0, 0.0, 0.0, 0.0, 0.0, 0.0, 0.0, 0.0)",-0.0006,0.0,0.0214,"(5.0, 0.0, 0.0, 0.0, 5.0, 0.0, 0.0, 0.0, 0.5)",-0.23,0.09,-9.65,"(1.0, 0.0, 0.0, 0.0, 1.0, 0.0, 0.0, 0.0, 1.0)"
2018/12/16/17:23:03.813489,109449,1545002583,812976904,base_footprint,0.0,0.0,0.0,0.0,"(-1.0, 0.0, 0.0, 0.0, 0.0, 0.0, 0.0, 0.0, 0.0)",-0.0012,0.0,0.0208,"(5.0, 0.0, 0.0, 0.0, 5.0, 0.0, 0.0, 0.0, 0.5)",-0.2,0.06,-9.6,"(1.0, 0.0, 0.0, 0.0, 1.0, 0.0, 0.0, 0.0, 1.0)"
2018/12/16/17:23:03.822896,109450,1545002583,822275729,base_footprint,0.0,0.0,0.0,0.0,"(-1.0, 0.0, 0.0, 0.0, 0.0, 0.0, 0.0, 0.0, 0.0)",-0.0014,0.0,0.0202,"(5.0, 0.0, 0.0, 0.0, 5.0, 0.0, 0.0, 0.0, 0.5)",-0.14,0.05,-9.58,"(1.0, 0.0, 0.0, 0.0, 1.0, 0.0, 0.0, 0.0, 1.0)"
2018/12/16/17:23:03.833281,109451,1545002583,832226342,base_footprint,0.0,0.0,0.0,0.0,"(-1.0, 0.0, 0.0, 0.0, 0.0, 0.0, 0.0, 0.0, 0.0)",-0.0012,0.0,0.0196,"(5.0, 0.0, 0.0, 0.0, 5.0, 0.0, 0.0, 0.0, 0.5)",-0.13,0.05,-9.55,"(1.0, 0.0, 0.0, 0.0, 1.0, 0.0, 0.0, 0.0, 1.0)"
2018/12/16/17:23:03.844496,109452,1545002583,843295302,base_footprint,0.0,0.0,0.0,0.0,"(-1.0, 0.0, 0.0, 0.0, 0.0, 0.0, 0.0, 0.0, 0.0)",-0.0002,0.0,0.02,"(5.0, 0.0, 0.0, 0.0, 5.0, 0.0, 0.0, 0.0, 0.5)",-0.15,0.04,-9.52,"(1.0, 0.0, 0.0, 0.0, 1.0, 0.0, 0.0, 0.0, 1.0)"
2018/12/16/17:23:03.852974,109453,1545002583,852490129,base_footprint,0.0,0.0,0.0,0.0,"(-1.0, 0.0, 0.0, 0.0, 0.0, 0.0, 0.0, 0.0, 0.0)",0.0,0.0,0.0208,"(5.0, 0.0, 0.0, 0.0, 5.0, 0.0, 0.0, 0.0, 0.5)",-0.18,0.03,-9.55,"(1.0, 0.0, 0.0, 0.0, 1.0, 0.0, 0.0, 0.0, 1.0)"
2018/12/16/17:23:03.862734,109454,1545002583,862226616,base_footprint,0.0,0.0,0.0,0.0,"(-1.0, 0.0, 0.0, 0.0, 0.0, 0.0, 0.0, 0.0, 0.0)",0.0,0.0,0.0214,"(5.0, 0.0, 0.0, 0.0, 5.0, 0.0, 0.0, 0.0, 0.5)",-0.21,0.04,-9.63,"(1.0, 0.0, 0.0, 0.0, 1.0, 0.0, 0.0, 0.0, 1.0)"
2018/12/16/17:23:03.872707,109455,1545002583,872275682,base_footprint,0.0,0.0,0.0,0.0,"(-1.0, 0.0, 0.0, 0.0, 0.0, 0.0, 0.0, 0.0, 0.0)",0.0,0.0,0.0218,"(5.0, 0.0, 0.0, 0.0, 5.0, 0.0, 0.0, 0.0, 0.5)",-0.26,0.09,-9.72,"(1.0, 0.0, 0.0, 0.0, 1.0, 0.0, 0.0, 0.0, 1.0)"
2018/12/16/17:23:03.882963,109456,1545002583,882252272,base_footprint,0.0,0.0,0.0,0.0,"(-1.0, 0.0, 0.0, 0.0, 0.0, 0.0, 0.0, 0.0, 0.0)",0.0,0.0,0.0212,"(5.0, 0.0, 0.0, 0.0, 5.0, 0.0, 0.0, 0.0, 0.5)",-0.27,0.16,-9.8,"(1.0, 0.0, 0.0, 0.0, 1.0, 0.0, 0.0, 0.0, 1.0)"
2018/12/16/17:23:03.892789,109457,1545002583,892295308,base_footprint,0.0,0.0,0.0,0.0,"(-1.0, 0.0, 0.0, 0.0, 0.0, 0.0, 0.0, 0.0, 0.0)",-0.0008,0.0,0.0204,"(5.0, 0.0, 0.0, 0.0, 5.0, 0.0, 0.0, 0.0, 0.5)",-0.27,0.2,-9.87,"(1.0, 0.0, 0.0, 0.0, 1.0, 0.0, 0.0, 0.0, 1.0)"
2018/12/16/17:23:03.902646,109458,1545002583,902147881,base_footprint,0.0,0.0,0.0,0.0,"(-1.0, 0.0, 0.0, 0.0, 0.0, 0.0, 0.0, 0.0, 0.0)",-0.0026,0.0,0.0196,"(5.0, 0.0, 0.0, 0.0, 5.0, 0.0, 0.0, 0.0, 0.5)",-0.22,0.2,-9.89,"(1.0, 0.0, 0.0, 0.0, 1.0, 0.0, 0.0, 0.0, 1.0)"
2018/12/16/17:23:03.913519,109459,1545002583,912984212,base_footprint,0.0,0.0,0.0,0.0,"(-1.0, 0.0, 0.0, 0.0, 0.0, 0.0, 0.0, 0.0, 0.0)",-0.0046,0.0,0.0196,"(5.0, 0.0, 0.0, 0.0, 5.0, 0.0, 0.0, 0.0, 0.5)",-0.15,0.17,-9.85,"(1.0, 0.0, 0.0, 0.0, 1.0, 0.0, 0.0, 0.0, 1.0)"
2018/12/16/17:23:03.922582,109460,1545002583,922148294,base_footprint,0.0,0.0,0.0,0.0,"(-1.0, 0.0, 0.0, 0.0, 0.0, 0.0, 0.0, 0.0, 0.0)",-0.0054,0.0,0.02,"(5.0, 0.0, 0.0, 0.0, 5.0, 0.0, 0.0, 0.0, 0.5)",-0.11,0.14,-9.79,"(1.0, 0.0, 0.0, 0.0, 1.0, 0.0, 0.0, 0.0, 1.0)"
2018/12/16/17:23:03.932751,109461,1545002583,932283293,base_footprint,0.0,0.0,0.0,0.0,"(-1.0, 0.0, 0.0, 0.0, 0.0, 0.0, 0.0, 0.0, 0.0)",-0.0042,0.0,0.0196,"(5.0, 0.0, 0.0, 0.0, 5.0, 0.0, 0.0, 0.0, 0.5)",-0.1,0.12,-9.75,"(1.0, 0.0, 0.0, 0.0, 1.0, 0.0, 0.0, 0.0, 1.0)"
2018/12/16/17:23:03.942601,109462,1545002583,942163041,base_footprint,0.0,0.0,0.0,0.0,"(-1.0, 0.0, 0.0, 0.0, 0.0, 0.0, 0.0, 0.0, 0.0)",-0.0026,0.0,0.0186,"(5.0, 0.0, 0.0, 0.0, 5.0, 0.0, 0.0, 0.0, 0.5)",-0.13,0.11,-9.74,"(1.0, 0.0, 0.0, 0.0, 1.0, 0.0, 0.0, 0.0, 1.0)"
2018/12/16/17:23:03.952791,109463,1545002583,952286122,base_footprint,0.0,0.0,0.0,0.0,"(-1.0, 0.0, 0.0, 0.0, 0.0, 0.0, 0.0, 0.0, 0.0)",-0.0018,0.0,0.0174,"(5.0, 0.0, 0.0, 0.0, 5.0, 0.0, 0.0, 0.0, 0.5)",-0.14,0.13,-9.75,"(1.0, 0.0, 0.0, 0.0, 1.0, 0.0, 0.0, 0.0, 1.0)"
2018/12/16/17:23:03.962631,109464,1545002583,962190092,base_footprint,0.0,0.0,0.0,0.0,"(-1.0, 0.0, 0.0, 0.0, 0.0, 0.0, 0.0, 0.0, 0.0)",-0.002,0.0,0.0166,"(5.0, 0.0, 0.0, 0.0, 5.0, 0.0, 0.0, 0.0, 0.5)",-0.12,0.17,-9.74,"(1.0, 0.0, 0.0, 0.0, 1.0, 0.0, 0.0, 0.0, 1.0)"
2018/12/16/17:23:03.972952,109465,1545002583,972517653,base_footprint,0.0,0.0,0.0,0.0,"(-1.0, 0.0, 0.0, 0.0, 0.0, 0.0, 0.0, 0.0, 0.0)",-0.0024,0.0,0.016,"(5.0, 0.0, 0.0, 0.0, 5.0, 0.0, 0.0, 0.0, 0.5)",-0.11,0.19,-9.7,"(1.0, 0.0, 0.0, 0.0, 1.0, 0.0, 0.0, 0.0, 1.0)"
2018/12/16/17:23:03.982714,109466,1545002583,982166789,base_footprint,0.0,0.0,0.0,0.0,"(-1.0, 0.0, 0.0, 0.0, 0.0, 0.0, 0.0, 0.0, 0.0)",-0.0034,0.0,0.015,"(5.0, 0.0, 0.0, 0.0, 5.0, 0.0, 0.0, 0.0, 0.5)",-0.1,0.19,-9.66,"(1.0, 0.0, 0.0, 0.0, 1.0, 0.0, 0.0, 0.0, 1.0)"
2018/12/16/17:23:03.993896,109467,1545002583,992266184,base_footprint,0.0,0.0,0.0,0.0,"(-1.0, 0.0, 0.0, 0.0, 0.0, 0.0, 0.0, 0.0, 0.0)",-0.0044,0.0,0.0138,"(5.0, 0.0, 0.0, 0.0, 5.0, 0.0, 0.0, 0.0, 0.5)",-0.1,0.19,-9.62,"(1.0, 0.0, 0.0, 0.0, 1.0, 0.0, 0.0, 0.0, 1.0)"
2018/12/16/17:23:04.002853,109468,1545002584,2181534,base_footprint,0.0,0.0,0.0,0.0,"(-1.0, 0.0, 0.0, 0.0, 0.0, 0.0, 0.0, 0.0, 0.0)",-0.0054,0.0,0.0122,"(5.0, 0.0, 0.0, 0.0, 5.0, 0.0, 0.0, 0.0, 0.5)",-0.11,0.2,-9.59,"(1.0, 0.0, 0.0, 0.0, 1.0, 0.0, 0.0, 0.0, 1.0)"
2018/12/16/17:23:04.032990,109469,1545002584,12975501,base_footprint,0.0,0.0,0.0,0.0,"(-1.0, 0.0, 0.0, 0.0, 0.0, 0.0, 0.0, 0.0, 0.0)",-0.0064,0.0,0.0108,"(5.0, 0.0, 0.0, 0.0, 5.0, 0.0, 0.0, 0.0, 0.5)",-0.11,0.21,-9.56,"(1.0, 0.0, 0.0, 0.0, 1.0, 0.0, 0.0, 0.0, 1.0)"
2018/12/16/17:23:04.033273,109470,1545002584,22121521,base_footprint,0.0,0.0,0.0,0.0,"(-1.0, 0.0, 0.0, 0.0, 0.0, 0.0, 0.0, 0.0, 0.0)",-0.0068,0.0,0.0096,"(5.0, 0.0, 0.0, 0.0, 5.0, 0.0, 0.0, 0.0, 0.5)",-0.08,0.22,-9.59,"(1.0, 0.0, 0.0, 0.0, 1.0, 0.0, 0.0, 0.0, 1.0)"
2018/12/16/17:23:04.033371,109471,1545002584,32262375,base_footprint,0.0,0.0,0.0,0.0,"(-1.0, 0.0, 0.0, 0.0, 0.0, 0.0, 0.0, 0.0, 0.0)",-0.0074,0.0,0.0084,"(5.0, 0.0, 0.0, 0.0, 5.0, 0.0, 0.0, 0.0, 0.5)",-0.04,0.21,-9.65,"(1.0, 0.0, 0.0, 0.0, 1.0, 0.0, 0.0, 0.0, 1.0)"
2018/12/16/17:23:04.042615,109472,1545002584,42106839,base_footprint,0.0,0.0,0.0,0.0,"(-1.0, 0.0, 0.0, 0.0, 0.0, 0.0, 0.0, 0.0, 0.0)",-0.0078,0.0,0.0074,"(5.0, 0.0, 0.0, 0.0, 5.0, 0.0, 0.0, 0.0, 0.5)",0.0,0.18,-9.68,"(1.0, 0.0, 0.0, 0.0, 1.0, 0.0, 0.0, 0.0, 1.0)"
2018/12/16/17:23:04.052774,109473,1545002584,52295215,base_footprint,0.0,0.0,0.0,0.0,"(-1.0, 0.0, 0.0, 0.0, 0.0, 0.0, 0.0, 0.0, 0.0)",-0.0078,0.0,0.0064,"(5.0, 0.0, 0.0, 0.0, 5.0, 0.0, 0.0, 0.0, 0.5)",0.01,0.15,-9.7,"(1.0, 0.0, 0.0, 0.0, 1.0, 0.0, 0.0, 0.0, 1.0)"
2018/12/16/17:23:04.062647,109474,1545002584,62205449,base_footprint,0.0,0.0,0.0,0.0,"(-1.0, 0.0, 0.0, 0.0, 0.0, 0.0, 0.0, 0.0, 0.0)",-0.0074,0.0,0.0054,"(5.0, 0.0, 0.0, 0.0, 5.0, 0.0, 0.0, 0.0, 0.5)",0.0,0.13,-9.71,"(1.0, 0.0, 0.0, 0.0, 1.0, 0.0, 0.0, 0.0, 1.0)"
2018/12/16/17:23:04.072754,109475,1545002584,72254665,base_footprint,0.0,0.0,0.0,0.0,"(-1.0, 0.0, 0.0, 0.0, 0.0, 0.0, 0.0, 0.0, 0.0)",-0.006,0.0,0.0046,"(5.0, 0.0, 0.0, 0.0, 5.0, 0.0, 0.0, 0.0, 0.5)",0.0,0.14,-9.66,"(1.0, 0.0, 0.0, 0.0, 1.0, 0.0, 0.0, 0.0, 1.0)"
2018/12/16/17:23:04.082714,109476,1545002584,82181170,base_footprint,0.0,0.0,0.0,0.0,"(-1.0, 0.0, 0.0, 0.0, 0.0, 0.0, 0.0, 0.0, 0.0)",-0.004,0.0,0.0046,"(5.0, 0.0, 0.0, 0.0, 5.0, 0.0, 0.0, 0.0, 0.5)",0.01,0.16,-9.59,"(1.0, 0.0, 0.0, 0.0, 1.0, 0.0, 0.0, 0.0, 1.0)"
2018/12/16/17:23:04.092713,109477,1545002584,92284001,base_footprint,0.0,0.0,0.0,0.0,"(-1.0, 0.0, 0.0, 0.0, 0.0, 0.0, 0.0, 0.0, 0.0)",-0.0016,0.0,0.005,"(5.0, 0.0, 0.0, 0.0, 5.0, 0.0, 0.0, 0.0, 0.5)",0.04,0.18,-9.57,"(1.0, 0.0, 0.0, 0.0, 1.0, 0.0, 0.0, 0.0, 1.0)"
2018/12/16/17:23:04.102595,109478,1545002584,102149081,base_footprint,0.0,0.0,0.0,0.0,"(-1.0, 0.0, 0.0, 0.0, 0.0, 0.0, 0.0, 0.0, 0.0)",0.0012,0.0,0.0054,"(5.0, 0.0, 0.0, 0.0, 5.0, 0.0, 0.0, 0.0, 0.5)",0.06,0.18,-9.58,"(1.0, 0.0, 0.0, 0.0, 1.0, 0.0, 0.0, 0.0, 1.0)"
2018/12/16/17:23:04.113475,109479,1545002584,113020425,base_footprint,0.0,0.0,0.0,0.0,"(-1.0, 0.0, 0.0, 0.0, 0.0, 0.0, 0.0, 0.0, 0.0)",0.005,0.0,0.0054,"(5.0, 0.0, 0.0, 0.0, 5.0, 0.0, 0.0, 0.0, 0.5)",0.05,0.19,-9.61,"(1.0, 0.0, 0.0, 0.0, 1.0, 0.0, 0.0, 0.0, 1.0)"
2018/12/16/17:23:04.122593,109480,1545002584,122187587,base_footprint,0.0,0.0,0.0,0.0,"(-1.0, 0.0, 0.0, 0.0, 0.0, 0.0, 0.0, 0.0, 0.0)",0.0088,0.0,0.0054,"(5.0, 0.0, 0.0, 0.0, 5.0, 0.0, 0.0, 0.0, 0.5)",0.03,0.21,-9.69,"(1.0, 0.0, 0.0, 0.0, 1.0, 0.0, 0.0, 0.0, 1.0)"
2018/12/16/17:23:04.132697,109481,1545002584,132229539,base_footprint,0.0,0.0,0.0,0.0,"(-1.0, 0.0, 0.0, 0.0, 0.0, 0.0, 0.0, 0.0, 0.0)",0.0112,0.0,0.0054,"(5.0, 0.0, 0.0, 0.0, 5.0, 0.0, 0.0, 0.0, 0.5)",0.02,0.26,-9.82,"(1.0, 0.0, 0.0, 0.0, 1.0, 0.0, 0.0, 0.0, 1.0)"
2018/12/16/17:23:04.142619,109482,1545002584,142141278,base_footprint,0.0,0.0,0.0,0.0,"(-1.0, 0.0, 0.0, 0.0, 0.0, 0.0, 0.0, 0.0, 0.0)",0.0122,0.0,0.0056,"(5.0, 0.0, 0.0, 0.0, 5.0, 0.0, 0.0, 0.0, 0.5)",0.01,0.29,-9.94,"(1.0, 0.0, 0.0, 0.0, 1.0, 0.0, 0.0, 0.0, 1.0)"
2018/12/16/17:23:04.152689,109483,1545002584,152239736,base_footprint,0.0,0.0,0.0,0.0,"(-1.0, 0.0, 0.0, 0.0, 0.0, 0.0, 0.0, 0.0, 0.0)",0.0112,0.0,0.0062,"(5.0, 0.0, 0.0, 0.0, 5.0, 0.0, 0.0, 0.0, 0.5)",0.01,0.31,-10.01,"(1.0, 0.0, 0.0, 0.0, 1.0, 0.0, 0.0, 0.0, 1.0)"
2018/12/16/17:23:04.162683,109484,1545002584,162243587,base_footprint,0.0,0.0,0.0,0.0,"(-1.0, 0.0, 0.0, 0.0, 0.0, 0.0, 0.0, 0.0, 0.0)",0.0082,0.0,0.006,"(5.0, 0.0, 0.0, 0.0, 5.0, 0.0, 0.0, 0.0, 0.5)",0.06,0.32,-10.01,"(1.0, 0.0, 0.0, 0.0, 1.0, 0.0, 0.0, 0.0, 1.0)"
2018/12/16/17:23:04.172770,109485,1545002584,172237758,base_footprint,0.0,0.0,0.0,0.0,"(-1.0, 0.0, 0.0, 0.0, 0.0, 0.0, 0.0, 0.0, 0.0)",0.0028,0.0,0.0052,"(5.0, 0.0, 0.0, 0.0, 5.0, 0.0, 0.0, 0.0, 0.5)",0.14,0.32,-9.95,"(1.0, 0.0, 0.0, 0.0, 1.0, 0.0, 0.0, 0.0, 1.0)"
2018/12/16/17:23:04.182735,109486,1545002584,182126746,base_footprint,0.0,0.0,0.0,0.0,"(-1.0, 0.0, 0.0, 0.0, 0.0, 0.0, 0.0, 0.0, 0.0)",-0.0026,0.0,0.0042,"(5.0, 0.0, 0.0, 0.0, 5.0, 0.0, 0.0, 0.0, 0.5)",0.24,0.28,-9.83,"(1.0, 0.0, 0.0, 0.0, 1.0, 0.0, 0.0, 0.0, 1.0)"
2018/12/16/17:23:04.192733,109487,1545002584,192232369,base_footprint,0.0,0.0,0.0,0.0,"(-1.0, 0.0, 0.0, 0.0, 0.0, 0.0, 0.0, 0.0, 0.0)",-0.0068,0.0,0.0034,"(5.0, 0.0, 0.0, 0.0, 5.0, 0.0, 0.0, 0.0, 0.5)",0.32,0.18,-9.71,"(1.0, 0.0, 0.0, 0.0, 1.0, 0.0, 0.0, 0.0, 1.0)"
2018/12/16/17:23:04.202618,109488,1545002584,202148959,base_footprint,0.0,0.0,0.0,0.0,"(-1.0, 0.0, 0.0, 0.0, 0.0, 0.0, 0.0, 0.0, 0.0)",-0.0094,0.0,0.0032,"(5.0, 0.0, 0.0, 0.0, 5.0, 0.0, 0.0, 0.0, 0.5)",0.31,0.07,-9.63,"(1.0, 0.0, 0.0, 0.0, 1.0, 0.0, 0.0, 0.0, 1.0)"
2018/12/16/17:23:04.213571,109489,1545002584,213015664,base_footprint,0.0,0.0,0.0,0.0,"(-1.0, 0.0, 0.0, 0.0, 0.0, 0.0, 0.0, 0.0, 0.0)",-0.0094,0.0,0.0028,"(5.0, 0.0, 0.0, 0.0, 5.0, 0.0, 0.0, 0.0, 0.5)",0.24,-0.0,-9.63,"(1.0, 0.0, 0.0, 0.0, 1.0, 0.0, 0.0, 0.0, 1.0)"
2018/12/16/17:23:04.222592,109490,1545002584,222159724,base_footprint,0.0,0.0,0.0,0.0,"(-1.0, 0.0, 0.0, 0.0, 0.0, 0.0, 0.0, 0.0, 0.0)",-0.0062,0.0,0.0026,"(5.0, 0.0, 0.0, 0.0, 5.0, 0.0, 0.0, 0.0, 0.5)",0.15,-0.01,-9.72,"(1.0, 0.0, 0.0, 0.0, 1.0, 0.0, 0.0, 0.0, 1.0)"
2018/12/16/17:23:04.232721,109491,1545002584,232254130,base_footprint,0.0,0.0,0.0,0.0,"(-1.0, 0.0, 0.0, 0.0, 0.0, 0.0, 0.0, 0.0, 0.0)",-0.0012,0.0,0.0026,"(5.0, 0.0, 0.0, 0.0, 5.0, 0.0, 0.0, 0.0, 0.5)",0.03,0.02,-9.84,"(1.0, 0.0, 0.0, 0.0, 1.0, 0.0, 0.0, 0.0, 1.0)"
2018/12/16/17:23:04.242630,109492,1545002584,242157041,base_footprint,0.0,0.0,0.0,0.0,"(-1.0, 0.0, 0.0, 0.0, 0.0, 0.0, 0.0, 0.0, 0.0)",0.0022,0.0,0.0034,"(5.0, 0.0, 0.0, 0.0, 5.0, 0.0, 0.0, 0.0, 0.5)",-0.03,0.08,-9.97,"(1.0, 0.0, 0.0, 0.0, 1.0, 0.0, 0.0, 0.0, 1.0)"
2018/12/16/17:23:04.252741,109493,1545002584,252244526,base_footprint,0.0,0.0,0.0,0.0,"(-1.0, 0.0, 0.0, 0.0, 0.0, 0.0, 0.0, 0.0, 0.0)",0.0032,0.0,0.0044,"(5.0, 0.0, 0.0, 0.0, 5.0, 0.0, 0.0, 0.0, 0.5)",-0.01,0.12,-10.06,"(1.0, 0.0, 0.0, 0.0, 1.0, 0.0, 0.0, 0.0, 1.0)"
2018/12/16/17:23:04.262696,109494,1545002584,262199642,base_footprint,0.0,0.0,0.0,0.0,"(-1.0, 0.0, 0.0, 0.0, 0.0, 0.0, 0.0, 0.0, 0.0)",0.0026,0.0,0.0056,"(5.0, 0.0, 0.0, 0.0, 5.0, 0.0, 0.0, 0.0, 0.5)",0.1,0.14,-10.04,"(1.0, 0.0, 0.0, 0.0, 1.0, 0.0, 0.0, 0.0, 1.0)"
2018/12/16/17:23:04.272735,109495,1545002584,272215365,base_footprint,0.0,0.0,0.0,0.0,"(-1.0, 0.0, 0.0, 0.0, 0.0, 0.0, 0.0, 0.0, 0.0)",0.0022,0.0,0.0064,"(5.0, 0.0, 0.0, 0.0, 5.0, 0.0, 0.0, 0.0, 0.5)",0.28,0.15,-9.96,"(1.0, 0.0, 0.0, 0.0, 1.0, 0.0, 0.0, 0.0, 1.0)"
2018/12/16/17:23:04.282797,109496,1545002584,282157879,base_footprint,0.0,0.0,0.0,0.0,"(-1.0, 0.0, 0.0, 0.0, 0.0, 0.0, 0.0, 0.0, 0.0)",0.002,0.0,0.0068,"(5.0, 0.0, 0.0, 0.0, 5.0, 0.0, 0.0, 0.0, 0.5)",0.4,0.14,-9.85,"(1.0, 0.0, 0.0, 0.0, 1.0, 0.0, 0.0, 0.0, 1.0)"
2018/12/16/17:23:04.292789,109497,1545002584,292282149,base_footprint,0.0,0.0,0.0,0.0,"(-1.0, 0.0, 0.0, 0.0, 0.0, 0.0, 0.0, 0.0, 0.0)",0.002,0.0,0.0068,"(5.0, 0.0, 0.0, 0.0, 5.0, 0.0, 0.0, 0.0, 0.5)",0.4,0.14,-9.79,"(1.0, 0.0, 0.0, 0.0, 1.0, 0.0, 0.0, 0.0, 1.0)"
2018/12/16/17:23:04.302651,109498,1545002584,302163256,base_footprint,0.0,0.0,0.0,0.0,"(-1.0, 0.0, 0.0, 0.0, 0.0, 0.0, 0.0, 0.0, 0.0)",0.0016,0.0,0.007,"(5.0, 0.0, 0.0, 0.0, 5.0, 0.0, 0.0, 0.0, 0.5)",0.29,0.14,-9.76,"(1.0, 0.0, 0.0, 0.0, 1.0, 0.0, 0.0, 0.0, 1.0)"
2018/12/16/17:23:04.313452,109499,1545002584,312975156,base_footprint,0.0,0.0,0.0,0.0,"(-1.0, 0.0, 0.0, 0.0, 0.0, 0.0, 0.0, 0.0, 0.0)",0.0,0.0,0.008,"(5.0, 0.0, 0.0, 0.0, 5.0, 0.0, 0.0, 0.0, 0.5)",0.15,0.14,-9.76,"(1.0, 0.0, 0.0, 0.0, 1.0, 0.0, 0.0, 0.0, 1.0)"
2018/12/16/17:23:04.322579,109500,1545002584,322104738,base_footprint,0.0,0.0,0.0,0.0,"(-1.0, 0.0, 0.0, 0.0, 0.0, 0.0, 0.0, 0.0, 0.0)",-0.0026,0.0,0.0096,"(5.0, 0.0, 0.0, 0.0, 5.0, 0.0, 0.0, 0.0, 0.5)",0.07,0.14,-9.78,"(1.0, 0.0, 0.0, 0.0, 1.0, 0.0, 0.0, 0.0, 1.0)"
2018/12/16/17:23:04.332837,109501,1545002584,332262752,base_footprint,0.0,0.0,0.0,0.0,"(-1.0, 0.0, 0.0, 0.0, 0.0, 0.0, 0.0, 0.0, 0.0)",-0.004,0.0,0.0114,"(5.0, 0.0, 0.0, 0.0, 5.0, 0.0, 0.0, 0.0, 0.5)",0.07,0.14,-9.81,"(1.0, 0.0, 0.0, 0.0, 1.0, 0.0, 0.0, 0.0, 1.0)"
2018/12/16/17:23:04.342543,109502,1545002584,342112804,base_footprint,0.0,0.0,0.0,0.0,"(-1.0, 0.0, 0.0, 0.0, 0.0, 0.0, 0.0, 0.0, 0.0)",-0.0034,0.0,0.0122,"(5.0, 0.0, 0.0, 0.0, 5.0, 0.0, 0.0, 0.0, 0.5)",0.12,0.11,-9.82,"(1.0, 0.0, 0.0, 0.0, 1.0, 0.0, 0.0, 0.0, 1.0)"
2018/12/16/17:23:04.352707,109503,1545002584,352244051,base_footprint,0.0,0.0,0.0,0.0,"(-1.0, 0.0, 0.0, 0.0, 0.0, 0.0, 0.0, 0.0, 0.0)",-0.0016,0.0,0.0126,"(5.0, 0.0, 0.0, 0.0, 5.0, 0.0, 0.0, 0.0, 0.5)",0.19,0.07,-9.81,"(1.0, 0.0, 0.0, 0.0, 1.0, 0.0, 0.0, 0.0, 1.0)"
2018/12/16/17:23:04.362727,109504,1545002584,362234212,base_footprint,0.0,0.0,0.0,0.0,"(-1.0, 0.0, 0.0, 0.0, 0.0, 0.0, 0.0, 0.0, 0.0)",0.0,0.0,0.0128,"(5.0, 0.0, 0.0, 0.0, 5.0, 0.0, 0.0, 0.0, 0.5)",0.29,0.04,-9.81,"(1.0, 0.0, 0.0, 0.0, 1.0, 0.0, 0.0, 0.0, 1.0)"
2018/12/16/17:23:04.373068,109505,1545002584,372479146,base_footprint,0.0,0.0,0.0,0.0,"(-1.0, 0.0, 0.0, 0.0, 0.0, 0.0, 0.0, 0.0, 0.0)",0.0012,0.0,0.0128,"(5.0, 0.0, 0.0, 0.0, 5.0, 0.0, 0.0, 0.0, 0.5)",0.4,0.05,-9.79,"(1.0, 0.0, 0.0, 0.0, 1.0, 0.0, 0.0, 0.0, 1.0)"
2018/12/16/17:23:04.382974,109506,1545002584,382138361,base_footprint,0.0,0.0,0.0,0.0,"(-1.0, 0.0, 0.0, 0.0, 0.0, 0.0, 0.0, 0.0, 0.0)",0.0018,0.0,0.0126,"(5.0, 0.0, 0.0, 0.0, 5.0, 0.0, 0.0, 0.0, 0.5)",0.44,0.07,-9.74,"(1.0, 0.0, 0.0, 0.0, 1.0, 0.0, 0.0, 0.0, 1.0)"
2018/12/16/17:23:04.392699,109507,1545002584,392228252,base_footprint,0.0,0.0,0.0,0.0,"(-1.0, 0.0, 0.0, 0.0, 0.0, 0.0, 0.0, 0.0, 0.0)",0.002,0.0,0.0122,"(5.0, 0.0, 0.0, 0.0, 5.0, 0.0, 0.0, 0.0, 0.5)",0.4,0.11,-9.67,"(1.0, 0.0, 0.0, 0.0, 1.0, 0.0, 0.0, 0.0, 1.0)"
2018/12/16/17:23:04.402625,109508,1545002584,402146440,base_footprint,0.0,0.0,0.0,0.0,"(-1.0, 0.0, 0.0, 0.0, 0.0, 0.0, 0.0, 0.0, 0.0)",0.003,0.0,0.012,"(5.0, 0.0, 0.0, 0.0, 5.0, 0.0, 0.0, 0.0, 0.5)",0.32,0.14,-9.61,"(1.0, 0.0, 0.0, 0.0, 1.0, 0.0, 0.0, 0.0, 1.0)"
2018/12/16/17:23:04.413455,109509,1545002584,412974982,base_footprint,0.0,0.0,0.0,0.0,"(-1.0, 0.0, 0.0, 0.0, 0.0, 0.0, 0.0, 0.0, 0.0)",0.005,0.0,0.0114,"(5.0, 0.0, 0.0, 0.0, 5.0, 0.0, 0.0, 0.0, 0.5)",0.26,0.13,-9.59,"(1.0, 0.0, 0.0, 0.0, 1.0, 0.0, 0.0, 0.0, 1.0)"
2018/12/16/17:23:04.422671,109510,1545002584,422208493,base_footprint,0.0,0.0,0.0,0.0,"(-1.0, 0.0, 0.0, 0.0, 0.0, 0.0, 0.0, 0.0, 0.0)",0.0064,0.0,0.0108,"(5.0, 0.0, 0.0, 0.0, 5.0, 0.0, 0.0, 0.0, 0.5)",0.24,0.1,-9.57,"(1.0, 0.0, 0.0, 0.0, 1.0, 0.0, 0.0, 0.0, 1.0)"
2018/12/16/17:23:04.432767,109511,1545002584,432210474,base_footprint,0.0,0.0,0.0,0.0,"(-1.0, 0.0, 0.0, 0.0, 0.0, 0.0, 0.0, 0.0, 0.0)",0.0068,0.0,0.0104,"(5.0, 0.0, 0.0, 0.0, 5.0, 0.0, 0.0, 0.0, 0.5)",0.25,0.09,-9.57,"(1.0, 0.0, 0.0, 0.0, 1.0, 0.0, 0.0, 0.0, 1.0)"
2018/12/16/17:23:04.442574,109512,1545002584,442138142,base_footprint,0.0,0.0,0.0,0.0,"(-1.0, 0.0, 0.0, 0.0, 0.0, 0.0, 0.0, 0.0, 0.0)",0.0074,0.0,0.0104,"(5.0, 0.0, 0.0, 0.0, 5.0, 0.0, 0.0, 0.0, 0.5)",0.27,0.13,-9.59,"(1.0, 0.0, 0.0, 0.0, 1.0, 0.0, 0.0, 0.0, 1.0)"
2018/12/16/17:23:04.452782,109513,1545002584,452255652,base_footprint,0.0,0.0,0.0,0.0,"(-1.0, 0.0, 0.0, 0.0, 0.0, 0.0, 0.0, 0.0, 0.0)",0.0076,0.0,0.01,"(5.0, 0.0, 0.0, 0.0, 5.0, 0.0, 0.0, 0.0, 0.5)",0.28,0.19,-9.62,"(1.0, 0.0, 0.0, 0.0, 1.0, 0.0, 0.0, 0.0, 1.0)"
2018/12/16/17:23:04.462689,109514,1545002584,462203183,base_footprint,0.0,0.0,0.0,0.0,"(-1.0, 0.0, 0.0, 0.0, 0.0, 0.0, 0.0, 0.0, 0.0)",0.0068,0.0,0.0092,"(5.0, 0.0, 0.0, 0.0, 5.0, 0.0, 0.0, 0.0, 0.5)",0.31,0.22,-9.66,"(1.0, 0.0, 0.0, 0.0, 1.0, 0.0, 0.0, 0.0, 1.0)"
2018/12/16/17:23:04.472992,109515,1545002584,472502968,base_footprint,0.0,0.0,0.0,0.0,"(-1.0, 0.0, 0.0, 0.0, 0.0, 0.0, 0.0, 0.0, 0.0)",0.005,0.0,0.0082,"(5.0, 0.0, 0.0, 0.0, 5.0, 0.0, 0.0, 0.0, 0.5)",0.36,0.24,-9.67,"(1.0, 0.0, 0.0, 0.0, 1.0, 0.0, 0.0, 0.0, 1.0)"
2018/12/16/17:23:04.482706,109516,1545002584,482175616,base_footprint,0.0,0.0,0.0,0.0,"(-1.0, 0.0, 0.0, 0.0, 0.0, 0.0, 0.0, 0.0, 0.0)",0.0026,0.0,0.008,"(5.0, 0.0, 0.0, 0.0, 5.0, 0.0, 0.0, 0.0, 0.5)",0.42,0.24,-9.63,"(1.0, 0.0, 0.0, 0.0, 1.0, 0.0, 0.0, 0.0, 1.0)"
2018/12/16/17:23:04.492689,109517,1545002584,492207927,base_footprint,0.0,0.0,0.0,0.0,"(-1.0, 0.0, 0.0, 0.0, 0.0, 0.0, 0.0, 0.0, 0.0)",0.0002,0.0,0.0078,"(5.0, 0.0, 0.0, 0.0, 5.0, 0.0, 0.0, 0.0, 0.5)",0.45,0.24,-9.57,"(1.0, 0.0, 0.0, 0.0, 1.0, 0.0, 0.0, 0.0, 1.0)"
2018/12/16/17:23:04.502632,109518,1545002584,502138076,base_footprint,0.0,0.0,0.0,0.0,"(-1.0, 0.0, 0.0, 0.0, 0.0, 0.0, 0.0, 0.0, 0.0)",-0.0014,0.0,0.0072,"(5.0, 0.0, 0.0, 0.0, 5.0, 0.0, 0.0, 0.0, 0.5)",0.44,0.25,-9.53,"(1.0, 0.0, 0.0, 0.0, 1.0, 0.0, 0.0, 0.0, 1.0)"
2018/12/16/17:23:04.513479,109519,1545002584,512985625,base_footprint,0.0,0.0,0.0,0.0,"(-1.0, 0.0, 0.0, 0.0, 0.0, 0.0, 0.0, 0.0, 0.0)",-0.0026,0.0,0.0066,"(5.0, 0.0, 0.0, 0.0, 5.0, 0.0, 0.0, 0.0, 0.5)",0.4,0.23,-9.55,"(1.0, 0.0, 0.0, 0.0, 1.0, 0.0, 0.0, 0.0, 1.0)"
2018/12/16/17:23:04.522601,109520,1545002584,522139442,base_footprint,0.0,0.0,0.0,0.0,"(-1.0, 0.0, 0.0, 0.0, 0.0, 0.0, 0.0, 0.0, 0.0)",-0.0034,0.0,0.0056,"(5.0, 0.0, 0.0, 0.0, 5.0, 0.0, 0.0, 0.0, 0.5)",0.35,0.19,-9.59,"(1.0, 0.0, 0.0, 0.0, 1.0, 0.0, 0.0, 0.0, 1.0)"
2018/12/16/17:23:04.532710,109521,1545002584,532210720,base_footprint,0.0,0.0,0.0,0.0,"(-1.0, 0.0, 0.0, 0.0, 0.0, 0.0, 0.0, 0.0, 0.0)",-0.0052,0.0,0.0046,"(5.0, 0.0, 0.0, 0.0, 5.0, 0.0, 0.0, 0.0, 0.5)",0.32,0.14,-9.62,"(1.0, 0.0, 0.0, 0.0, 1.0, 0.0, 0.0, 0.0, 1.0)"
2018/12/16/17:23:04.542663,109522,1545002584,542115430,base_footprint,0.0,0.0,0.0,0.0,"(-1.0, 0.0, 0.0, 0.0, 0.0, 0.0, 0.0, 0.0, 0.0)",-0.0068,0.0,0.0042,"(5.0, 0.0, 0.0, 0.0, 5.0, 0.0, 0.0, 0.0, 0.5)",0.31,0.11,-9.65,"(1.0, 0.0, 0.0, 0.0, 1.0, 0.0, 0.0, 0.0, 1.0)"
2018/12/16/17:23:04.552748,109523,1545002584,552245854,base_footprint,0.0,0.0,0.0,0.0,"(-1.0, 0.0, 0.0, 0.0, 0.0, 0.0, 0.0, 0.0, 0.0)",-0.0074,0.0,0.004,"(5.0, 0.0, 0.0, 0.0, 5.0, 0.0, 0.0, 0.0, 0.5)",0.32,0.07,-9.69,"(1.0, 0.0, 0.0, 0.0, 1.0, 0.0, 0.0, 0.0, 1.0)"
2018/12/16/17:23:04.562660,109524,1545002584,562199554,base_footprint,0.0,0.0,0.0,0.0,"(-1.0, 0.0, 0.0, 0.0, 0.0, 0.0, 0.0, 0.0, 0.0)",-0.0066,0.0,0.004,"(5.0, 0.0, 0.0, 0.0, 5.0, 0.0, 0.0, 0.0, 0.5)",0.36,0.06,-9.71,"(1.0, 0.0, 0.0, 0.0, 1.0, 0.0, 0.0, 0.0, 1.0)"
2018/12/16/17:23:04.572732,109525,1545002584,572249734,base_footprint,0.0,0.0,0.0,0.0,"(-1.0, 0.0, 0.0, 0.0, 0.0, 0.0, 0.0, 0.0, 0.0)",-0.0052,0.0,0.0038,"(5.0, 0.0, 0.0, 0.0, 5.0, 0.0, 0.0, 0.0, 0.5)",0.41,0.08,-9.72,"(1.0, 0.0, 0.0, 0.0, 1.0, 0.0, 0.0, 0.0, 1.0)"
2018/12/16/17:23:04.582892,109526,1545002584,582133583,base_footprint,0.0,0.0,0.0,0.0,"(-1.0, 0.0, 0.0, 0.0, 0.0, 0.0, 0.0, 0.0, 0.0)",-0.003,0.0,0.0032,"(5.0, 0.0, 0.0, 0.0, 5.0, 0.0, 0.0, 0.0, 0.5)",0.44,0.11,-9.73,"(1.0, 0.0, 0.0, 0.0, 1.0, 0.0, 0.0, 0.0, 1.0)"
2018/12/16/17:23:04.592748,109527,1545002584,592253768,base_footprint,0.0,0.0,0.0,0.0,"(-1.0, 0.0, 0.0, 0.0, 0.0, 0.0, 0.0, 0.0, 0.0)",-0.0024,0.0,0.0026,"(5.0, 0.0, 0.0, 0.0, 5.0, 0.0, 0.0, 0.0, 0.5)",0.44,0.15,-9.73,"(1.0, 0.0, 0.0, 0.0, 1.0, 0.0, 0.0, 0.0, 1.0)"
2018/12/16/17:23:04.602628,109528,1545002584,602132061,base_footprint,0.0,0.0,0.0,0.0,"(-1.0, 0.0, 0.0, 0.0, 0.0, 0.0, 0.0, 0.0, 0.0)",-0.003,0.0,0.0024,"(5.0, 0.0, 0.0, 0.0, 5.0, 0.0, 0.0, 0.0, 0.5)",0.4,0.19,-9.73,"(1.0, 0.0, 0.0, 0.0, 1.0, 0.0, 0.0, 0.0, 1.0)"
2018/12/16/17:23:04.613547,109529,1545002584,612985766,base_footprint,0.0,0.0,0.0,0.0,"(-1.0, 0.0, 0.0, 0.0, 0.0, 0.0, 0.0, 0.0, 0.0)",-0.004,0.0,0.0016,"(5.0, 0.0, 0.0, 0.0, 5.0, 0.0, 0.0, 0.0, 0.5)",0.38,0.21,-9.74,"(1.0, 0.0, 0.0, 0.0, 1.0, 0.0, 0.0, 0.0, 1.0)"
2018/12/16/17:23:04.622692,109530,1545002584,622148789,base_footprint,0.0,0.0,0.0,0.0,"(-1.0, 0.0, 0.0, 0.0, 0.0, 0.0, 0.0, 0.0, 0.0)",-0.0048,0.0,0.0006,"(5.0, 0.0, 0.0, 0.0, 5.0, 0.0, 0.0, 0.0, 0.5)",0.38,0.21,-9.78,"(1.0, 0.0, 0.0, 0.0, 1.0, 0.0, 0.0, 0.0, 1.0)"
2018/12/16/17:23:04.633125,109531,1545002584,632237246,base_footprint,0.0,0.0,0.0,0.0,"(-1.0, 0.0, 0.0, 0.0, 0.0, 0.0, 0.0, 0.0, 0.0)",-0.0052,0.0,0.0,"(5.0, 0.0, 0.0, 0.0, 5.0, 0.0, 0.0, 0.0, 0.5)",0.4,0.19,-9.8,"(1.0, 0.0, 0.0, 0.0, 1.0, 0.0, 0.0, 0.0, 1.0)"
2018/12/16/17:23:04.643437,109532,1545002584,642137617,base_footprint,0.0,0.0,0.0,0.0,"(-1.0, 0.0, 0.0, 0.0, 0.0, 0.0, 0.0, 0.0, 0.0)",-0.0044,0.0,0.0,"(5.0, 0.0, 0.0, 0.0, 5.0, 0.0, 0.0, 0.0, 0.5)",0.43,0.2,-9.79,"(1.0, 0.0, 0.0, 0.0, 1.0, 0.0, 0.0, 0.0, 1.0)"
2018/12/16/17:23:04.652818,109533,1545002584,652239724,base_footprint,0.0,0.0,0.0,0.0,"(-1.0, 0.0, 0.0, 0.0, 0.0, 0.0, 0.0, 0.0, 0.0)",-0.0032,0.0,0.0004,"(5.0, 0.0, 0.0, 0.0, 5.0, 0.0, 0.0, 0.0, 0.5)",0.45,0.24,-9.76,"(1.0, 0.0, 0.0, 0.0, 1.0, 0.0, 0.0, 0.0, 1.0)"
2018/12/16/17:23:04.662754,109534,1545002584,662156767,base_footprint,0.0,0.0,0.0,0.0,"(-1.0, 0.0, 0.0, 0.0, 0.0, 0.0, 0.0, 0.0, 0.0)",-0.0022,0.0,0.0008,"(5.0, 0.0, 0.0, 0.0, 5.0, 0.0, 0.0, 0.0, 0.5)",0.45,0.3,-9.72,"(1.0, 0.0, 0.0, 0.0, 1.0, 0.0, 0.0, 0.0, 1.0)"
2018/12/16/17:23:04.672842,109535,1545002584,672243134,base_footprint,0.0,0.0,0.0,0.0,"(-1.0, 0.0, 0.0, 0.0, 0.0, 0.0, 0.0, 0.0, 0.0)",-0.0024,0.0,0.0006,"(5.0, 0.0, 0.0, 0.0, 5.0, 0.0, 0.0, 0.0, 0.5)",0.43,0.35,-9.7,"(1.0, 0.0, 0.0, 0.0, 1.0, 0.0, 0.0, 0.0, 1.0)"
2018/12/16/17:23:04.682870,109536,1545002584,682164853,base_footprint,0.0,0.0,0.0,0.0,"(-1.0, 0.0, 0.0, 0.0, 0.0, 0.0, 0.0, 0.0, 0.0)",-0.0034,0.0,0.0,"(5.0, 0.0, 0.0, 0.0, 5.0, 0.0, 0.0, 0.0, 0.5)",0.4,0.38,-9.71,"(1.0, 0.0, 0.0, 0.0, 1.0, 0.0, 0.0, 0.0, 1.0)"
2018/12/16/17:23:04.692857,109537,1545002584,692281959,base_footprint,0.0,0.0,0.0,0.0,"(-1.0, 0.0, 0.0, 0.0, 0.0, 0.0, 0.0, 0.0, 0.0)",-0.0046,0.0,-0.0002,"(5.0, 0.0, 0.0, 0.0, 5.0, 0.0, 0.0, 0.0, 0.5)",0.39,0.39,-9.76,"(1.0, 0.0, 0.0, 0.0, 1.0, 0.0, 0.0, 0.0, 1.0)"
2018/12/16/17:23:04.703470,109538,1545002584,702816677,base_footprint,0.0,0.0,0.0,0.0,"(-1.0, 0.0, 0.0, 0.0, 0.0, 0.0, 0.0, 0.0, 0.0)",-0.0054,0.0,-0.0004,"(5.0, 0.0, 0.0, 0.0, 5.0, 0.0, 0.0, 0.0, 0.5)",0.4,0.36,-9.82,"(1.0, 0.0, 0.0, 0.0, 1.0, 0.0, 0.0, 0.0, 1.0)"
2018/12/16/17:23:04.713523,109539,1545002584,712990475,base_footprint,0.0,0.0,0.0,0.0,"(-1.0, 0.0, 0.0, 0.0, 0.0, 0.0, 0.0, 0.0, 0.0)",-0.0052,0.0,-0.0004,"(5.0, 0.0, 0.0, 0.0, 5.0, 0.0, 0.0, 0.0, 0.5)",0.43,0.34,-9.8,"(1.0, 0.0, 0.0, 0.0, 1.0, 0.0, 0.0, 0.0, 1.0)"
2018/12/16/17:23:04.722602,109540,1545002584,722111577,base_footprint,0.0,0.0,0.0,0.0,"(-1.0, 0.0, 0.0, 0.0, 0.0, 0.0, 0.0, 0.0, 0.0)",-0.0042,0.0,-0.0006,"(5.0, 0.0, 0.0, 0.0, 5.0, 0.0, 0.0, 0.0, 0.5)",0.46,0.32,-9.77,"(1.0, 0.0, 0.0, 0.0, 1.0, 0.0, 0.0, 0.0, 1.0)"
2018/12/16/17:23:04.732823,109541,1545002584,732240863,base_footprint,0.0,0.0,0.0,0.0,"(-1.0, 0.0, 0.0, 0.0, 0.0, 0.0, 0.0, 0.0, 0.0)",-0.004,0.0,-0.001,"(5.0, 0.0, 0.0, 0.0, 5.0, 0.0, 0.0, 0.0, 0.5)",0.5,0.32,-9.78,"(1.0, 0.0, 0.0, 0.0, 1.0, 0.0, 0.0, 0.0, 1.0)"
2018/12/16/17:23:04.742600,109542,1545002584,742122977,base_footprint,0.0,0.0,0.0,0.0,"(-1.0, 0.0, 0.0, 0.0, 0.0, 0.0, 0.0, 0.0, 0.0)",-0.004,0.0,-0.0014,"(5.0, 0.0, 0.0, 0.0, 5.0, 0.0, 0.0, 0.0, 0.5)",0.51,0.3,-9.77,"(1.0, 0.0, 0.0, 0.0, 1.0, 0.0, 0.0, 0.0, 1.0)"
2018/12/16/17:23:04.752684,109543,1545002584,752251936,base_footprint,0.0,0.0,0.0,0.0,"(-1.0, 0.0, 0.0, 0.0, 0.0, 0.0, 0.0, 0.0, 0.0)",-0.0028,0.0,-0.0016,"(5.0, 0.0, 0.0, 0.0, 5.0, 0.0, 0.0, 0.0, 0.5)",0.48,0.28,-9.71,"(1.0, 0.0, 0.0, 0.0, 1.0, 0.0, 0.0, 0.0, 1.0)"
2018/12/16/17:23:04.762609,109544,1545002584,762130412,base_footprint,0.0,0.0,0.0,0.0,"(-1.0, 0.0, 0.0, 0.0, 0.0, 0.0, 0.0, 0.0, 0.0)",-0.0008,0.0,-0.002,"(5.0, 0.0, 0.0, 0.0, 5.0, 0.0, 0.0, 0.0, 0.5)",0.44,0.27,-9.67,"(1.0, 0.0, 0.0, 0.0, 1.0, 0.0, 0.0, 0.0, 1.0)"
2018/12/16/17:23:04.772748,109545,1545002584,772268364,base_footprint,0.0,0.0,0.0,0.0,"(-1.0, 0.0, 0.0, 0.0, 0.0, 0.0, 0.0, 0.0, 0.0)",0.001,0.0,-0.0026,"(5.0, 0.0, 0.0, 0.0, 5.0, 0.0, 0.0, 0.0, 0.5)",0.4,0.28,-9.71,"(1.0, 0.0, 0.0, 0.0, 1.0, 0.0, 0.0, 0.0, 1.0)"
2018/12/16/17:23:04.782967,109546,1545002584,782386379,base_footprint,0.0,0.0,0.0,0.0,"(-1.0, 0.0, 0.0, 0.0, 0.0, 0.0, 0.0, 0.0, 0.0)",0.0018,0.0,-0.003,"(5.0, 0.0, 0.0, 0.0, 5.0, 0.0, 0.0, 0.0, 0.5)",0.36,0.29,-9.78,"(1.0, 0.0, 0.0, 0.0, 1.0, 0.0, 0.0, 0.0, 1.0)"
2018/12/16/17:23:04.792669,109547,1545002584,792225465,base_footprint,0.0,0.0,0.0,0.0,"(-1.0, 0.0, 0.0, 0.0, 0.0, 0.0, 0.0, 0.0, 0.0)",0.0022,0.0,-0.0036,"(5.0, 0.0, 0.0, 0.0, 5.0, 0.0, 0.0, 0.0, 0.5)",0.35,0.28,-9.84,"(1.0, 0.0, 0.0, 0.0, 1.0, 0.0, 0.0, 0.0, 1.0)"
2018/12/16/17:23:04.802678,109548,1545002584,802179935,base_footprint,0.0,0.0,0.0,0.0,"(-1.0, 0.0, 0.0, 0.0, 0.0, 0.0, 0.0, 0.0, 0.0)",0.0022,0.0,-0.0036,"(5.0, 0.0, 0.0, 0.0, 5.0, 0.0, 0.0, 0.0, 0.5)",0.39,0.28,-9.87,"(1.0, 0.0, 0.0, 0.0, 1.0, 0.0, 0.0, 0.0, 1.0)"
2018/12/16/17:23:04.813429,109549,1545002584,813010221,base_footprint,0.0,0.0,0.0,0.0,"(-1.0, 0.0, 0.0, 0.0, 0.0, 0.0, 0.0, 0.0, 0.0)",0.002,0.0,-0.0038,"(5.0, 0.0, 0.0, 0.0, 5.0, 0.0, 0.0, 0.0, 0.5)",0.45,0.28,-9.9,"(1.0, 0.0, 0.0, 0.0, 1.0, 0.0, 0.0, 0.0, 1.0)"
2018/12/16/17:23:04.822614,109550,1545002584,822130922,base_footprint,0.0,0.0,0.0,0.0,"(-1.0, 0.0, 0.0, 0.0, 0.0, 0.0, 0.0, 0.0, 0.0)",0.0012,0.0,-0.0038,"(5.0, 0.0, 0.0, 0.0, 5.0, 0.0, 0.0, 0.0, 0.5)",0.48,0.28,-9.93,"(1.0, 0.0, 0.0, 0.0, 1.0, 0.0, 0.0, 0.0, 1.0)"
2018/12/16/17:23:04.832810,109551,1545002584,832228790,base_footprint,0.0,0.0,0.0,0.0,"(-1.0, 0.0, 0.0, 0.0, 0.0, 0.0, 0.0, 0.0, 0.0)",0.0002,0.0,-0.004,"(5.0, 0.0, 0.0, 0.0, 5.0, 0.0, 0.0, 0.0, 0.5)",0.45,0.27,-9.92,"(1.0, 0.0, 0.0, 0.0, 1.0, 0.0, 0.0, 0.0, 1.0)"
2018/12/16/17:23:04.842675,109552,1545002584,842161470,base_footprint,0.0,0.0,0.0,0.0,"(-1.0, 0.0, 0.0, 0.0, 0.0, 0.0, 0.0, 0.0, 0.0)",0.0,0.0,-0.004,"(5.0, 0.0, 0.0, 0.0, 5.0, 0.0, 0.0, 0.0, 0.5)",0.43,0.27,-9.86,"(1.0, 0.0, 0.0, 0.0, 1.0, 0.0, 0.0, 0.0, 1.0)"
2018/12/16/17:23:04.852815,109553,1545002584,852272269,base_footprint,0.0,0.0,0.0,0.0,"(-1.0, 0.0, 0.0, 0.0, 0.0, 0.0, 0.0, 0.0, 0.0)",0.0004,0.0,-0.0038,"(5.0, 0.0, 0.0, 0.0, 5.0, 0.0, 0.0, 0.0, 0.5)",0.44,0.24,-9.75,"(1.0, 0.0, 0.0, 0.0, 1.0, 0.0, 0.0, 0.0, 1.0)"
2018/12/16/17:23:04.862590,109554,1545002584,862111174,base_footprint,0.0,0.0,0.0,0.0,"(-1.0, 0.0, 0.0, 0.0, 0.0, 0.0, 0.0, 0.0, 0.0)",0.002,0.0,-0.0036,"(5.0, 0.0, 0.0, 0.0, 5.0, 0.0, 0.0, 0.0, 0.5)",0.48,0.18,-9.64,"(1.0, 0.0, 0.0, 0.0, 1.0, 0.0, 0.0, 0.0, 1.0)"
2018/12/16/17:23:04.872738,109555,1545002584,872279358,base_footprint,0.0,0.0,0.0,0.0,"(-1.0, 0.0, 0.0, 0.0, 0.0, 0.0, 0.0, 0.0, 0.0)",0.004,0.0,-0.003,"(5.0, 0.0, 0.0, 0.0, 5.0, 0.0, 0.0, 0.0, 0.5)",0.48,0.15,-9.58,"(1.0, 0.0, 0.0, 0.0, 1.0, 0.0, 0.0, 0.0, 1.0)"
2018/12/16/17:23:04.882698,109556,1545002584,882164099,base_footprint,0.0,0.0,0.0,0.0,"(-1.0, 0.0, 0.0, 0.0, 0.0, 0.0, 0.0, 0.0, 0.0)",0.0054,0.0,-0.0028,"(5.0, 0.0, 0.0, 0.0, 5.0, 0.0, 0.0, 0.0, 0.5)",0.38,0.22,-9.62,"(1.0, 0.0, 0.0, 0.0, 1.0, 0.0, 0.0, 0.0, 1.0)"
2018/12/16/17:23:04.892701,109557,1545002584,892290955,base_footprint,0.0,0.0,0.0,0.0,"(-1.0, 0.0, 0.0, 0.0, 0.0, 0.0, 0.0, 0.0, 0.0)",0.004,0.0,-0.003,"(5.0, 0.0, 0.0, 0.0, 5.0, 0.0, 0.0, 0.0, 0.5)",0.29,0.29,-9.79,"(1.0, 0.0, 0.0, 0.0, 1.0, 0.0, 0.0, 0.0, 1.0)"
2018/12/16/17:23:04.902584,109558,1545002584,902115188,base_footprint,0.0,0.0,0.0,0.0,"(-1.0, 0.0, 0.0, 0.0, 0.0, 0.0, 0.0, 0.0, 0.0)",0.0,0.0,-0.0032,"(5.0, 0.0, 0.0, 0.0, 5.0, 0.0, 0.0, 0.0, 0.5)",0.31,0.24,-9.96,"(1.0, 0.0, 0.0, 0.0, 1.0, 0.0, 0.0, 0.0, 1.0)"
2018/12/16/17:23:04.913444,109559,1545002584,912987136,base_footprint,0.0,0.0,0.0,0.0,"(-1.0, 0.0, 0.0, 0.0, 0.0, 0.0, 0.0, 0.0, 0.0)",-0.0054,0.0,-0.0028,"(5.0, 0.0, 0.0, 0.0, 5.0, 0.0, 0.0, 0.0, 0.5)",0.42,0.13,-10.04,"(1.0, 0.0, 0.0, 0.0, 1.0, 0.0, 0.0, 0.0, 1.0)"
2018/12/16/17:23:04.922921,109560,1545002584,922112026,base_footprint,0.0,0.0,0.0,0.0,"(-1.0, 0.0, 0.0, 0.0, 0.0, 0.0, 0.0, 0.0, 0.0)",-0.0094,0.0,-0.0018,"(5.0, 0.0, 0.0, 0.0, 5.0, 0.0, 0.0, 0.0, 0.5)",0.54,0.07,-9.97,"(1.0, 0.0, 0.0, 0.0, 1.0, 0.0, 0.0, 0.0, 1.0)"
2018/12/16/17:23:04.932830,109561,1545002584,932278441,base_footprint,0.0,0.0,0.0,0.0,"(-1.0, 0.0, 0.0, 0.0, 0.0, 0.0, 0.0, 0.0, 0.0)",-0.0094,0.0,-0.0012,"(5.0, 0.0, 0.0, 0.0, 5.0, 0.0, 0.0, 0.0, 0.5)",0.55,0.08,-9.79,"(1.0, 0.0, 0.0, 0.0, 1.0, 0.0, 0.0, 0.0, 1.0)"
2018/12/16/17:23:04.942588,109562,1545002584,942089492,base_footprint,0.0,0.0,0.0,0.0,"(-1.0, 0.0, 0.0, 0.0, 0.0, 0.0, 0.0, 0.0, 0.0)",-0.0076,0.0,-0.0012,"(5.0, 0.0, 0.0, 0.0, 5.0, 0.0, 0.0, 0.0, 0.5)",0.44,0.12,-9.63,"(1.0, 0.0, 0.0, 0.0, 1.0, 0.0, 0.0, 0.0, 1.0)"
2018/12/16/17:23:04.952683,109563,1545002584,952263108,base_footprint,0.0,0.0,0.0,0.0,"(-1.0, 0.0, 0.0, 0.0, 0.0, 0.0, 0.0, 0.0, 0.0)",-0.0056,0.0,-0.0024,"(5.0, 0.0, 0.0, 0.0, 5.0, 0.0, 0.0, 0.0, 0.5)",0.34,0.13,-9.59,"(1.0, 0.0, 0.0, 0.0, 1.0, 0.0, 0.0, 0.0, 1.0)"
2018/12/16/17:23:04.962640,109564,1545002584,962171538,base_footprint,0.0,0.0,0.0,0.0,"(-1.0, 0.0, 0.0, 0.0, 0.0, 0.0, 0.0, 0.0, 0.0)",-0.0044,0.0,-0.0034,"(5.0, 0.0, 0.0, 0.0, 5.0, 0.0, 0.0, 0.0, 0.5)",0.36,0.09,-9.66,"(1.0, 0.0, 0.0, 0.0, 1.0, 0.0, 0.0, 0.0, 1.0)"
2018/12/16/17:23:04.973015,109565,1545002584,972493527,base_footprint,0.0,0.0,0.0,0.0,"(-1.0, 0.0, 0.0, 0.0, 0.0, 0.0, 0.0, 0.0, 0.0)",-0.0036,0.0,-0.0036,"(5.0, 0.0, 0.0, 0.0, 5.0, 0.0, 0.0, 0.0, 0.5)",0.45,0.02,-9.75,"(1.0, 0.0, 0.0, 0.0, 1.0, 0.0, 0.0, 0.0, 1.0)"
2018/12/16/17:23:04.982732,109566,1545002584,982193655,base_footprint,0.0,0.0,0.0,0.0,"(-1.0, 0.0, 0.0, 0.0, 0.0, 0.0, 0.0, 0.0, 0.0)",-0.0026,0.0,-0.0032,"(5.0, 0.0, 0.0, 0.0, 5.0, 0.0, 0.0, 0.0, 0.5)",0.47,0.01,-9.78,"(1.0, 0.0, 0.0, 0.0, 1.0, 0.0, 0.0, 0.0, 1.0)"
2018/12/16/17:23:04.992737,109567,1545002584,992253324,base_footprint,0.0,0.0,0.0,0.0,"(-1.0, 0.0, 0.0, 0.0, 0.0, 0.0, 0.0, 0.0, 0.0)",-0.0006,0.0,-0.0028,"(5.0, 0.0, 0.0, 0.0, 5.0, 0.0, 0.0, 0.0, 0.5)",0.43,0.04,-9.78,"(1.0, 0.0, 0.0, 0.0, 1.0, 0.0, 0.0, 0.0, 1.0)"
2018/12/16/17:23:05.002652,109568,1545002585,2177847,base_footprint,0.0,0.0,0.0,0.0,"(-1.0, 0.0, 0.0, 0.0, 0.0, 0.0, 0.0, 0.0, 0.0)",0.0012,0.0,-0.0024,"(5.0, 0.0, 0.0, 0.0, 5.0, 0.0, 0.0, 0.0, 0.5)",0.35,0.1,-9.79,"(1.0, 0.0, 0.0, 0.0, 1.0, 0.0, 0.0, 0.0, 1.0)"
2018/12/16/17:23:05.013475,109569,1545002585,12988509,base_footprint,0.0,0.0,0.0,0.0,"(-1.0, 0.0, 0.0, 0.0, 0.0, 0.0, 0.0, 0.0, 0.0)",0.0022,0.0,-0.0016,"(5.0, 0.0, 0.0, 0.0, 5.0, 0.0, 0.0, 0.0, 0.5)",0.28,0.18,-9.79,"(1.0, 0.0, 0.0, 0.0, 1.0, 0.0, 0.0, 0.0, 1.0)"
2018/12/16/17:23:05.022632,109570,1545002585,22160447,base_footprint,0.0,0.0,0.0,0.0,"(-1.0, 0.0, 0.0, 0.0, 0.0, 0.0, 0.0, 0.0, 0.0)",0.0022,0.0,-0.001,"(5.0, 0.0, 0.0, 0.0, 5.0, 0.0, 0.0, 0.0, 0.5)",0.28,0.26,-9.81,"(1.0, 0.0, 0.0, 0.0, 1.0, 0.0, 0.0, 0.0, 1.0)"
2018/12/16/17:23:05.032745,109571,1545002585,32235838,base_footprint,0.0,0.0,0.0,0.0,"(-1.0, 0.0, 0.0, 0.0, 0.0, 0.0, 0.0, 0.0, 0.0)",0.0014,0.0,-0.0006,"(5.0, 0.0, 0.0, 0.0, 5.0, 0.0, 0.0, 0.0, 0.5)",0.32,0.3,-9.84,"(1.0, 0.0, 0.0, 0.0, 1.0, 0.0, 0.0, 0.0, 1.0)"
2018/12/16/17:23:05.042651,109572,1545002585,42115788,base_footprint,0.0,0.0,0.0,0.0,"(-1.0, 0.0, 0.0, 0.0, 0.0, 0.0, 0.0, 0.0, 0.0)",0.0004,0.0,-0.0004,"(5.0, 0.0, 0.0, 0.0, 5.0, 0.0, 0.0, 0.0, 0.5)",0.34,0.3,-9.81,"(1.0, 0.0, 0.0, 0.0, 1.0, 0.0, 0.0, 0.0, 1.0)"
2018/12/16/17:23:05.052750,109573,1545002585,52264988,base_footprint,0.0,0.0,0.0,0.0,"(-1.0, 0.0, 0.0, 0.0, 0.0, 0.0, 0.0, 0.0, 0.0)",0.0,0.0,-0.0008,"(5.0, 0.0, 0.0, 0.0, 5.0, 0.0, 0.0, 0.0, 0.5)",0.33,0.28,-9.75,"(1.0, 0.0, 0.0, 0.0, 1.0, 0.0, 0.0, 0.0, 1.0)"
2018/12/16/17:23:05.062529,109574,1545002585,62103424,base_footprint,0.0,0.0,0.0,0.0,"(-1.0, 0.0, 0.0, 0.0, 0.0, 0.0, 0.0, 0.0, 0.0)",0.0,0.0,-0.001,"(5.0, 0.0, 0.0, 0.0, 5.0, 0.0, 0.0, 0.0, 0.5)",0.29,0.26,-9.64,"(1.0, 0.0, 0.0, 0.0, 1.0, 0.0, 0.0, 0.0, 1.0)"
2018/12/16/17:23:05.072675,109575,1545002585,72246004,base_footprint,0.0,0.0,0.0,0.0,"(-1.0, 0.0, 0.0, 0.0, 0.0, 0.0, 0.0, 0.0, 0.0)",0.0004,0.0,-0.0008,"(5.0, 0.0, 0.0, 0.0, 5.0, 0.0, 0.0, 0.0, 0.5)",0.25,0.21,-9.55,"(1.0, 0.0, 0.0, 0.0, 1.0, 0.0, 0.0, 0.0, 1.0)"
2018/12/16/17:23:05.082708,109576,1545002585,82203106,base_footprint,0.0,0.0,0.0,0.0,"(-1.0, 0.0, 0.0, 0.0, 0.0, 0.0, 0.0, 0.0, 0.0)",0.0012,0.0,-0.0002,"(5.0, 0.0, 0.0, 0.0, 5.0, 0.0, 0.0, 0.0, 0.5)",0.21,0.2,-9.57,"(1.0, 0.0, 0.0, 0.0, 1.0, 0.0, 0.0, 0.0, 1.0)"
2018/12/16/17:23:05.092714,109577,1545002585,92242049,base_footprint,0.0,0.0,0.0,0.0,"(-1.0, 0.0, 0.0, 0.0, 0.0, 0.0, 0.0, 0.0, 0.0)",0.0012,0.0,0.0,"(5.0, 0.0, 0.0, 0.0, 5.0, 0.0, 0.0, 0.0, 0.5)",0.18,0.25,-9.64,"(1.0, 0.0, 0.0, 0.0, 1.0, 0.0, 0.0, 0.0, 1.0)"
2018/12/16/17:23:05.102547,109578,1545002585,102089376,base_footprint,0.0,0.0,0.0,0.0,"(-1.0, 0.0, 0.0, 0.0, 0.0, 0.0, 0.0, 0.0, 0.0)",0.0002,0.0,0.0,"(5.0, 0.0, 0.0, 0.0, 5.0, 0.0, 0.0, 0.0, 0.5)",0.16,0.3,-9.69,"(1.0, 0.0, 0.0, 0.0, 1.0, 0.0, 0.0, 0.0, 1.0)"
2018/12/16/17:23:05.113436,109579,1545002585,112993754,base_footprint,0.0,0.0,0.0,0.0,"(-1.0, 0.0, 0.0, 0.0, 0.0, 0.0, 0.0, 0.0, 0.0)",-0.0006,0.0,0.0,"(5.0, 0.0, 0.0, 0.0, 5.0, 0.0, 0.0, 0.0, 0.5)",0.15,0.31,-9.71,"(1.0, 0.0, 0.0, 0.0, 1.0, 0.0, 0.0, 0.0, 1.0)"
2018/12/16/17:23:05.122626,109580,1545002585,122123498,base_footprint,0.0,0.0,0.0,0.0,"(-1.0, 0.0, 0.0, 0.0, 0.0, 0.0, 0.0, 0.0, 0.0)",-0.0024,0.0,0.0,"(5.0, 0.0, 0.0, 0.0, 5.0, 0.0, 0.0, 0.0, 0.5)",0.17,0.29,-9.7,"(1.0, 0.0, 0.0, 0.0, 1.0, 0.0, 0.0, 0.0, 1.0)"
2018/12/16/17:23:05.132728,109581,1545002585,132252987,base_footprint,0.0,0.0,0.0,0.0,"(-1.0, 0.0, 0.0, 0.0, 0.0, 0.0, 0.0, 0.0, 0.0)",-0.005,0.0,0.0,"(5.0, 0.0, 0.0, 0.0, 5.0, 0.0, 0.0, 0.0, 0.5)",0.2,0.28,-9.69,"(1.0, 0.0, 0.0, 0.0, 1.0, 0.0, 0.0, 0.0, 1.0)"
2018/12/16/17:23:05.142592,109582,1545002585,142130857,base_footprint,0.0,0.0,0.0,0.0,"(-1.0, 0.0, 0.0, 0.0, 0.0, 0.0, 0.0, 0.0, 0.0)",-0.0076,0.0,-0.0002,"(5.0, 0.0, 0.0, 0.0, 5.0, 0.0, 0.0, 0.0, 0.5)",0.23,0.26,-9.65,"(1.0, 0.0, 0.0, 0.0, 1.0, 0.0, 0.0, 0.0, 1.0)"
2018/12/16/17:23:05.152762,109583,1545002585,152250522,base_footprint,0.0,0.0,0.0,0.0,"(-1.0, 0.0, 0.0, 0.0, 0.0, 0.0, 0.0, 0.0, 0.0)",-0.0098,0.0,-0.0006,"(5.0, 0.0, 0.0, 0.0, 5.0, 0.0, 0.0, 0.0, 0.5)",0.23,0.24,-9.59,"(1.0, 0.0, 0.0, 0.0, 1.0, 0.0, 0.0, 0.0, 1.0)"
2018/12/16/17:23:05.162873,109584,1545002585,162109811,base_footprint,0.0,0.0,0.0,0.0,"(-1.0, 0.0, 0.0, 0.0, 0.0, 0.0, 0.0, 0.0, 0.0)",-0.011,0.0,-0.001,"(5.0, 0.0, 0.0, 0.0, 5.0, 0.0, 0.0, 0.0, 0.5)",0.18,0.2,-9.55,"(1.0, 0.0, 0.0, 0.0, 1.0, 0.0, 0.0, 0.0, 1.0)"
2018/12/16/17:23:05.172700,109585,1545002585,172235691,base_footprint,0.0,0.0,0.0,0.0,"(-1.0, 0.0, 0.0, 0.0, 0.0, 0.0, 0.0, 0.0, 0.0)",-0.0104,0.0,-0.0016,"(5.0, 0.0, 0.0, 0.0, 5.0, 0.0, 0.0, 0.0, 0.5)",0.13,0.14,-9.56,"(1.0, 0.0, 0.0, 0.0, 1.0, 0.0, 0.0, 0.0, 1.0)"
2018/12/16/17:23:05.182747,109586,1545002585,182159059,base_footprint,0.0,0.0,0.0,0.0,"(-1.0, 0.0, 0.0, 0.0, 0.0, 0.0, 0.0, 0.0, 0.0)",-0.0088,0.0,-0.0024,"(5.0, 0.0, 0.0, 0.0, 5.0, 0.0, 0.0, 0.0, 0.5)",0.11,0.09,-9.59,"(1.0, 0.0, 0.0, 0.0, 1.0, 0.0, 0.0, 0.0, 1.0)"
2018/12/16/17:23:05.192897,109587,1545002585,192459226,base_footprint,0.0,0.0,0.0,0.0,"(-1.0, 0.0, 0.0, 0.0, 0.0, 0.0, 0.0, 0.0, 0.0)",-0.0068,0.0,-0.003,"(5.0, 0.0, 0.0, 0.0, 5.0, 0.0, 0.0, 0.0, 0.5)",0.12,0.07,-9.63,"(1.0, 0.0, 0.0, 0.0, 1.0, 0.0, 0.0, 0.0, 1.0)"
2018/12/16/17:23:05.202641,109588,1545002585,202155324,base_footprint,0.0,0.0,0.0,0.0,"(-1.0, 0.0, 0.0, 0.0, 0.0, 0.0, 0.0, 0.0, 0.0)",-0.0048,0.0,-0.0034,"(5.0, 0.0, 0.0, 0.0, 5.0, 0.0, 0.0, 0.0, 0.5)",0.11,0.1,-9.68,"(1.0, 0.0, 0.0, 0.0, 1.0, 0.0, 0.0, 0.0, 1.0)"
2018/12/16/17:23:05.213535,109589,1545002585,212994002,base_footprint,0.0,0.0,0.0,0.0,"(-1.0, 0.0, 0.0, 0.0, 0.0, 0.0, 0.0, 0.0, 0.0)",-0.0028,0.0,-0.0036,"(5.0, 0.0, 0.0, 0.0, 5.0, 0.0, 0.0, 0.0, 0.5)",0.09,0.17,-9.72,"(1.0, 0.0, 0.0, 0.0, 1.0, 0.0, 0.0, 0.0, 1.0)"
2018/12/16/17:23:05.222557,109590,1545002585,222090989,base_footprint,0.0,0.0,0.0,0.0,"(-1.0, 0.0, 0.0, 0.0, 0.0, 0.0, 0.0, 0.0, 0.0)",-0.0012,0.0,-0.0038,"(5.0, 0.0, 0.0, 0.0, 5.0, 0.0, 0.0, 0.0, 0.5)",0.05,0.23,-9.78,"(1.0, 0.0, 0.0, 0.0, 1.0, 0.0, 0.0, 0.0, 1.0)"
2018/12/16/17:23:05.232780,109591,1545002585,232288435,base_footprint,0.0,0.0,0.0,0.0,"(-1.0, 0.0, 0.0, 0.0, 0.0, 0.0, 0.0, 0.0, 0.0)",-0.0006,0.0,-0.004,"(5.0, 0.0, 0.0, 0.0, 5.0, 0.0, 0.0, 0.0, 0.5)",0.02,0.27,-9.82,"(1.0, 0.0, 0.0, 0.0, 1.0, 0.0, 0.0, 0.0, 1.0)"
2018/12/16/17:23:05.242577,109592,1545002585,242105892,base_footprint,0.0,0.0,0.0,0.0,"(-1.0, 0.0, 0.0, 0.0, 0.0, 0.0, 0.0, 0.0, 0.0)",-0.0002,0.0,-0.0042,"(5.0, 0.0, 0.0, 0.0, 5.0, 0.0, 0.0, 0.0, 0.5)",0.01,0.29,-9.87,"(1.0, 0.0, 0.0, 0.0, 1.0, 0.0, 0.0, 0.0, 1.0)"
2018/12/16/17:23:05.252732,109593,1545002585,252281027,base_footprint,0.0,0.0,0.0,0.0,"(-1.0, 0.0, 0.0, 0.0, 0.0, 0.0, 0.0, 0.0, 0.0)",-0.0008,0.0,-0.0044,"(5.0, 0.0, 0.0, 0.0, 5.0, 0.0, 0.0, 0.0, 0.5)",0.03,0.31,-9.88,"(1.0, 0.0, 0.0, 0.0, 1.0, 0.0, 0.0, 0.0, 1.0)"
2018/12/16/17:23:05.262576,109594,1545002585,262100003,base_footprint,0.0,0.0,0.0,0.0,"(-1.0, 0.0, 0.0, 0.0, 0.0, 0.0, 0.0, 0.0, 0.0)",-0.002,0.0,-0.0046,"(5.0, 0.0, 0.0, 0.0, 5.0, 0.0, 0.0, 0.0, 0.5)",0.04,0.33,-9.85,"(1.0, 0.0, 0.0, 0.0, 1.0, 0.0, 0.0, 0.0, 1.0)"
2018/12/16/17:23:05.272920,109595,1545002585,272419078,base_footprint,0.0,0.0,0.0,0.0,"(-1.0, 0.0, 0.0, 0.0, 0.0, 0.0, 0.0, 0.0, 0.0)",-0.0024,0.0,-0.0046,"(5.0, 0.0, 0.0, 0.0, 5.0, 0.0, 0.0, 0.0, 0.5)",0.03,0.31,-9.82,"(1.0, 0.0, 0.0, 0.0, 1.0, 0.0, 0.0, 0.0, 1.0)"
2018/12/16/17:23:05.282745,109596,1545002585,282201200,base_footprint,0.0,0.0,0.0,0.0,"(-1.0, 0.0, 0.0, 0.0, 0.0, 0.0, 0.0, 0.0, 0.0)",-0.0012,0.0,-0.0042,"(5.0, 0.0, 0.0, 0.0, 5.0, 0.0, 0.0, 0.0, 0.5)",0.02,0.29,-9.79,"(1.0, 0.0, 0.0, 0.0, 1.0, 0.0, 0.0, 0.0, 1.0)"
2018/12/16/17:23:05.292805,109597,1545002585,292318719,base_footprint,0.0,0.0,0.0,0.0,"(-1.0, 0.0, 0.0, 0.0, 0.0, 0.0, 0.0, 0.0, 0.0)",0.0002,0.0,-0.004,"(5.0, 0.0, 0.0, 0.0, 5.0, 0.0, 0.0, 0.0, 0.5)",0.01,0.28,-9.79,"(1.0, 0.0, 0.0, 0.0, 1.0, 0.0, 0.0, 0.0, 1.0)"
2018/12/16/17:23:05.302666,109598,1545002585,302106155,base_footprint,0.0,0.0,0.0,0.0,"(-1.0, 0.0, 0.0, 0.0, 0.0, 0.0, 0.0, 0.0, 0.0)",0.0016,0.0,-0.0042,"(5.0, 0.0, 0.0, 0.0, 5.0, 0.0, 0.0, 0.0, 0.5)",0.01,0.27,-9.82,"(1.0, 0.0, 0.0, 0.0, 1.0, 0.0, 0.0, 0.0, 1.0)"
2018/12/16/17:23:05.313401,109599,1545002585,312893959,base_footprint,0.0,0.0,0.0,0.0,"(-1.0, 0.0, 0.0, 0.0, 0.0, 0.0, 0.0, 0.0, 0.0)",0.0026,0.0,-0.0042,"(5.0, 0.0, 0.0, 0.0, 5.0, 0.0, 0.0, 0.0, 0.5)",0.0,0.28,-9.83,"(1.0, 0.0, 0.0, 0.0, 1.0, 0.0, 0.0, 0.0, 1.0)"
2018/12/16/17:23:05.322641,109600,1545002585,322104979,base_footprint,0.0,0.0,0.0,0.0,"(-1.0, 0.0, 0.0, 0.0, 0.0, 0.0, 0.0, 0.0, 0.0)",0.0034,0.0,-0.0042,"(5.0, 0.0, 0.0, 0.0, 5.0, 0.0, 0.0, 0.0, 0.5)",-0.02,0.3,-9.84,"(1.0, 0.0, 0.0, 0.0, 1.0, 0.0, 0.0, 0.0, 1.0)"
2018/12/16/17:23:05.332774,109601,1545002585,332256921,base_footprint,0.0,0.0,0.0,0.0,"(-1.0, 0.0, 0.0, 0.0, 0.0, 0.0, 0.0, 0.0, 0.0)",0.0034,0.0,-0.0044,"(5.0, 0.0, 0.0, 0.0, 5.0, 0.0, 0.0, 0.0, 0.5)",-0.03,0.33,-9.88,"(1.0, 0.0, 0.0, 0.0, 1.0, 0.0, 0.0, 0.0, 1.0)"
2018/12/16/17:23:05.342522,109602,1545002585,342105766,base_footprint,0.0,0.0,0.0,0.0,"(-1.0, 0.0, 0.0, 0.0, 0.0, 0.0, 0.0, 0.0, 0.0)",0.003,0.0,-0.0044,"(5.0, 0.0, 0.0, 0.0, 5.0, 0.0, 0.0, 0.0, 0.5)",-0.01,0.33,-9.89,"(1.0, 0.0, 0.0, 0.0, 1.0, 0.0, 0.0, 0.0, 1.0)"
2018/12/16/17:23:05.352829,109603,1545002585,352364990,base_footprint,0.0,0.0,0.0,0.0,"(-1.0, 0.0, 0.0, 0.0, 0.0, 0.0, 0.0, 0.0, 0.0)",0.0022,0.0,-0.0042,"(5.0, 0.0, 0.0, 0.0, 5.0, 0.0, 0.0, 0.0, 0.5)",0.04,0.3,-9.85,"(1.0, 0.0, 0.0, 0.0, 1.0, 0.0, 0.0, 0.0, 1.0)"
2018/12/16/17:23:05.362675,109604,1545002585,362140545,base_footprint,0.0,0.0,0.0,0.0,"(-1.0, 0.0, 0.0, 0.0, 0.0, 0.0, 0.0, 0.0, 0.0)",0.0014,0.0,-0.004,"(5.0, 0.0, 0.0, 0.0, 5.0, 0.0, 0.0, 0.0, 0.5)",0.08,0.26,-9.81,"(1.0, 0.0, 0.0, 0.0, 1.0, 0.0, 0.0, 0.0, 1.0)"
2018/12/16/17:23:05.372738,109605,1545002585,372289699,base_footprint,0.0,0.0,0.0,0.0,"(-1.0, 0.0, 0.0, 0.0, 0.0, 0.0, 0.0, 0.0, 0.0)",0.001,0.0,-0.004,"(5.0, 0.0, 0.0, 0.0, 5.0, 0.0, 0.0, 0.0, 0.5)",0.06,0.22,-9.73,"(1.0, 0.0, 0.0, 0.0, 1.0, 0.0, 0.0, 0.0, 1.0)"
2018/12/16/17:23:05.382853,109606,1545002585,382213286,base_footprint,0.0,0.0,0.0,0.0,"(-1.0, 0.0, 0.0, 0.0, 0.0, 0.0, 0.0, 0.0, 0.0)",0.0012,0.0,-0.004,"(5.0, 0.0, 0.0, 0.0, 5.0, 0.0, 0.0, 0.0, 0.5)",0.0,0.2,-9.65,"(1.0, 0.0, 0.0, 0.0, 1.0, 0.0, 0.0, 0.0, 1.0)"
2018/12/16/17:23:05.392706,109607,1545002585,392283445,base_footprint,0.0,0.0,0.0,0.0,"(-1.0, 0.0, 0.0, 0.0, 0.0, 0.0, 0.0, 0.0, 0.0)",0.0018,0.0,-0.0038,"(5.0, 0.0, 0.0, 0.0, 5.0, 0.0, 0.0, 0.0, 0.5)",-0.05,0.2,-9.63,"(1.0, 0.0, 0.0, 0.0, 1.0, 0.0, 0.0, 0.0, 1.0)"
2018/12/16/17:23:05.402655,109608,1545002585,402104092,base_footprint,0.0,0.0,0.0,0.0,"(-1.0, 0.0, 0.0, 0.0, 0.0, 0.0, 0.0, 0.0, 0.0)",0.0024,0.0,-0.004,"(5.0, 0.0, 0.0, 0.0, 5.0, 0.0, 0.0, 0.0, 0.5)",-0.04,0.17,-9.68,"(1.0, 0.0, 0.0, 0.0, 1.0, 0.0, 0.0, 0.0, 1.0)"
2018/12/16/17:23:05.413481,109609,1545002585,413037527,base_footprint,0.0,0.0,0.0,0.0,"(-1.0, 0.0, 0.0, 0.0, 0.0, 0.0, 0.0, 0.0, 0.0)",0.0022,0.0,-0.004,"(5.0, 0.0, 0.0, 0.0, 5.0, 0.0, 0.0, 0.0, 0.5)",-0.01,0.15,-9.76,"(1.0, 0.0, 0.0, 0.0, 1.0, 0.0, 0.0, 0.0, 1.0)"
2018/12/16/17:23:05.422587,109610,1545002585,422156771,base_footprint,0.0,0.0,0.0,0.0,"(-1.0, 0.0, 0.0, 0.0, 0.0, 0.0, 0.0, 0.0, 0.0)",0.0018,0.0,-0.004,"(5.0, 0.0, 0.0, 0.0, 5.0, 0.0, 0.0, 0.0, 0.5)",0.01,0.14,-9.8,"(1.0, 0.0, 0.0, 0.0, 1.0, 0.0, 0.0, 0.0, 1.0)"
2018/12/16/17:23:05.432752,109611,1545002585,432253446,base_footprint,0.0,0.0,0.0,0.0,"(-1.0, 0.0, 0.0, 0.0, 0.0, 0.0, 0.0, 0.0, 0.0)",0.0012,0.0,-0.0038,"(5.0, 0.0, 0.0, 0.0, 5.0, 0.0, 0.0, 0.0, 0.5)",0.01,0.1,-9.79,"(1.0, 0.0, 0.0, 0.0, 1.0, 0.0, 0.0, 0.0, 1.0)"
2018/12/16/17:23:05.442668,109612,1545002585,442161610,base_footprint,0.0,0.0,0.0,0.0,"(-1.0, 0.0, 0.0, 0.0, 0.0, 0.0, 0.0, 0.0, 0.0)",0.0006,0.0,-0.0036,"(5.0, 0.0, 0.0, 0.0, 5.0, 0.0, 0.0, 0.0, 0.5)",0.01,0.06,-9.76,"(1.0, 0.0, 0.0, 0.0, 1.0, 0.0, 0.0, 0.0, 1.0)"
2018/12/16/17:23:05.452671,109613,1545002585,452264267,base_footprint,0.0,0.0,0.0,0.0,"(-1.0, 0.0, 0.0, 0.0, 0.0, 0.0, 0.0, 0.0, 0.0)",0.0008,0.0,-0.003,"(5.0, 0.0, 0.0, 0.0, 5.0, 0.0, 0.0, 0.0, 0.5)",0.05,0.03,-9.69,"(1.0, 0.0, 0.0, 0.0, 1.0, 0.0, 0.0, 0.0, 1.0)"
2018/12/16/17:23:05.462487,109614,1545002585,462052010,base_footprint,0.0,0.0,0.0,0.0,"(-1.0, 0.0, 0.0, 0.0, 0.0, 0.0, 0.0, 0.0, 0.0)",0.0026,0.0,-0.002,"(5.0, 0.0, 0.0, 0.0, 5.0, 0.0, 0.0, 0.0, 0.5)",0.11,0.02,-9.59,"(1.0, 0.0, 0.0, 0.0, 1.0, 0.0, 0.0, 0.0, 1.0)"
2018/12/16/17:23:05.472739,109615,1545002585,472278852,base_footprint,0.0,0.0,0.0,0.0,"(-1.0, 0.0, 0.0, 0.0, 0.0, 0.0, 0.0, 0.0, 0.0)",0.0046,0.0,-0.0008,"(5.0, 0.0, 0.0, 0.0, 5.0, 0.0, 0.0, 0.0, 0.5)",0.12,0.05,-9.53,"(1.0, 0.0, 0.0, 0.0, 1.0, 0.0, 0.0, 0.0, 1.0)"
2018/12/16/17:23:05.482793,109616,1545002585,482264293,base_footprint,0.0,0.0,0.0,0.0,"(-1.0, 0.0, 0.0, 0.0, 0.0, 0.0, 0.0, 0.0, 0.0)",0.0054,0.0,0.0,"(5.0, 0.0, 0.0, 0.0, 5.0, 0.0, 0.0, 0.0, 0.5)",0.04,0.1,-9.56,"(1.0, 0.0, 0.0, 0.0, 1.0, 0.0, 0.0, 0.0, 1.0)"
2018/12/16/17:23:05.492699,109617,1545002585,492281356,base_footprint,0.0,0.0,0.0,0.0,"(-1.0, 0.0, 0.0, 0.0, 0.0, 0.0, 0.0, 0.0, 0.0)",0.004,0.0,0.0,"(5.0, 0.0, 0.0, 0.0, 5.0, 0.0, 0.0, 0.0, 0.5)",-0.06,0.15,-9.66,"(1.0, 0.0, 0.0, 0.0, 1.0, 0.0, 0.0, 0.0, 1.0)"
2018/12/16/17:23:05.502853,109618,1545002585,502380362,base_footprint,0.0,0.0,0.0,0.0,"(-1.0, 0.0, 0.0, 0.0, 0.0, 0.0, 0.0, 0.0, 0.0)",0.0034,0.0,0.0,"(5.0, 0.0, 0.0, 0.0, 5.0, 0.0, 0.0, 0.0, 0.5)",-0.14,0.13,-9.8,"(1.0, 0.0, 0.0, 0.0, 1.0, 0.0, 0.0, 0.0, 1.0)"
2018/12/16/17:23:05.513500,109619,1545002585,513019350,base_footprint,0.0,0.0,0.0,0.0,"(-1.0, 0.0, 0.0, 0.0, 0.0, 0.0, 0.0, 0.0, 0.0)",0.004,0.0,0.0004,"(5.0, 0.0, 0.0, 0.0, 5.0, 0.0, 0.0, 0.0, 0.5)",-0.13,0.08,-9.88,"(1.0, 0.0, 0.0, 0.0, 1.0, 0.0, 0.0, 0.0, 1.0)"
2018/12/16/17:23:05.522554,109620,1545002585,522137631,base_footprint,0.0,0.0,0.0,0.0,"(-1.0, 0.0, 0.0, 0.0, 0.0, 0.0, 0.0, 0.0, 0.0)",0.0046,0.0,0.0008,"(5.0, 0.0, 0.0, 0.0, 5.0, 0.0, 0.0, 0.0, 0.5)",-0.04,0.05,-9.82,"(1.0, 0.0, 0.0, 0.0, 1.0, 0.0, 0.0, 0.0, 1.0)"
2018/12/16/17:23:05.532820,109621,1545002585,532275620,base_footprint,0.0,0.0,0.0,0.0,"(-1.0, 0.0, 0.0, 0.0, 0.0, 0.0, 0.0, 0.0, 0.0)",0.0046,0.0,0.0014,"(5.0, 0.0, 0.0, 0.0, 5.0, 0.0, 0.0, 0.0, 0.5)",0.04,0.07,-9.74,"(1.0, 0.0, 0.0, 0.0, 1.0, 0.0, 0.0, 0.0, 1.0)"
2018/12/16/17:23:05.542583,109622,1545002585,542132747,base_footprint,0.0,0.0,0.0,0.0,"(-1.0, 0.0, 0.0, 0.0, 0.0, 0.0, 0.0, 0.0, 0.0)",0.004,0.0,0.0022,"(5.0, 0.0, 0.0, 0.0, 5.0, 0.0, 0.0, 0.0, 0.5)",0.08,0.16,-9.71,"(1.0, 0.0, 0.0, 0.0, 1.0, 0.0, 0.0, 0.0, 1.0)"
2018/12/16/17:23:05.552698,109623,1545002585,552256283,base_footprint,0.0,0.0,0.0,0.0,"(-1.0, 0.0, 0.0, 0.0, 0.0, 0.0, 0.0, 0.0, 0.0)",0.0026,0.0,0.0032,"(5.0, 0.0, 0.0, 0.0, 5.0, 0.0, 0.0, 0.0, 0.5)",0.06,0.24,-9.73,"(1.0, 0.0, 0.0, 0.0, 1.0, 0.0, 0.0, 0.0, 1.0)"
2018/12/16/17:23:05.562644,109624,1545002585,562145362,base_footprint,0.0,0.0,0.0,0.0,"(-1.0, 0.0, 0.0, 0.0, 0.0, 0.0, 0.0, 0.0, 0.0)",0.0,0.0,0.0044,"(5.0, 0.0, 0.0, 0.0, 5.0, 0.0, 0.0, 0.0, 0.5)",0.0,0.24,-9.72,"(1.0, 0.0, 0.0, 0.0, 1.0, 0.0, 0.0, 0.0, 1.0)"
2018/12/16/17:23:05.572781,109625,1545002585,572296922,base_footprint,0.0,0.0,0.0,0.0,"(-1.0, 0.0, 0.0, 0.0, 0.0, 0.0, 0.0, 0.0, 0.0)",-0.001,0.0,0.0054,"(5.0, 0.0, 0.0, 0.0, 5.0, 0.0, 0.0, 0.0, 0.5)",-0.04,0.18,-9.71,"(1.0, 0.0, 0.0, 0.0, 1.0, 0.0, 0.0, 0.0, 1.0)"
2018/12/16/17:23:05.582669,109626,1545002585,582183773,base_footprint,0.0,0.0,0.0,0.0,"(-1.0, 0.0, 0.0, 0.0, 0.0, 0.0, 0.0, 0.0, 0.0)",-0.0006,0.0,0.0064,"(5.0, 0.0, 0.0, 0.0, 5.0, 0.0, 0.0, 0.0, 0.5)",-0.05,0.15,-9.7,"(1.0, 0.0, 0.0, 0.0, 1.0, 0.0, 0.0, 0.0, 1.0)"
2018/12/16/17:23:05.593274,109627,1545002585,592813243,base_footprint,0.0,0.0,0.0,0.0,"(-1.0, 0.0, 0.0, 0.0, 0.0, 0.0, 0.0, 0.0, 0.0)",0.0006,0.0,0.0068,"(5.0, 0.0, 0.0, 0.0, 5.0, 0.0, 0.0, 0.0, 0.5)",-0.04,0.15,-9.71,"(1.0, 0.0, 0.0, 0.0, 1.0, 0.0, 0.0, 0.0, 1.0)"
2018/12/16/17:23:05.602630,109628,1545002585,602139467,base_footprint,0.0,0.0,0.0,0.0,"(-1.0, 0.0, 0.0, 0.0, 0.0, 0.0, 0.0, 0.0, 0.0)",0.0024,0.0,0.0068,"(5.0, 0.0, 0.0, 0.0, 5.0, 0.0, 0.0, 0.0, 0.5)",-0.04,0.15,-9.73,"(1.0, 0.0, 0.0, 0.0, 1.0, 0.0, 0.0, 0.0, 1.0)"
2018/12/16/17:23:05.613492,109629,1545002585,613038417,base_footprint,0.0,0.0,0.0,0.0,"(-1.0, 0.0, 0.0, 0.0, 0.0, 0.0, 0.0, 0.0, 0.0)",0.0032,0.0,0.0068,"(5.0, 0.0, 0.0, 0.0, 5.0, 0.0, 0.0, 0.0, 0.5)",-0.03,0.14,-9.76,"(1.0, 0.0, 0.0, 0.0, 1.0, 0.0, 0.0, 0.0, 1.0)"
2018/12/16/17:23:05.622688,109630,1545002585,622192491,base_footprint,0.0,0.0,0.0,0.0,"(-1.0, 0.0, 0.0, 0.0, 0.0, 0.0, 0.0, 0.0, 0.0)",0.0032,0.0,0.0068,"(5.0, 0.0, 0.0, 0.0, 5.0, 0.0, 0.0, 0.0, 0.5)",-0.03,0.12,-9.82,"(1.0, 0.0, 0.0, 0.0, 1.0, 0.0, 0.0, 0.0, 1.0)"
2018/12/16/17:23:05.632862,109631,1545002585,632252328,base_footprint,0.0,0.0,0.0,0.0,"(-1.0, 0.0, 0.0, 0.0, 0.0, 0.0, 0.0, 0.0, 0.0)",0.0026,0.0,0.0066,"(5.0, 0.0, 0.0, 0.0, 5.0, 0.0, 0.0, 0.0, 0.5)",-0.04,0.15,-9.87,"(1.0, 0.0, 0.0, 0.0, 1.0, 0.0, 0.0, 0.0, 1.0)"
2018/12/16/17:23:05.642542,109632,1545002585,642078838,base_footprint,0.0,0.0,0.0,0.0,"(-1.0, 0.0, 0.0, 0.0, 0.0, 0.0, 0.0, 0.0, 0.0)",0.0018,0.0,0.0062,"(5.0, 0.0, 0.0, 0.0, 5.0, 0.0, 0.0, 0.0, 0.5)",-0.04,0.21,-9.86,"(1.0, 0.0, 0.0, 0.0, 1.0, 0.0, 0.0, 0.0, 1.0)"
2018/12/16/17:23:05.652773,109633,1545002585,652329201,base_footprint,0.0,0.0,0.0,0.0,"(-1.0, 0.0, 0.0, 0.0, 0.0, 0.0, 0.0, 0.0, 0.0)",0.0016,0.0,0.0056,"(5.0, 0.0, 0.0, 0.0, 5.0, 0.0, 0.0, 0.0, 0.5)",0.0,0.24,-9.8,"(1.0, 0.0, 0.0, 0.0, 1.0, 0.0, 0.0, 0.0, 1.0)"
2018/12/16/17:23:05.662493,109634,1545002585,662051714,base_footprint,0.0,0.0,0.0,0.0,"(-1.0, 0.0, 0.0, 0.0, 0.0, 0.0, 0.0, 0.0, 0.0)",0.0014,0.0,0.005,"(5.0, 0.0, 0.0, 0.0, 5.0, 0.0, 0.0, 0.0, 0.5)",0.02,0.24,-9.72,"(1.0, 0.0, 0.0, 0.0, 1.0, 0.0, 0.0, 0.0, 1.0)"
2018/12/16/17:23:05.672884,109635,1545002585,672295218,base_footprint,0.0,0.0,0.0,0.0,"(-1.0, 0.0, 0.0, 0.0, 0.0, 0.0, 0.0, 0.0, 0.0)",0.0008,0.0,0.0042,"(5.0, 0.0, 0.0, 0.0, 5.0, 0.0, 0.0, 0.0, 0.5)",0.0,0.22,-9.67,"(1.0, 0.0, 0.0, 0.0, 1.0, 0.0, 0.0, 0.0, 1.0)"
2018/12/16/17:23:05.682692,109636,1545002585,682170898,base_footprint,0.0,0.0,0.0,0.0,"(-1.0, 0.0, 0.0, 0.0, 0.0, 0.0, 0.0, 0.0, 0.0)",0.0,0.0,0.0038,"(5.0, 0.0, 0.0, 0.0, 5.0, 0.0, 0.0, 0.0, 0.5)",-0.01,0.2,-9.66,"(1.0, 0.0, 0.0, 0.0, 1.0, 0.0, 0.0, 0.0, 1.0)"
2018/12/16/17:23:05.692951,109637,1545002585,692542037,base_footprint,0.0,0.0,0.0,0.0,"(-1.0, 0.0, 0.0, 0.0, 0.0, 0.0, 0.0, 0.0, 0.0)",-0.0002,0.0,0.0032,"(5.0, 0.0, 0.0, 0.0, 5.0, 0.0, 0.0, 0.0, 0.5)",-0.01,0.18,-9.67,"(1.0, 0.0, 0.0, 0.0, 1.0, 0.0, 0.0, 0.0, 1.0)"
2018/12/16/17:23:05.702593,109638,1545002585,702164316,base_footprint,0.0,0.0,0.0,0.0,"(-1.0, 0.0, 0.0, 0.0, 0.0, 0.0, 0.0, 0.0, 0.0)",0.0,0.0,0.0026,"(5.0, 0.0, 0.0, 0.0, 5.0, 0.0, 0.0, 0.0, 0.5)",-0.01,0.17,-9.71,"(1.0, 0.0, 0.0, 0.0, 1.0, 0.0, 0.0, 0.0, 1.0)"
2018/12/16/17:23:05.713458,109639,1545002585,713001820,base_footprint,0.0,0.0,0.0,0.0,"(-1.0, 0.0, 0.0, 0.0, 0.0, 0.0, 0.0, 0.0, 0.0)",0.0,0.0,0.0022,"(5.0, 0.0, 0.0, 0.0, 5.0, 0.0, 0.0, 0.0, 0.5)",-0.03,0.18,-9.76,"(1.0, 0.0, 0.0, 0.0, 1.0, 0.0, 0.0, 0.0, 1.0)"
2018/12/16/17:23:05.722579,109640,1545002585,722130170,base_footprint,0.0,0.0,0.0,0.0,"(-1.0, 0.0, 0.0, 0.0, 0.0, 0.0, 0.0, 0.0, 0.0)",0.0,0.0,0.0016,"(5.0, 0.0, 0.0, 0.0, 5.0, 0.0, 0.0, 0.0, 0.5)",-0.08,0.18,-9.79,"(1.0, 0.0, 0.0, 0.0, 1.0, 0.0, 0.0, 0.0, 1.0)"
2018/12/16/17:23:05.732855,109641,1545002585,732280011,base_footprint,0.0,0.0,0.0,0.0,"(-1.0, 0.0, 0.0, 0.0, 0.0, 0.0, 0.0, 0.0, 0.0)",-0.001,0.0,0.0012,"(5.0, 0.0, 0.0, 0.0, 5.0, 0.0, 0.0, 0.0, 0.5)",-0.08,0.2,-9.79,"(1.0, 0.0, 0.0, 0.0, 1.0, 0.0, 0.0, 0.0, 1.0)"
2018/12/16/17:23:05.742704,109642,1545002585,742156533,base_footprint,0.0,0.0,0.0,0.0,"(-1.0, 0.0, 0.0, 0.0, 0.0, 0.0, 0.0, 0.0, 0.0)",-0.003,0.0,0.001,"(5.0, 0.0, 0.0, 0.0, 5.0, 0.0, 0.0, 0.0, 0.5)",-0.02,0.24,-9.8,"(1.0, 0.0, 0.0, 0.0, 1.0, 0.0, 0.0, 0.0, 1.0)"
2018/12/16/17:23:05.752770,109643,1545002585,752311355,base_footprint,0.0,0.0,0.0,0.0,"(-1.0, 0.0, 0.0, 0.0, 0.0, 0.0, 0.0, 0.0, 0.0)",-0.0058,0.0,0.0006,"(5.0, 0.0, 0.0, 0.0, 5.0, 0.0, 0.0, 0.0, 0.5)",0.02,0.26,-9.82,"(1.0, 0.0, 0.0, 0.0, 1.0, 0.0, 0.0, 0.0, 1.0)"
2018/12/16/17:23:05.762625,109644,1545002585,762103176,base_footprint,0.0,0.0,0.0,0.0,"(-1.0, 0.0, 0.0, 0.0, 0.0, 0.0, 0.0, 0.0, 0.0)",-0.0082,0.0,0.0,"(5.0, 0.0, 0.0, 0.0, 5.0, 0.0, 0.0, 0.0, 0.5)",0.03,0.23,-9.82,"(1.0, 0.0, 0.0, 0.0, 1.0, 0.0, 0.0, 0.0, 1.0)"
2018/12/16/17:23:05.772799,109645,1545002585,772273577,base_footprint,0.0,0.0,0.0,0.0,"(-1.0, 0.0, 0.0, 0.0, 0.0, 0.0, 0.0, 0.0, 0.0)",-0.0098,0.0,-0.0002,"(5.0, 0.0, 0.0, 0.0, 5.0, 0.0, 0.0, 0.0, 0.5)",0.0,0.16,-9.77,"(1.0, 0.0, 0.0, 0.0, 1.0, 0.0, 0.0, 0.0, 1.0)"
2018/12/16/17:23:05.782856,109646,1545002585,782128766,base_footprint,0.0,0.0,0.0,0.0,"(-1.0, 0.0, 0.0, 0.0, 0.0, 0.0, 0.0, 0.0, 0.0)",-0.0096,0.0,0.0,"(5.0, 0.0, 0.0, 0.0, 5.0, 0.0, 0.0, 0.0, 0.5)",-0.04,0.12,-9.71,"(1.0, 0.0, 0.0, 0.0, 1.0, 0.0, 0.0, 0.0, 1.0)"
2018/12/16/17:23:05.793085,109647,1545002585,792517316,base_footprint,0.0,0.0,0.0,0.0,"(-1.0, 0.0, 0.0, 0.0, 0.0, 0.0, 0.0, 0.0, 0.0)",-0.0082,0.0,0.0,"(5.0, 0.0, 0.0, 0.0, 5.0, 0.0, 0.0, 0.0, 0.5)",-0.08,0.13,-9.69,"(1.0, 0.0, 0.0, 0.0, 1.0, 0.0, 0.0, 0.0, 1.0)"
2018/12/16/17:23:05.802684,109648,1545002585,802126680,base_footprint,0.0,0.0,0.0,0.0,"(-1.0, 0.0, 0.0, 0.0, 0.0, 0.0, 0.0, 0.0, 0.0)",-0.007,0.0,-0.0004,"(5.0, 0.0, 0.0, 0.0, 5.0, 0.0, 0.0, 0.0, 0.5)",-0.1,0.18,-9.74,"(1.0, 0.0, 0.0, 0.0, 1.0, 0.0, 0.0, 0.0, 1.0)"
2018/12/16/17:23:05.813583,109649,1545002585,813033502,base_footprint,0.0,0.0,0.0,0.0,"(-1.0, 0.0, 0.0, 0.0, 0.0, 0.0, 0.0, 0.0, 0.0)",-0.0072,0.0,-0.0012,"(5.0, 0.0, 0.0, 0.0, 5.0, 0.0, 0.0, 0.0, 0.5)",-0.11,0.24,-9.82,"(1.0, 0.0, 0.0, 0.0, 1.0, 0.0, 0.0, 0.0, 1.0)"
2018/12/16/17:23:05.822844,109650,1545002585,822104499,base_footprint,0.0,0.0,0.0,0.0,"(-1.0, 0.0, 0.0, 0.0, 0.0, 0.0, 0.0, 0.0, 0.0)",-0.0074,0.0,-0.0018,"(5.0, 0.0, 0.0, 0.0, 5.0, 0.0, 0.0, 0.0, 0.5)",-0.09,0.25,-9.85,"(1.0, 0.0, 0.0, 0.0, 1.0, 0.0, 0.0, 0.0, 1.0)"
2018/12/16/17:23:05.833486,109651,1545002585,832273989,base_footprint,0.0,0.0,0.0,0.0,"(-1.0, 0.0, 0.0, 0.0, 0.0, 0.0, 0.0, 0.0, 0.0)",-0.0072,0.0,-0.0024,"(5.0, 0.0, 0.0, 0.0, 5.0, 0.0, 0.0, 0.0, 0.5)",-0.06,0.21,-9.8,"(1.0, 0.0, 0.0, 0.0, 1.0, 0.0, 0.0, 0.0, 1.0)"
2018/12/16/17:23:05.842555,109652,1545002585,842070266,base_footprint,0.0,0.0,0.0,0.0,"(-1.0, 0.0, 0.0, 0.0, 0.0, 0.0, 0.0, 0.0, 0.0)",-0.0064,0.0,-0.0026,"(5.0, 0.0, 0.0, 0.0, 5.0, 0.0, 0.0, 0.0, 0.5)",-0.03,0.19,-9.76,"(1.0, 0.0, 0.0, 0.0, 1.0, 0.0, 0.0, 0.0, 1.0)"
2018/12/16/17:23:05.852769,109653,1545002585,852298187,base_footprint,0.0,0.0,0.0,0.0,"(-1.0, 0.0, 0.0, 0.0, 0.0, 0.0, 0.0, 0.0, 0.0)",-0.0054,0.0,-0.0028,"(5.0, 0.0, 0.0, 0.0, 5.0, 0.0, 0.0, 0.0, 0.5)",-0.02,0.23,-9.78,"(1.0, 0.0, 0.0, 0.0, 1.0, 0.0, 0.0, 0.0, 1.0)"
2018/12/16/17:23:05.862813,109654,1545002585,862090466,base_footprint,0.0,0.0,0.0,0.0,"(-1.0, 0.0, 0.0, 0.0, 0.0, 0.0, 0.0, 0.0, 0.0)",-0.0046,0.0,-0.0028,"(5.0, 0.0, 0.0, 0.0, 5.0, 0.0, 0.0, 0.0, 0.5)",-0.01,0.29,-9.81,"(1.0, 0.0, 0.0, 0.0, 1.0, 0.0, 0.0, 0.0, 1.0)"
2018/12/16/17:23:05.872734,109655,1545002585,872280610,base_footprint,0.0,0.0,0.0,0.0,"(-1.0, 0.0, 0.0, 0.0, 0.0, 0.0, 0.0, 0.0, 0.0)",-0.004,0.0,-0.003,"(5.0, 0.0, 0.0, 0.0, 5.0, 0.0, 0.0, 0.0, 0.5)",-0.03,0.29,-9.81,"(1.0, 0.0, 0.0, 0.0, 1.0, 0.0, 0.0, 0.0, 1.0)"
2018/12/16/17:23:05.882957,109656,1545002585,882147393,base_footprint,0.0,0.0,0.0,0.0,"(-1.0, 0.0, 0.0, 0.0, 0.0, 0.0, 0.0, 0.0, 0.0)",-0.0038,0.0,-0.0028,"(5.0, 0.0, 0.0, 0.0, 5.0, 0.0, 0.0, 0.0, 0.5)",-0.04,0.26,-9.78,"(1.0, 0.0, 0.0, 0.0, 1.0, 0.0, 0.0, 0.0, 1.0)"
2018/12/16/17:23:05.892725,109657,1545002585,892300211,base_footprint,0.0,0.0,0.0,0.0,"(-1.0, 0.0, 0.0, 0.0, 0.0, 0.0, 0.0, 0.0, 0.0)",-0.0034,0.0,-0.0026,"(5.0, 0.0, 0.0, 0.0, 5.0, 0.0, 0.0, 0.0, 0.5)",-0.06,0.26,-9.73,"(1.0, 0.0, 0.0, 0.0, 1.0, 0.0, 0.0, 0.0, 1.0)"
2018/12/16/17:23:05.902533,109658,1545002585,902114625,base_footprint,0.0,0.0,0.0,0.0,"(-1.0, 0.0, 0.0, 0.0, 0.0, 0.0, 0.0, 0.0, 0.0)",-0.003,0.0,-0.002,"(5.0, 0.0, 0.0, 0.0, 5.0, 0.0, 0.0, 0.0, 0.5)",-0.08,0.28,-9.67,"(1.0, 0.0, 0.0, 0.0, 1.0, 0.0, 0.0, 0.0, 1.0)"
2018/12/16/17:23:05.913539,109659,1545002585,913028535,base_footprint,0.0,0.0,0.0,0.0,"(-1.0, 0.0, 0.0, 0.0, 0.0, 0.0, 0.0, 0.0, 0.0)",-0.002,0.0,-0.002,"(5.0, 0.0, 0.0, 0.0, 5.0, 0.0, 0.0, 0.0, 0.5)",-0.09,0.33,-9.68,"(1.0, 0.0, 0.0, 0.0, 1.0, 0.0, 0.0, 0.0, 1.0)"
2018/12/16/17:23:05.922579,109660,1545002585,922124576,base_footprint,0.0,0.0,0.0,0.0,"(-1.0, 0.0, 0.0, 0.0, 0.0, 0.0, 0.0, 0.0, 0.0)",0.0,0.0,-0.0026,"(5.0, 0.0, 0.0, 0.0, 5.0, 0.0, 0.0, 0.0, 0.5)",-0.08,0.36,-9.73,"(1.0, 0.0, 0.0, 0.0, 1.0, 0.0, 0.0, 0.0, 1.0)"
2018/12/16/17:23:05.933144,109661,1545002585,932295794,base_footprint,0.0,0.0,0.0,0.0,"(-1.0, 0.0, 0.0, 0.0, 0.0, 0.0, 0.0, 0.0, 0.0)",0.0006,0.0,-0.0036,"(5.0, 0.0, 0.0, 0.0, 5.0, 0.0, 0.0, 0.0, 0.5)",-0.07,0.39,-9.74,"(1.0, 0.0, 0.0, 0.0, 1.0, 0.0, 0.0, 0.0, 1.0)"
2018/12/16/17:23:05.942514,109662,1545002585,942078896,base_footprint,0.0,0.0,0.0,0.0,"(-1.0, 0.0, 0.0, 0.0, 0.0, 0.0, 0.0, 0.0, 0.0)",0.0002,0.0,-0.0042,"(5.0, 0.0, 0.0, 0.0, 5.0, 0.0, 0.0, 0.0, 0.5)",-0.04,0.42,-9.71,"(1.0, 0.0, 0.0, 0.0, 1.0, 0.0, 0.0, 0.0, 1.0)"
2018/12/16/17:23:05.952694,109663,1545002585,952279398,base_footprint,0.0,0.0,0.0,0.0,"(-1.0, 0.0, 0.0, 0.0, 0.0, 0.0, 0.0, 0.0, 0.0)",-0.0008,0.0,-0.0044,"(5.0, 0.0, 0.0, 0.0, 5.0, 0.0, 0.0, 0.0, 0.5)",0.0,0.44,-9.7,"(1.0, 0.0, 0.0, 0.0, 1.0, 0.0, 0.0, 0.0, 1.0)"
2018/12/16/17:23:05.962503,109664,1545002585,962069881,base_footprint,0.0,0.0,0.0,0.0,"(-1.0, 0.0, 0.0, 0.0, 0.0, 0.0, 0.0, 0.0, 0.0)",-0.0024,0.0,-0.0048,"(5.0, 0.0, 0.0, 0.0, 5.0, 0.0, 0.0, 0.0, 0.5)",0.01,0.44,-9.68,"(1.0, 0.0, 0.0, 0.0, 1.0, 0.0, 0.0, 0.0, 1.0)"
2018/12/16/17:23:05.972773,109665,1545002585,972290575,base_footprint,0.0,0.0,0.0,0.0,"(-1.0, 0.0, 0.0, 0.0, 0.0, 0.0, 0.0, 0.0, 0.0)",-0.0038,0.0,-0.0054,"(5.0, 0.0, 0.0, 0.0, 5.0, 0.0, 0.0, 0.0, 0.5)",0.0,0.41,-9.66,"(1.0, 0.0, 0.0, 0.0, 1.0, 0.0, 0.0, 0.0, 1.0)"
2018/12/16/17:23:05.982603,109666,1545002585,982123287,base_footprint,0.0,0.0,0.0,0.0,"(-1.0, 0.0, 0.0, 0.0, 0.0, 0.0, 0.0, 0.0, 0.0)",-0.0044,0.0,-0.0066,"(5.0, 0.0, 0.0, 0.0, 5.0, 0.0, 0.0, 0.0, 0.5)",0.0,0.35,-9.69,"(1.0, 0.0, 0.0, 0.0, 1.0, 0.0, 0.0, 0.0, 1.0)"
2018/12/16/17:23:05.992683,109667,1545002585,992274418,base_footprint,0.0,0.0,0.0,0.0,"(-1.0, 0.0, 0.0, 0.0, 0.0, 0.0, 0.0, 0.0, 0.0)",-0.0032,0.0,-0.0074,"(5.0, 0.0, 0.0, 0.0, 5.0, 0.0, 0.0, 0.0, 0.5)",0.0,0.31,-9.74,"(1.0, 0.0, 0.0, 0.0, 1.0, 0.0, 0.0, 0.0, 1.0)"
2018/12/16/17:23:06.002584,109668,1545002586,2139873,base_footprint,0.0,0.0,0.0,0.0,"(-1.0, 0.0, 0.0, 0.0, 0.0, 0.0, 0.0, 0.0, 0.0)",-0.0006,0.0,-0.0082,"(5.0, 0.0, 0.0, 0.0, 5.0, 0.0, 0.0, 0.0, 0.5)",-0.01,0.31,-9.74,"(1.0, 0.0, 0.0, 0.0, 1.0, 0.0, 0.0, 0.0, 1.0)"
2018/12/16/17:23:06.013413,109669,1545002586,13035222,base_footprint,0.0,0.0,0.0,0.0,"(-1.0, 0.0, 0.0, 0.0, 0.0, 0.0, 0.0, 0.0, 0.0)",0.0018,0.0,-0.009,"(5.0, 0.0, 0.0, 0.0, 5.0, 0.0, 0.0, 0.0, 0.5)",0.0,0.36,-9.72,"(1.0, 0.0, 0.0, 0.0, 1.0, 0.0, 0.0, 0.0, 1.0)"
