time,.header.seq,.header.stamp.secs,.header.stamp.nsecs,.header.frame_id,.latitude,.longitude,.hEll
2018/12/16/17:23:03.775030,109479,2407,636300000,mti/data,30.6276683807,-96.4820785522,48.973903656
2018/12/16/17:23:03.784964,109480,2407,646300000,mti/data,30.6276683807,-96.4820785522,48.9728355408
2018/12/16/17:23:03.795046,109481,2407,656300000,mti/data,30.6276683807,-96.4820785522,48.9717674255
2018/12/16/17:23:03.804706,109482,2407,666300000,mti/data,30.6276683807,-96.4820785522,48.9713821411
2018/12/16/17:23:03.815928,109483,2407,676300000,mti/data,30.6276702881,-96.4820785522,48.970993042
2018/12/16/17:23:03.824810,109484,2407,686300000,mti/data,30.6276702881,-96.4820785522,48.9698677063
2018/12/16/17:23:03.834886,109485,2407,696300000,mti/data,30.6276702881,-96.4820785522,48.9687309265
2018/12/16/17:23:03.845677,109486,2407,706300000,mti/data,30.6276702881,-96.4820785522,48.9678344727
2018/12/16/17:23:03.855293,109487,2407,716300000,mti/data,30.6276702881,-96.4820785522,48.9669075012
2018/12/16/17:23:03.864765,109488,2407,726300000,mti/data,30.6276721954,-96.4820785522,48.9654693604
2018/12/16/17:23:03.874777,109489,2407,736300000,mti/data,30.6276721954,-96.4820785522,48.9640541077
2018/12/16/17:23:03.885348,109490,2407,746300000,mti/data,30.6276721954,-96.4820785522,48.9626617432
2018/12/16/17:23:03.894802,109491,2407,756300000,mti/data,30.6276721954,-96.4820785522,48.9695320129
2018/12/16/17:23:03.904778,109492,2407,766300000,mti/data,30.6276741028,-96.4820785522,48.9771957397
2018/12/16/17:23:03.914697,109493,2407,776300000,mti/data,30.6276741028,-96.4820785522,48.9765968323
2018/12/16/17:23:03.924765,109494,2407,786300000,mti/data,30.6276741028,-96.4820785522,48.9764709473
2018/12/16/17:23:03.934831,109495,2407,796300000,mti/data,30.6276741028,-96.4820785522,48.976360321
2018/12/16/17:23:03.944830,109496,2407,806300000,mti/data,30.6276741028,-96.4820785522,48.9757881165
2018/12/16/17:23:03.954959,109497,2407,816300000,mti/data,30.6276760101,-96.4820785522,48.9752082825
2018/12/16/17:23:03.964800,109498,2407,826300000,mti/data,30.6276760101,-96.4820785522,48.9746170044
2018/12/16/17:23:03.974815,109499,2407,836300000,mti/data,30.6276760101,-96.4820785522,48.973991394
2018/12/16/17:23:03.984772,109500,2407,846300000,mti/data,30.6276760101,-96.4820785522,48.9730911255
2018/12/16/17:23:03.995322,109501,2407,856300000,mti/data,30.6276760101,-96.4820785522,48.9721755981
2018/12/16/17:23:04.004781,109502,2407,866300000,mti/data,30.6276779175,-96.4820785522,48.9719657898
2018/12/16/17:23:04.014902,109503,2407,876300000,mti/data,30.6276779175,-96.4820785522,48.9717407227
2018/12/16/17:23:04.024813,109504,2407,886300000,mti/data,30.6276779175,-96.4820785522,48.9703140259
2018/12/16/17:23:04.034832,109505,2407,896300000,mti/data,30.6276779175,-96.4820785522,48.9688911438
2018/12/16/17:23:04.044819,109506,2407,906300000,mti/data,30.6276779175,-96.4820785522,48.9679374695
2018/12/16/17:23:04.055024,109507,2407,916300000,mti/data,30.6276798248,-96.4820785522,48.9669532776
2018/12/16/17:23:04.064764,109508,2407,926300000,mti/data,30.6276798248,-96.4820785522,48.9666595459
2018/12/16/17:23:04.074837,109509,2407,936300000,mti/data,30.6276798248,-96.4820785522,48.9663543701
2018/12/16/17:23:04.084738,109510,2407,946300000,mti/data,30.6276798248,-96.4820785522,48.9648132324
2018/12/16/17:23:04.094955,109511,2407,956300000,mti/data,30.6276817322,-96.4820785522,48.9632339478
2018/12/16/17:23:04.104782,109512,2407,966300000,mti/data,30.6276817322,-96.4820785522,48.9618759155
2018/12/16/17:23:04.114931,109513,2407,976300000,mti/data,30.6276817322,-96.4820785522,48.9605293274
2018/12/16/17:23:04.124843,109514,2407,986300000,mti/data,30.6276817322,-96.4820785522,48.9597091675
2018/12/16/17:23:04.135879,109515,2407,996300000,mti/data,30.6276817322,-96.4820785522,48.9589271545
2018/12/16/17:23:04.144829,109516,2408,6300000,mti/data,30.6276836395,-96.4820785522,48.9574317932
2018/12/16/17:23:04.154776,109517,2408,16300000,mti/data,30.6276836395,-96.4820785522,48.9633178711
2018/12/16/17:23:04.164886,109518,2408,26300000,mti/data,30.6276836395,-96.4820785522,48.9688529968
2018/12/16/17:23:04.175862,109519,2408,36300000,mti/data,30.6276836395,-96.4820785522,48.9670066833
2018/12/16/17:23:04.185064,109520,2408,46300000,mti/data,30.6276836395,-96.4820785522,48.9662742615
2018/12/16/17:23:04.194861,109521,2408,56300000,mti/data,30.6276855469,-96.4820785522,48.9655075073
2018/12/16/17:23:04.204744,109522,2408,66300000,mti/data,30.6276855469,-96.4820785522,48.9637641907
2018/12/16/17:23:04.214928,109523,2408,76300000,mti/data,30.6276855469,-96.4820785522,48.9619827271
2018/12/16/17:23:04.224892,109524,2408,86300000,mti/data,30.6276855469,-96.4820785522,48.9604759216
2018/12/16/17:23:04.234897,109525,2408,96300000,mti/data,30.6276874542,-96.4820785522,48.9590301514
2018/12/16/17:23:04.244936,109526,2408,106300000,mti/data,30.6276874542,-96.4820785522,48.9583282471
2018/12/16/17:23:04.255021,109527,2408,116300000,mti/data,30.6276874542,-96.4820785522,48.9576454163
2018/12/16/17:23:04.264728,109528,2408,126300000,mti/data,30.6276874542,-96.4820785522,48.9569969177
2018/12/16/17:23:04.275323,109529,2408,136300000,mti/data,30.6276874542,-96.4820785522,48.9563179016
2018/12/16/17:23:04.284870,109530,2408,146300000,mti/data,30.6276893616,-96.4820785522,48.9548873901
2018/12/16/17:23:04.294993,109531,2408,156300000,mti/data,30.6276893616,-96.4820785522,48.9534683228
2018/12/16/17:23:04.304806,109532,2408,166300000,mti/data,30.6276893616,-96.4820785522,48.9523048401
2018/12/16/17:23:04.314862,109533,2408,176300000,mti/data,30.6276893616,-96.4820785522,48.9511642456
2018/12/16/17:23:04.324831,109534,2408,186300000,mti/data,30.6276893616,-96.4820785522,48.9512672424
2018/12/16/17:23:04.334947,109535,2408,196300000,mti/data,30.6276912689,-96.4820785522,48.9513969421
2018/12/16/17:23:04.344899,109536,2408,206300000,mti/data,30.6276912689,-96.4820785522,48.9508094788
2018/12/16/17:23:04.354922,109537,2408,216300000,mti/data,30.6276912689,-96.4820785522,48.9502449036
2018/12/16/17:23:04.365032,109538,2408,226300000,mti/data,30.6276912689,-96.4820785522,48.9499320984
2018/12/16/17:23:04.376389,109539,2408,236300000,mti/data,30.6276912689,-96.4820785522,48.9496078491
2018/12/16/17:23:04.384841,109540,2408,246300000,mti/data,30.6276931763,-96.4820785522,48.9487495422
2018/12/16/17:23:04.394750,109541,2408,256300000,mti/data,30.6276931763,-96.4820785522,48.9540672302
2018/12/16/17:23:04.404982,109542,2408,266300000,mti/data,30.6276931763,-96.4820785522,48.9595985413
2018/12/16/17:23:04.414917,109543,2408,276300000,mti/data,30.6276931763,-96.4820785522,48.9589157104
2018/12/16/17:23:04.424883,109544,2408,286300000,mti/data,30.6276950836,-96.4820785522,48.9575309753
2018/12/16/17:23:04.434984,109545,2408,296300000,mti/data,30.6276950836,-96.4820785522,48.9561157227
2018/12/16/17:23:04.445064,109546,2408,306300000,mti/data,30.6276950836,-96.4820785522,48.9558677673
2018/12/16/17:23:04.455112,109547,2408,316300000,mti/data,30.6276950836,-96.4820785522,48.9556236267
2018/12/16/17:23:04.464842,109548,2408,326300000,mti/data,30.6276950836,-96.4820785522,48.9541931152
2018/12/16/17:23:04.474797,109549,2408,336300000,mti/data,30.627696991,-96.4820785522,48.9527130127
2018/12/16/17:23:04.484919,109550,2408,346300000,mti/data,30.627696991,-96.4820785522,48.9521446228
2018/12/16/17:23:04.495005,109551,2408,356300000,mti/data,30.627696991,-96.4820785522,48.9515571594
2018/12/16/17:23:04.504924,109552,2408,366300000,mti/data,30.627696991,-96.4820785522,48.9497718811
2018/12/16/17:23:04.515204,109553,2408,376300000,mti/data,30.6276988983,-96.4820785522,48.9479751587
2018/12/16/17:23:04.524975,109554,2408,386300000,mti/data,30.6276988983,-96.4820785522,48.9466590881
2018/12/16/17:23:04.534969,109555,2408,396300000,mti/data,30.6276988983,-96.4820785522,48.9453659058
2018/12/16/17:23:04.544841,109556,2408,406300000,mti/data,30.6276988983,-96.4820785522,48.9438514709
2018/12/16/17:23:04.554736,109557,2408,416300000,mti/data,30.6276988983,-96.4820785522,48.9423446655
2018/12/16/17:23:04.564881,109558,2408,426300000,mti/data,30.6277008057,-96.4820785522,48.940574646
2018/12/16/17:23:04.575306,109559,2408,436300000,mti/data,30.6277008057,-96.4820785522,48.9388046265
2018/12/16/17:23:04.584950,109560,2408,446300000,mti/data,30.6277008057,-96.4820785522,48.9380264282
2018/12/16/17:23:04.594991,109561,2408,456300000,mti/data,30.6277008057,-96.4820785522,48.9372596741
2018/12/16/17:23:04.604994,109562,2408,466300000,mti/data,30.6277008057,-96.4820785522,48.936000824
2018/12/16/17:23:04.615122,109563,2408,476300000,mti/data,30.627702713,-96.4820785522,48.9347648621
2018/12/16/17:23:04.624841,109564,2408,486300000,mti/data,30.627702713,-96.4820785522,48.9327926636
2018/12/16/17:23:04.634715,109565,2408,496300000,mti/data,30.627702713,-96.4820785522,48.9308052063
2018/12/16/17:23:04.647738,109566,2408,506300000,mti/data,30.627702713,-96.4820785522,48.9393157959
2018/12/16/17:23:04.655004,109567,2408,516300000,mti/data,30.6277046204,-96.4820785522,48.9465408325
2018/12/16/17:23:04.664939,109568,2408,526300000,mti/data,30.6277046204,-96.4820785522,48.9438438416
2018/12/16/17:23:04.675070,109569,2408,536300000,mti/data,30.6277046204,-96.4820785522,48.9424362183
2018/12/16/17:23:04.684924,109570,2408,546300000,mti/data,30.6277046204,-96.4820785522,48.9417152405
2018/12/16/17:23:04.694998,109571,2408,556300000,mti/data,30.6277046204,-96.4820785522,48.9409980774
2018/12/16/17:23:04.704933,109572,2408,566300000,mti/data,30.6277065277,-96.4820785522,48.9398345947
2018/12/16/17:23:04.715162,109573,2408,576300000,mti/data,30.6277065277,-96.4820785522,48.9386672974
2018/12/16/17:23:04.724948,109574,2408,586300000,mti/data,30.6277065277,-96.4820785522,48.93724823
2018/12/16/17:23:04.734894,109575,2408,596300000,mti/data,30.6277065277,-96.4820785522,48.9358139038
2018/12/16/17:23:04.744879,109576,2408,606300000,mti/data,30.6277084351,-96.4820785522,48.9353218079
2018/12/16/17:23:04.755280,109577,2408,616300000,mti/data,30.6277084351,-96.4820785522,48.934803009
2018/12/16/17:23:04.764843,109578,2408,626300000,mti/data,30.6277084351,-96.4820785522,48.9335594177
2018/12/16/17:23:04.775128,109579,2408,636300000,mti/data,30.6277084351,-96.4820785522,48.9323501587
2018/12/16/17:23:04.784983,109580,2408,646300000,mti/data,30.6277084351,-96.4820785522,48.9306716919
2018/12/16/17:23:04.794881,109581,2408,656300000,mti/data,30.6277103424,-96.4820785522,48.9290008545
2018/12/16/17:23:04.804869,109582,2408,666300000,mti/data,30.6277103424,-96.4820785522,48.9271202087
2018/12/16/17:23:04.815253,109583,2408,676300000,mti/data,30.6277103424,-96.4820785522,48.9252662659
2018/12/16/17:23:04.825029,109584,2408,686300000,mti/data,30.6277103424,-96.4820785522,48.9239006042
2018/12/16/17:23:04.834904,109585,2408,696300000,mti/data,30.6277122498,-96.4820785522,48.9225769043
2018/12/16/17:23:04.844880,109586,2408,706300000,mti/data,30.6277122498,-96.4820785522,48.9212837219
2018/12/16/17:23:04.854939,109587,2408,716300000,mti/data,30.6277122498,-96.4820785522,48.9200019836
2018/12/16/17:23:04.864915,109588,2408,726300000,mti/data,30.6277122498,-96.4820785522,48.9192314148
2018/12/16/17:23:04.875225,109589,2408,736300000,mti/data,30.6277122498,-96.4820785522,48.9184951782
2018/12/16/17:23:04.884938,109590,2408,746300000,mti/data,30.6277141571,-96.4820785522,48.9172897339
2018/12/16/17:23:04.894846,109591,2408,756300000,mti/data,30.6277141571,-96.4820785522,48.9200019836
2018/12/16/17:23:04.904990,109592,2408,766300000,mti/data,30.6277141571,-96.4820785522,48.9231567383
2018/12/16/17:23:04.915264,109593,2408,776300000,mti/data,30.6277141571,-96.4820785522,48.92237854
2018/12/16/17:23:04.924870,109594,2408,786300000,mti/data,30.6277160645,-96.4820785522,48.9213790894
2018/12/16/17:23:04.935199,109595,2408,796300000,mti/data,30.6277160645,-96.4820785522,48.9204063416
2018/12/16/17:23:04.944856,109596,2408,806300000,mti/data,30.6277160645,-96.4820785522,48.9194412231
2018/12/16/17:23:04.955442,109597,2408,816300000,mti/data,30.6277160645,-96.4820785522,48.9184570312
2018/12/16/17:23:04.964869,109598,2408,826300000,mti/data,30.6277179718,-96.4820785522,48.9174423218
2018/12/16/17:23:04.975015,109599,2408,836300000,mti/data,30.6277179718,-96.4820785522,48.9164123535
2018/12/16/17:23:04.984855,109600,2408,846300000,mti/data,30.6277179718,-96.4820785522,48.9151382446
2018/12/16/17:23:04.994891,109601,2408,856300000,mti/data,30.6277179718,-96.4820785522,48.9138793945
2018/12/16/17:23:05.004955,109602,2408,866300000,mti/data,30.6277179718,-96.4820785522,48.9128456116
2018/12/16/17:23:05.015115,109603,2408,876300000,mti/data,30.6277198792,-96.4820785522,48.9118003845
2018/12/16/17:23:05.024970,109604,2408,886300000,mti/data,30.6277198792,-96.4820785522,48.911239624
2018/12/16/17:23:05.035019,109605,2408,896300000,mti/data,30.6277198792,-96.4820785522,48.9106636047
2018/12/16/17:23:05.044838,109606,2408,906300000,mti/data,30.6277198792,-96.4820785522,48.909828186
2018/12/16/17:23:05.055017,109607,2408,916300000,mti/data,30.6277217865,-96.4820785522,48.9090042114
2018/12/16/17:23:05.064722,109608,2408,926300000,mti/data,30.6277217865,-96.4820785522,48.9074249268
2018/12/16/17:23:05.075114,109609,2408,936300000,mti/data,30.6277217865,-96.4820785522,48.9058418274
2018/12/16/17:23:05.084973,109610,2408,946300000,mti/data,30.6277217865,-96.4820785522,48.9052658081
2018/12/16/17:23:05.094931,109611,2408,956300000,mti/data,30.6277236938,-96.4820785522,48.9047012329
2018/12/16/17:23:05.105072,109612,2408,966300000,mti/data,30.6277236938,-96.4820785522,48.9031295776
2018/12/16/17:23:05.114844,109613,2408,976300000,mti/data,30.6277236938,-96.4820785522,48.9015617371
2018/12/16/17:23:05.124945,109614,2408,986300000,mti/data,30.6277236938,-96.4820785522,48.8994865417
2018/12/16/17:23:05.134901,109615,2408,996300000,mti/data,30.6277236938,-96.4820785522,48.8973846436
2018/12/16/17:23:05.144778,109616,2409,6300000,mti/data,30.6277256012,-96.4820785522,48.9038009644
2018/12/16/17:23:05.154990,109617,2409,16300000,mti/data,30.6277256012,-96.4820785522,48.9091491699
2018/12/16/17:23:05.165014,109618,2409,26300000,mti/data,30.6277256012,-96.4820785522,48.9067687988
2018/12/16/17:23:05.174990,109619,2409,36300000,mti/data,30.6277256012,-96.4820785522,48.9054069519
2018/12/16/17:23:05.184881,109620,2409,46300000,mti/data,30.6277275085,-96.4820785522,48.9045028687
2018/12/16/17:23:05.194908,109621,2409,56300000,mti/data,30.6277275085,-96.4820785522,48.9035682678
2018/12/16/17:23:05.205349,109622,2409,66300000,mti/data,30.6277275085,-96.4820785522,48.901927948
2018/12/16/17:23:05.214967,109623,2409,76300000,mti/data,30.6277275085,-96.4820785522,48.9002838135
2018/12/16/17:23:05.224927,109624,2409,86300000,mti/data,30.6277294159,-96.4820785522,48.8991012573
2018/12/16/17:23:05.234977,109625,2409,96300000,mti/data,30.6277294159,-96.4820785522,48.8979187012
2018/12/16/17:23:05.244955,109626,2409,106300000,mti/data,30.6277294159,-96.4820785522,48.8969955444
2018/12/16/17:23:05.254927,109627,2409,116300000,mti/data,30.6277294159,-96.4820785522,48.8960723877
2018/12/16/17:23:05.264982,109628,2409,126300000,mti/data,30.6277294159,-96.4820785522,48.8960876465
2018/12/16/17:23:05.274934,109629,2409,136300000,mti/data,30.6277313232,-96.4820785522,48.8961410522
2018/12/16/17:23:05.285123,109630,2409,146300000,mti/data,30.6277313232,-96.4820785522,48.8957214355
2018/12/16/17:23:05.294846,109631,2409,156300000,mti/data,30.6277313232,-96.4820785522,48.8953132629
2018/12/16/17:23:05.305025,109632,2409,166300000,mti/data,30.6277313232,-96.4820785522,48.8939552307
2018/12/16/17:23:05.314804,109633,2409,176300000,mti/data,30.6277332306,-96.4820785522,48.8926124573
2018/12/16/17:23:05.325123,109634,2409,186300000,mti/data,30.6277332306,-96.4820785522,48.8915290833
2018/12/16/17:23:05.334909,109635,2409,196300000,mti/data,30.6277332306,-96.4820785522,48.890460968
2018/12/16/17:23:05.345027,109636,2409,206300000,mti/data,30.6277332306,-96.4820785522,48.8903694153
2018/12/16/17:23:05.354938,109637,2409,216300000,mti/data,30.6277351379,-96.4820785522,48.8902740479
2018/12/16/17:23:05.364963,109638,2409,226300000,mti/data,30.6277351379,-96.4820785522,48.8894233704
2018/12/16/17:23:05.374923,109639,2409,236300000,mti/data,30.6277351379,-96.4820785522,48.8885498047
2018/12/16/17:23:05.385094,109640,2409,246300000,mti/data,30.6277351379,-96.4820785522,48.8879165649
2018/12/16/17:23:05.395033,109641,2409,256300000,mti/data,30.6277351379,-96.4820785522,48.8957138062
2018/12/16/17:23:05.405144,109642,2409,266300000,mti/data,30.6277370453,-96.4820785522,48.9042243958
2018/12/16/17:23:05.415010,109643,2409,276300000,mti/data,30.6277370453,-96.4820785522,48.9043121338
2018/12/16/17:23:05.424965,109644,2409,286300000,mti/data,30.6277370453,-96.4820785522,48.90417099
2018/12/16/17:23:05.435185,109645,2409,296300000,mti/data,30.6277370453,-96.4820785522,48.9040412903
2018/12/16/17:23:05.444873,109646,2409,306300000,mti/data,30.6277389526,-96.4820785522,48.9036483765
2018/12/16/17:23:05.454921,109647,2409,316300000,mti/data,30.6277389526,-96.4820785522,48.9032249451
2018/12/16/17:23:05.464935,109648,2409,326300000,mti/data,30.6277389526,-96.4820785522,48.9025115967
2018/12/16/17:23:05.474986,109649,2409,336300000,mti/data,30.6277389526,-96.4820785522,48.901763916
2018/12/16/17:23:05.485033,109650,2409,346300000,mti/data,30.62774086,-96.4820785522,48.90102005
2018/12/16/17:23:05.494910,109651,2409,356300000,mti/data,30.62774086,-96.4820785522,48.9003257751
2018/12/16/17:23:05.505227,109652,2409,366300000,mti/data,30.62774086,-96.4820785522,48.8994636536
2018/12/16/17:23:05.514927,109653,2409,376300000,mti/data,30.62774086,-96.4820785522,48.8986473083
2018/12/16/17:23:05.524930,109654,2409,386300000,mti/data,30.6277427673,-96.4820785522,48.8977737427
2018/12/16/17:23:05.535220,109655,2409,396300000,mti/data,30.6277427673,-96.4820785522,48.89686203
2018/12/16/17:23:05.544927,109656,2409,406300000,mti/data,30.6277427673,-96.4820785522,48.8964920044
2018/12/16/17:23:05.554940,109657,2409,416300000,mti/data,30.6277427673,-96.4820785522,48.8961715698
2018/12/16/17:23:05.565343,109658,2409,426300000,mti/data,30.6277427673,-96.4820785522,48.8960723877
2018/12/16/17:23:05.574898,109659,2409,436300000,mti/data,30.6277446747,-96.4820785522,48.8959503174
2018/12/16/17:23:05.585041,109660,2409,446300000,mti/data,30.6277446747,-96.4820785522,48.8955879211
2018/12/16/17:23:05.594898,109661,2409,456300000,mti/data,30.6277446747,-96.4820785522,48.8952598572
2018/12/16/17:23:05.605203,109662,2409,466300000,mti/data,30.6277446747,-96.4820785522,48.8947372437
2018/12/16/17:23:05.614863,109663,2409,476300000,mti/data,30.627746582,-96.4820785522,48.8942146301
2018/12/16/17:23:05.625055,109664,2409,486300000,mti/data,30.627746582,-96.4820785522,48.893196106
2018/12/16/17:23:05.635274,109665,2409,496300000,mti/data,30.627746582,-96.4820785522,48.8922042847
2018/12/16/17:23:05.644943,109666,2409,506300000,mti/data,30.627746582,-96.4820785522,48.8993682861
2018/12/16/17:23:05.655032,109667,2409,516300000,mti/data,30.6277484894,-96.4820785522,48.9047737122
2018/12/16/17:23:05.664916,109668,2409,526300000,mti/data,30.6277484894,-96.4820785522,48.9020690918
2018/12/16/17:23:05.675073,109669,2409,536300000,mti/data,30.6277484894,-96.4820785522,48.9010543823
2018/12/16/17:23:05.685003,109670,2409,546300000,mti/data,30.6277484894,-96.4820785522,48.9002532959
2018/12/16/17:23:05.694750,109671,2409,556300000,mti/data,30.6277503967,-96.4820785522,48.8994293213
2018/12/16/17:23:05.705314,109672,2409,566300000,mti/data,30.6277503967,-96.4820785522,48.8985824585
2018/12/16/17:23:05.715004,109673,2409,576300000,mti/data,30.6277503967,-96.4820785522,48.897731781
2018/12/16/17:23:05.724965,109674,2409,586300000,mti/data,30.6277503967,-96.4820785522,48.8964195251
2018/12/16/17:23:05.736516,109675,2409,596300000,mti/data,30.6277523041,-96.4820785522,48.8951034546
2018/12/16/17:23:05.745016,109676,2409,606300000,mti/data,30.6277523041,-96.4820785522,48.8937568665
2018/12/16/17:23:05.755040,109677,2409,616300000,mti/data,30.6277523041,-96.4820785522,48.8924026489
2018/12/16/17:23:05.765564,109678,2409,626300000,mti/data,30.6277523041,-96.4820785522,48.891746521
2018/12/16/17:23:05.775028,109679,2409,636300000,mti/data,30.6277523041,-96.4820785522,48.8910827637
2018/12/16/17:23:05.784856,109680,2409,646300000,mti/data,30.6277542114,-96.4820785522,48.8906402588
2018/12/16/17:23:05.795766,109681,2409,656300000,mti/data,30.6277542114,-96.4820785522,48.8901786804
2018/12/16/17:23:05.805224,109682,2409,666300000,mti/data,30.6277542114,-96.4820785522,48.8897171021
2018/12/16/17:23:05.816189,109683,2409,676300000,mti/data,30.6277542114,-96.4820785522,48.8892707825
2018/12/16/17:23:05.825084,109684,2409,686300000,mti/data,30.6277561188,-96.4820785522,48.888835907
2018/12/16/17:23:05.835042,109685,2409,696300000,mti/data,30.6277561188,-96.4820785522,48.8883972168
2018/12/16/17:23:05.845044,109686,2409,706300000,mti/data,30.6277561188,-96.4820785522,48.8874740601
2018/12/16/17:23:05.854928,109687,2409,716300000,mti/data,30.6277561188,-96.4820785522,48.8865509033
2018/12/16/17:23:05.865182,109688,2409,726300000,mti/data,30.6277580261,-96.4820785522,48.8859100342
2018/12/16/17:23:05.875205,109689,2409,736300000,mti/data,30.6277580261,-96.4820785522,48.8852806091
2018/12/16/17:23:05.885137,109690,2409,746300000,mti/data,30.6277580261,-96.4820785522,48.8846549988
2018/12/16/17:23:05.895016,109691,2409,756300000,mti/data,30.6277580261,-96.4820785522,48.8922843933
2018/12/16/17:23:05.905251,109692,2409,766300000,mti/data,30.6277599335,-96.4820785522,48.8997421265
2018/12/16/17:23:05.914973,109693,2409,776300000,mti/data,30.6277599335,-96.4820785522,48.8989677429
2018/12/16/17:23:05.924957,109694,2409,786300000,mti/data,30.6277599335,-96.4820785522,48.8988838196
2018/12/16/17:23:05.935123,109695,2409,796300000,mti/data,30.6277599335,-96.4820785522,48.898815155
2018/12/16/17:23:05.945120,109696,2409,806300000,mti/data,30.6277599335,-96.4820785522,48.897605896
2018/12/16/17:23:05.954901,109697,2409,816300000,mti/data,30.6277618408,-96.4820785522,48.8963890076
2018/12/16/17:23:05.964942,109698,2409,826300000,mti/data,30.6277618408,-96.4820785522,48.8956184387
2018/12/16/17:23:05.974992,109699,2409,836300000,mti/data,30.6277618408,-96.4820785522,48.8948669434
2018/12/16/17:23:05.984897,109700,2409,846300000,mti/data,30.6277618408,-96.4820785522,48.893901825
2018/12/16/17:23:05.994945,109701,2409,856300000,mti/data,30.6277637482,-96.4820785522,48.8929519653
2018/12/16/17:23:06.005158,109702,2409,866300000,mti/data,30.6277637482,-96.4820785522,48.8919754028
2018/12/16/17:23:06.015023,109703,2409,876300000,mti/data,30.6277637482,-96.4820785522,48.8909988403
2018/12/16/17:23:06.024990,109704,2409,886300000,mti/data,30.6277637482,-96.4820785522,48.8902702332
2018/12/16/17:23:06.035006,109705,2409,896300000,mti/data,30.6277656555,-96.4820785522,48.8895378113
2018/12/16/17:23:06.044980,109706,2409,906300000,mti/data,30.6277656555,-96.4820785522,48.8895072937
2018/12/16/17:23:06.054945,109707,2409,916300000,mti/data,30.6277656555,-96.4820785522,48.8894424438
2018/12/16/17:23:06.065089,109708,2409,926300000,mti/data,30.6277656555,-96.4820785522,48.8889007568
2018/12/16/17:23:06.075070,109709,2409,936300000,mti/data,30.6277675629,-96.4820785522,48.8883628845
2018/12/16/17:23:06.084984,109710,2409,946300000,mti/data,30.6277675629,-96.4820785522,48.88829422
2018/12/16/17:23:06.094984,109711,2409,956300000,mti/data,30.6277675629,-96.4820785522,48.8882064819
2018/12/16/17:23:06.104934,109712,2409,966300000,mti/data,30.6277675629,-96.4820785522,48.8883666992
2018/12/16/17:23:06.115047,109713,2409,976300000,mti/data,30.6277675629,-96.4820785522,48.8885345459
2018/12/16/17:23:06.125069,109714,2409,986300000,mti/data,30.6277694702,-96.4820785522,48.8884468079
2018/12/16/17:23:06.135018,109715,2409,996300000,mti/data,30.6277694702,-96.4820785522,48.8883590698
2018/12/16/17:23:06.144981,109716,2410,6300000,mti/data,30.6277694702,-96.4820785522,48.8885269165
2018/12/16/17:23:06.154958,109717,2410,16300000,mti/data,30.6277694702,-96.4820785522,48.8959617615
2018/12/16/17:23:06.165054,109718,2410,26300000,mti/data,30.6277713776,-96.4820785522,48.9031181335
2018/12/16/17:23:06.175078,109719,2410,36300000,mti/data,30.6277713776,-96.4820785522,48.9029884338
2018/12/16/17:23:06.184965,109720,2410,46300000,mti/data,30.6277713776,-96.4820785522,48.9028549194
2018/12/16/17:23:06.194940,109721,2410,56300000,mti/data,30.6277713776,-96.4820785522,48.9027404785
2018/12/16/17:23:06.204998,109722,2410,66300000,mti/data,30.6277732849,-96.4820785522,48.9021873474
2018/12/16/17:23:06.214908,109723,2410,76300000,mti/data,30.6277732849,-96.4820785522,48.9016456604
2018/12/16/17:23:06.224985,109724,2410,86300000,mti/data,30.6277732849,-96.4820785522,48.901550293
2018/12/16/17:23:06.235209,109725,2410,96300000,mti/data,30.6277732849,-96.4820785522,48.9014472961
2018/12/16/17:23:06.244962,109726,2410,106300000,mti/data,30.6277751923,-96.4820785522,48.9008674622
2018/12/16/17:23:06.254945,109727,2410,116300000,mti/data,30.6277751923,-96.4820785522,48.9002838135
2018/12/16/17:23:06.264982,109728,2410,126300000,mti/data,30.6277751923,-96.4820785522,48.8992385864
2018/12/16/17:23:06.274976,109729,2410,136300000,mti/data,30.6277751923,-96.4820785522,48.8981971741
2018/12/16/17:23:06.285134,109730,2410,146300000,mti/data,30.6277770996,-96.4820785522,48.8976020813
2018/12/16/17:23:06.295184,109731,2410,156300000,mti/data,30.6277770996,-96.4820785522,48.8970146179
2018/12/16/17:23:06.304969,109732,2410,166300000,mti/data,30.6277770996,-96.4820785522,48.896446228
2018/12/16/17:23:06.314885,109733,2410,176300000,mti/data,30.6277770996,-96.4820785522,48.8959121704
2018/12/16/17:23:06.325001,109734,2410,186300000,mti/data,30.6277770996,-96.4820785522,48.8961257935
2018/12/16/17:23:06.334986,109735,2410,196300000,mti/data,30.627779007,-96.4820785522,48.8963508606
2018/12/16/17:23:06.345031,109736,2410,206300000,mti/data,30.627779007,-96.4820785522,48.8958778381
2018/12/16/17:23:06.355176,109737,2410,216300000,mti/data,30.627779007,-96.4820785522,48.8954277039
2018/12/16/17:23:06.365351,109738,2410,226300000,mti/data,30.627779007,-96.4820785522,48.8945045471
2018/12/16/17:23:06.375257,109739,2410,236300000,mti/data,30.6277809143,-96.4820785522,48.8936004639
2018/12/16/17:23:06.385026,109740,2410,246300000,mti/data,30.6277809143,-96.4820785522,48.8932151794
2018/12/16/17:23:06.395214,109741,2410,256300000,mti/data,30.6277809143,-96.4820785522,48.8974723816
2018/12/16/17:23:06.405031,109742,2410,266300000,mti/data,30.6277809143,-96.4820785522,48.9014816284
2018/12/16/17:23:06.414986,109743,2410,276300000,mti/data,30.6277828217,-96.4820785522,48.9008712769
2018/12/16/17:23:06.425092,109744,2410,286300000,mti/data,30.6277828217,-96.4820785522,48.9004592896
2018/12/16/17:23:06.435127,109745,2410,296300000,mti/data,30.6277828217,-96.4820785522,48.9000778198
2018/12/16/17:23:06.444977,109746,2410,306300000,mti/data,30.6277828217,-96.4820785522,48.8999519348
2018/12/16/17:23:06.455000,109747,2410,316300000,mti/data,30.627784729,-96.4820785522,48.8998146057
2018/12/16/17:23:06.465278,109748,2410,326300000,mti/data,30.627784729,-96.4820785522,48.8992118835
2018/12/16/17:23:06.475208,109749,2410,336300000,mti/data,30.627784729,-96.4820785522,48.8985900879
2018/12/16/17:23:06.485091,109750,2410,346300000,mti/data,30.627784729,-96.4820785522,48.8984222412
2018/12/16/17:23:06.495130,109751,2410,356300000,mti/data,30.6277866364,-96.4820785522,48.8982467651
2018/12/16/17:23:06.505094,109752,2410,366300000,mti/data,30.6277866364,-96.4820785522,48.8971481323
2018/12/16/17:23:06.515118,109753,2410,376300000,mti/data,30.6277866364,-96.4820785522,48.8960266113
2018/12/16/17:23:06.525080,109754,2410,386300000,mti/data,30.6277866364,-96.4820785522,48.8953437805
2018/12/16/17:23:06.535080,109755,2410,396300000,mti/data,30.6277885437,-96.4820785522,48.8946647644
2018/12/16/17:23:06.545036,109756,2410,406300000,mti/data,30.6277885437,-96.4820785522,48.8944625854
2018/12/16/17:23:06.555032,109757,2410,416300000,mti/data,30.6277885437,-96.4820785522,48.8942489624
2018/12/16/17:23:06.565221,109758,2410,426300000,mti/data,30.6277885437,-96.4820785522,48.8935470581
2018/12/16/17:23:06.575091,109759,2410,436300000,mti/data,30.627790451,-96.4820785522,48.8928375244
2018/12/16/17:23:06.585092,109760,2410,446300000,mti/data,30.627790451,-96.4820785522,48.8926315308
2018/12/16/17:23:06.595248,109761,2410,456300000,mti/data,30.627790451,-96.4820785522,48.8924407959
2018/12/16/17:23:06.605001,109762,2410,466300000,mti/data,30.627790451,-96.4820785522,48.8922386169
2018/12/16/17:23:06.615397,109763,2410,476300000,mti/data,30.627790451,-96.4820785522,48.8920173645
2018/12/16/17:23:06.625080,109764,2410,486300000,mti/data,30.6277923584,-96.4820785522,48.8915405273
2018/12/16/17:23:06.635124,109765,2410,496300000,mti/data,30.6277923584,-96.4820785522,48.8910369873
2018/12/16/17:23:06.645095,109766,2410,506300000,mti/data,30.6277923584,-96.4820785522,48.8909721375
2018/12/16/17:23:06.654936,109767,2410,516300000,mti/data,30.6277923584,-96.4820785522,48.8957481384
2018/12/16/17:23:06.665038,109768,2410,526300000,mti/data,30.6277942657,-96.4820785522,48.9000015259
2018/12/16/17:23:06.675326,109769,2410,536300000,mti/data,30.6277942657,-96.4820785522,48.8993644714
2018/12/16/17:23:06.684956,109770,2410,546300000,mti/data,30.6277942657,-96.4820785522,48.8995933533
2018/12/16/17:23:06.695011,109771,2410,556300000,mti/data,30.6277942657,-96.4820785522,48.899772644
2018/12/16/17:23:06.705000,109772,2410,566300000,mti/data,30.6277961731,-96.4820785522,48.8989830017
2018/12/16/17:23:06.715085,109773,2410,576300000,mti/data,30.6277961731,-96.4820785522,48.8981933594
2018/12/16/17:23:06.725109,109774,2410,586300000,mti/data,30.6277961731,-96.4820785522,48.8972434998
2018/12/16/17:23:06.735064,109775,2410,596300000,mti/data,30.6277961731,-96.4820785522,48.8963813782
2018/12/16/17:23:06.745097,109776,2410,606300000,mti/data,30.6277980804,-96.4820785522,48.8955421448
2018/12/16/17:23:06.755210,109777,2410,616300000,mti/data,30.6277980804,-96.4820785522,48.8946914673
2018/12/16/17:23:06.765287,109778,2410,626300000,mti/data,30.6277980804,-96.4820785522,48.8942871094
2018/12/16/17:23:06.775126,109779,2410,636300000,mti/data,30.6277980804,-96.4820785522,48.8938865662
2018/12/16/17:23:06.784988,109780,2410,646300000,mti/data,30.6277999878,-96.4820785522,48.8925514221
2018/12/16/17:23:06.795294,109781,2410,656300000,mti/data,30.6277999878,-96.4820785522,48.8912315369
2018/12/16/17:23:06.805074,109782,2410,666300000,mti/data,30.6277999878,-96.4820785522,48.8903846741
2018/12/16/17:23:06.814999,109783,2410,676300000,mti/data,30.6277999878,-96.4820785522,48.8895606995
2018/12/16/17:23:06.824960,109784,2410,686300000,mti/data,30.6278018951,-96.4820785522,48.8892097473
2018/12/16/17:23:06.835037,109785,2410,696300000,mti/data,30.6278018951,-96.4820785522,48.888874054
2018/12/16/17:23:06.845512,109786,2410,706300000,mti/data,30.6278018951,-96.4820785522,48.888053894
2018/12/16/17:23:06.855200,109787,2410,716300000,mti/data,30.6278018951,-96.4820785522,48.8872375488
2018/12/16/17:23:06.865057,109788,2410,726300000,mti/data,30.6278038025,-96.4820785522,48.8871536255
2018/12/16/17:23:06.875196,109789,2410,736300000,mti/data,30.6278038025,-96.4820785522,48.8870697021
2018/12/16/17:23:06.885118,109790,2410,746300000,mti/data,30.6278038025,-96.4820785522,48.8867149353
2018/12/16/17:23:06.895070,109791,2410,756300000,mti/data,30.6278038025,-96.4820785522,48.8918075562
2018/12/16/17:23:06.905067,109792,2410,766300000,mti/data,30.6278057098,-96.4820785522,48.8971252441
2018/12/16/17:23:06.915236,109793,2410,776300000,mti/data,30.6278057098,-96.4820785522,48.8970184326
2018/12/16/17:23:06.925227,109794,2410,786300000,mti/data,30.6278057098,-96.4820785522,48.8962364197
2018/12/16/17:23:06.935235,109795,2410,796300000,mti/data,30.6278057098,-96.4820785522,48.8954620361
2018/12/16/17:23:06.945056,109796,2410,806300000,mti/data,30.6278076172,-96.4820785522,48.8945007324
2018/12/16/17:23:06.955127,109797,2410,816300000,mti/data,30.6278076172,-96.4820785522,48.8935928345
2018/12/16/17:23:06.965486,109798,2410,826300000,mti/data,30.6278076172,-96.4820785522,48.8931694031
2018/12/16/17:23:06.975113,109799,2410,836300000,mti/data,30.6278076172,-96.4820785522,48.8927383423
2018/12/16/17:23:06.985106,109800,2410,846300000,mti/data,30.6278095245,-96.4820785522,48.8927764893
2018/12/16/17:23:06.995119,109801,2410,856300000,mti/data,30.6278095245,-96.4820785522,48.892829895
2018/12/16/17:23:07.005056,109802,2410,866300000,mti/data,30.6278095245,-96.4820785522,48.8929252625
2018/12/16/17:23:07.015198,109803,2410,876300000,mti/data,30.6278095245,-96.4820785522,48.8930282593
2018/12/16/17:23:07.025126,109804,2410,886300000,mti/data,30.6278114319,-96.4820785522,48.89220047
2018/12/16/17:23:07.035277,109805,2410,896300000,mti/data,30.6278114319,-96.4820785522,48.8913955688
2018/12/16/17:23:07.045142,109806,2410,906300000,mti/data,30.6278114319,-96.4820785522,48.8903465271
2018/12/16/17:23:07.055320,109807,2410,916300000,mti/data,30.6278114319,-96.4820785522,48.8892669678
2018/12/16/17:23:07.065033,109808,2410,926300000,mti/data,30.6278133392,-96.4820785522,48.8883934021
2018/12/16/17:23:07.074996,109809,2410,936300000,mti/data,30.6278133392,-96.4820785522,48.887550354
2018/12/16/17:23:07.085192,109810,2410,946300000,mti/data,30.6278133392,-96.4820785522,48.8874168396
2018/12/16/17:23:07.095088,109811,2410,956300000,mti/data,30.6278133392,-96.4820785522,48.8872528076
2018/12/16/17:23:07.105324,109812,2410,966300000,mti/data,30.6278152466,-96.4820785522,48.8863601685
2018/12/16/17:23:07.115170,109813,2410,976300000,mti/data,30.6278152466,-96.4820785522,48.8854598999
2018/12/16/17:23:07.125178,109814,2410,986300000,mti/data,30.6278152466,-96.4820785522,48.8852500916
2018/12/16/17:23:07.135043,109815,2410,996300000,mti/data,30.6278152466,-96.4820785522,48.8850135803
2018/12/16/17:23:07.145007,109816,2411,6300000,mti/data,30.6278171539,-96.4820785522,48.8897247314
2018/12/16/17:23:07.155439,109817,2411,16300000,mti/data,30.6278171539,-96.4820785522,48.8939208984
2018/12/16/17:23:07.165138,109818,2411,26300000,mti/data,30.6278171539,-96.4820785522,48.8931922913
2018/12/16/17:23:07.175127,109819,2411,36300000,mti/data,30.6278171539,-96.4820785522,48.8929672241
2018/12/16/17:23:07.185240,109820,2411,46300000,mti/data,30.6278190613,-96.4820785522,48.8924942017
2018/12/16/17:23:07.195349,109821,2411,56300000,mti/data,30.6278190613,-96.4820785522,48.8920440674
2018/12/16/17:23:07.205169,109822,2411,66300000,mti/data,30.6278190613,-96.4820785522,48.8911552429
2018/12/16/17:23:07.215093,109823,2411,76300000,mti/data,30.6278190613,-96.4820785522,48.8902702332
2018/12/16/17:23:07.225330,109824,2411,86300000,mti/data,30.6278209686,-96.4820785522,48.8891639709
2018/12/16/17:23:07.235103,109825,2411,96300000,mti/data,30.6278209686,-96.4820785522,48.8880691528
2018/12/16/17:23:07.245175,109826,2411,106300000,mti/data,30.6278209686,-96.4820785522,48.8878936768
2018/12/16/17:23:07.255173,109827,2411,116300000,mti/data,30.6278209686,-96.4820785522,48.8877372742
2018/12/16/17:23:07.265415,109828,2411,126300000,mti/data,30.627822876,-96.4820785522,48.8869171143
2018/12/16/17:23:07.275205,109829,2411,136300000,mti/data,30.627822876,-96.4820785522,48.8860969543
2018/12/16/17:23:07.285104,109830,2411,146300000,mti/data,30.627822876,-96.4820785522,48.8864402771
2018/12/16/17:23:07.295000,109831,2411,156300000,mti/data,30.627822876,-96.4820785522,48.8867912292
2018/12/16/17:23:07.305162,109832,2411,166300000,mti/data,30.6278247833,-96.4820785522,48.8864135742
2018/12/16/17:23:07.315205,109833,2411,176300000,mti/data,30.6278247833,-96.4820785522,48.8860397339
2018/12/16/17:23:07.325129,109834,2411,186300000,mti/data,30.6278247833,-96.4820785522,48.8859138489
2018/12/16/17:23:07.335166,109835,2411,196300000,mti/data,30.6278247833,-96.4820785522,48.885799408
2018/12/16/17:23:07.345114,109836,2411,206300000,mti/data,30.6278266907,-96.4820785522,48.8857078552
2018/12/16/17:23:07.355020,109837,2411,216300000,mti/data,30.6278266907,-96.4820785522,48.8856010437
2018/12/16/17:23:07.365168,109838,2411,226300000,mti/data,30.6278266907,-96.4820785522,48.8861885071
2018/12/16/17:23:07.375149,109839,2411,236300000,mti/data,30.6278266907,-96.4820785522,48.8868026733
2018/12/16/17:23:07.385229,109840,2411,246300000,mti/data,30.627828598,-96.4820785522,48.8874435425
2018/12/16/17:23:07.395253,109841,2411,256300000,mti/data,30.627828598,-96.4820785522,48.8881149292
2018/12/16/17:23:07.405134,109842,2411,266300000,mti/data,30.627828598,-96.4820785522,48.8894958496
2018/12/16/17:23:07.415184,109843,2411,276300000,mti/data,30.6278305054,-96.4820785522,48.8908882141
2018/12/16/17:23:07.425166,109844,2411,286300000,mti/data,30.6278305054,-96.4820785522,48.8908042908
2018/12/16/17:23:07.435144,109845,2411,296300000,mti/data,30.6278305054,-96.4820785522,48.8905677795
2018/12/16/17:23:07.445268,109846,2411,306300000,mti/data,30.6278305054,-96.4820785522,48.8902931213
2018/12/16/17:23:07.455131,109847,2411,316300000,mti/data,30.6278324127,-96.4820785522,48.8900108337
2018/12/16/17:23:07.465155,109848,2411,326300000,mti/data,30.6278324127,-96.4820785522,48.8897094727
2018/12/16/17:23:07.475136,109849,2411,336300000,mti/data,30.6278324127,-96.4820785522,48.8893890381
2018/12/16/17:23:07.485187,109850,2411,346300000,mti/data,30.6278324127,-96.4820785522,48.8890342712
2018/12/16/17:23:07.495124,109851,2411,356300000,mti/data,30.6278343201,-96.4820785522,48.8886642456
2018/12/16/17:23:07.505285,109852,2411,366300000,mti/data,30.6278343201,-96.4820785522,48.8878517151
2018/12/16/17:23:07.515030,109853,2411,376300000,mti/data,30.6278343201,-96.4820785522,48.8870315552
2018/12/16/17:23:07.525096,109854,2411,386300000,mti/data,30.6278343201,-96.4820785522,48.8868751526
2018/12/16/17:23:07.535199,109855,2411,396300000,mti/data,30.6278362274,-96.4820785522,48.8867034912
2018/12/16/17:23:07.545177,109856,2411,406300000,mti/data,30.6278362274,-96.4820785522,48.8858451843
2018/12/16/17:23:07.555091,109857,2411,416300000,mti/data,30.6278362274,-96.4820785522,48.8849716187
2018/12/16/17:23:07.565112,109858,2411,426300000,mti/data,30.6278362274,-96.4820785522,48.884059906
2018/12/16/17:23:07.575153,109859,2411,436300000,mti/data,30.6278381348,-96.4820785522,48.8831291199
2018/12/16/17:23:07.585179,109860,2411,446300000,mti/data,30.6278381348,-96.4820785522,48.8829307556
2018/12/16/17:23:07.595107,109861,2411,456300000,mti/data,30.6278381348,-96.4820785522,48.8827552795
2018/12/16/17:23:07.605089,109862,2411,466300000,mti/data,30.6278381348,-96.4820785522,48.8813896179
2018/12/16/17:23:07.615325,109863,2411,476300000,mti/data,30.6278400421,-96.4820785522,48.8800239563
2018/12/16/17:23:07.625132,109864,2411,486300000,mti/data,30.6278400421,-96.4820785522,48.8791503906
2018/12/16/17:23:07.635135,109865,2411,496300000,mti/data,30.6278400421,-96.4820785522,48.8782920837
2018/12/16/17:23:07.645200,109866,2411,506300000,mti/data,30.6278400421,-96.4820785522,48.8774757385
2018/12/16/17:23:07.655231,109867,2411,516300000,mti/data,30.6278419495,-96.4820785522,48.8800926208
2018/12/16/17:23:07.665198,109868,2411,526300000,mti/data,30.6278419495,-96.4820785522,48.883190155
2018/12/16/17:23:07.675125,109869,2411,536300000,mti/data,30.6278419495,-96.4820785522,48.8828544617
2018/12/16/17:23:07.685283,109870,2411,546300000,mti/data,30.6278438568,-96.4820785522,48.882522583
2018/12/16/17:23:07.695089,109871,2411,556300000,mti/data,30.6278438568,-96.4820785522,48.8822174072
2018/12/16/17:23:07.704972,109872,2411,566300000,mti/data,30.6278438568,-96.4820785522,48.882850647
2018/12/16/17:23:07.715177,109873,2411,576300000,mti/data,30.6278438568,-96.4820785522,48.883518219
2018/12/16/17:23:07.725129,109874,2411,586300000,mti/data,30.6278457642,-96.4820785522,48.8835372925
2018/12/16/17:23:07.735178,109875,2411,596300000,mti/data,30.6278457642,-96.4820785522,48.8836021423
2018/12/16/17:23:07.747142,109876,2411,606300000,mti/data,30.6278457642,-96.4820785522,48.8834877014
2018/12/16/17:23:07.755226,109877,2411,616300000,mti/data,30.6278457642,-96.4820785522,48.8834037781
2018/12/16/17:23:07.765275,109878,2411,626300000,mti/data,30.6278476715,-96.4820785522,48.8840522766
2018/12/16/17:23:07.775124,109879,2411,636300000,mti/data,30.6278476715,-96.4820785522,48.8847236633
2018/12/16/17:23:07.785085,109880,2411,646300000,mti/data,30.6278476715,-96.4820785522,48.8851966858
2018/12/16/17:23:07.795169,109881,2411,656300000,mti/data,30.6278476715,-96.4820785522,48.8857040405
2018/12/16/17:23:07.805367,109882,2411,666300000,mti/data,30.6278495789,-96.4820785522,48.8859634399
2018/12/16/17:23:07.815143,109883,2411,676300000,mti/data,30.6278495789,-96.4820785522,48.8861923218
2018/12/16/17:23:07.825247,109884,2411,686300000,mti/data,30.6278495789,-96.4820785522,48.8857040405
2018/12/16/17:23:07.835454,109885,2411,696300000,mti/data,30.6278495789,-96.4820785522,48.8851737976
2018/12/16/17:23:07.845508,109886,2411,706300000,mti/data,30.6278514862,-96.4820785522,48.8850364685
2018/12/16/17:23:07.855242,109887,2411,716300000,mti/data,30.6278514862,-96.4820785522,48.8848609924
2018/12/16/17:23:07.865207,109888,2411,726300000,mti/data,30.6278514862,-96.4820785522,48.8842315674
2018/12/16/17:23:07.875239,109889,2411,736300000,mti/data,30.6278533936,-96.4820785522,48.8837280273
2018/12/16/17:23:07.885418,109890,2411,746300000,mti/data,30.6278533936,-96.4820785522,48.8834838867
2018/12/16/17:23:07.895274,109891,2411,756300000,mti/data,30.6278533936,-96.4820785522,48.8845405579
2018/12/16/17:23:07.905138,109892,2411,766300000,mti/data,30.6278533936,-96.4820785522,48.8856925964
2018/12/16/17:23:07.915136,109893,2411,776300000,mti/data,30.6278553009,-96.4820785522,48.8854370117
2018/12/16/17:23:07.925084,109894,2411,786300000,mti/data,30.6278553009,-96.4820785522,48.8851966858
2018/12/16/17:23:07.935313,109895,2411,796300000,mti/data,30.6278553009,-96.4820785522,48.8849258423
2018/12/16/17:23:07.945224,109896,2411,806300000,mti/data,30.6278553009,-96.4820785522,48.8846473694
2018/12/16/17:23:07.955133,109897,2411,816300000,mti/data,30.6278572083,-96.4820785522,48.8843574524
2018/12/16/17:23:07.965503,109898,2411,826300000,mti/data,30.6278572083,-96.4820785522,48.8842658997
2018/12/16/17:23:07.975214,109899,2411,836300000,mti/data,30.6278572083,-96.4820785522,48.884147644
2018/12/16/17:23:07.995836,109900,2411,846300000,mti/data,30.6278572083,-96.4820785522,48.8842391968
2018/12/16/17:23:07.996445,109901,2411,856300000,mti/data,30.6278591156,-96.4820785522,48.8842811584
2018/12/16/17:23:08.005191,109902,2411,866300000,mti/data,30.6278591156,-96.4820785522,48.8834037781
2018/12/16/17:23:08.015234,109903,2411,876300000,mti/data,30.6278591156,-96.4820785522,48.8825073242
2018/12/16/17:23:08.025167,109904,2411,886300000,mti/data,30.6278610229,-96.4820785522,48.8825340271
2018/12/16/17:23:08.035342,109905,2411,896300000,mti/data,30.6278610229,-96.4820785522,48.8825759888
2018/12/16/17:23:08.045369,109906,2411,906300000,mti/data,30.6278610229,-96.4820785522,48.8826522827
2018/12/16/17:23:08.055270,109907,2411,916300000,mti/data,30.6278610229,-96.4820785522,48.8827552795
2018/12/16/17:23:08.065785,109908,2411,926300000,mti/data,30.6278629303,-96.4820785522,48.8824310303
2018/12/16/17:23:08.075253,109909,2411,936300000,mti/data,30.6278629303,-96.4820785522,48.8821563721
2018/12/16/17:23:08.085232,109910,2411,946300000,mti/data,30.6278629303,-96.4820785522,48.8823699951
2018/12/16/17:23:08.095085,109911,2411,956300000,mti/data,30.6278629303,-96.4820785522,48.8826065063
2018/12/16/17:23:08.105310,109912,2411,966300000,mti/data,30.6278648376,-96.4820785522,48.882610321
2018/12/16/17:23:08.115543,109913,2411,976300000,mti/data,30.6278648376,-96.4820785522,48.8826141357
2018/12/16/17:23:08.125221,109914,2411,986300000,mti/data,30.6278648376,-96.4820785522,48.8821563721
2018/12/16/17:23:08.135184,109915,2411,996300000,mti/data,30.6278648376,-96.4820785522,48.8817176819
2018/12/16/17:23:08.148143,109916,2412,6300000,mti/data,30.627866745,-96.4820785522,48.881778717
2018/12/16/17:23:08.155195,109917,2412,16300000,mti/data,30.627866745,-96.4820785522,48.8835906982
2018/12/16/17:23:08.165272,109918,2412,26300000,mti/data,30.627866745,-96.4820785522,48.885799408
2018/12/16/17:23:08.175192,109919,2412,36300000,mti/data,30.6278686523,-96.4820785522,48.88621521
2018/12/16/17:23:08.185144,109920,2412,46300000,mti/data,30.6278686523,-96.4820785522,48.8863983154
2018/12/16/17:23:08.195215,109921,2412,56300000,mti/data,30.6278686523,-96.4820785522,48.8865852356
2018/12/16/17:23:08.205364,109922,2412,66300000,mti/data,30.6278686523,-96.4820785522,48.8863258362
2018/12/16/17:23:08.215528,109923,2412,76300000,mti/data,30.6278705597,-96.4820785522,48.8860778809
2018/12/16/17:23:08.225442,109924,2412,86300000,mti/data,30.6278705597,-96.4820785522,48.8856201172
2018/12/16/17:23:08.235227,109925,2412,96300000,mti/data,30.6278705597,-96.4820785522,48.8851623535
2018/12/16/17:23:08.245601,109926,2412,106300000,mti/data,30.6278705597,-96.4820785522,48.8844451904
2018/12/16/17:23:08.255283,109927,2412,116300000,mti/data,30.627872467,-96.4820785522,48.8837051392
2018/12/16/17:23:08.265498,109928,2412,126300000,mti/data,30.627872467,-96.4820785522,48.8825187683
2018/12/16/17:23:08.275267,109929,2412,136300000,mti/data,30.627872467,-96.4820785522,48.8813476562
2018/12/16/17:23:08.285468,109930,2412,146300000,mti/data,30.627872467,-96.4820785522,48.8810997009
2018/12/16/17:23:08.295203,109931,2412,156300000,mti/data,30.6278743744,-96.4820785522,48.8808441162
2018/12/16/17:23:08.305600,109932,2412,166300000,mti/data,30.6278743744,-96.4820785522,48.8801422119
2018/12/16/17:23:08.315332,109933,2412,176300000,mti/data,30.6278743744,-96.4820785522,48.8794250488
2018/12/16/17:23:08.325563,109934,2412,186300000,mti/data,30.6278762817,-96.4820785522,48.8782577515
2018/12/16/17:23:08.335217,109935,2412,196300000,mti/data,30.6278762817,-96.4820785522,48.8770904541
2018/12/16/17:23:08.345432,109936,2412,206300000,mti/data,30.6278762817,-96.4820785522,48.8768577576
2018/12/16/17:23:08.355075,109937,2412,216300000,mti/data,30.6278762817,-96.4820785522,48.8766212463
2018/12/16/17:23:08.366004,109938,2412,226300000,mti/data,30.6278781891,-96.4820785522,48.8756942749
2018/12/16/17:23:08.375286,109939,2412,236300000,mti/data,30.6278781891,-96.4820785522,48.8747673035
2018/12/16/17:23:08.385278,109940,2412,246300000,mti/data,30.6278781891,-96.4820785522,48.873840332
2018/12/16/17:23:08.395375,109941,2412,256300000,mti/data,30.6278781891,-96.4820785522,48.8739280701
2018/12/16/17:23:08.407663,109942,2412,266300000,mti/data,30.6278800964,-96.4820785522,48.8746910095
2018/12/16/17:23:08.415248,109943,2412,276300000,mti/data,30.6278800964,-96.4820785522,48.8744277954
2018/12/16/17:23:08.425207,109944,2412,286300000,mti/data,30.6278800964,-96.4820785522,48.8739204407
2018/12/16/17:23:08.435253,109945,2412,296300000,mti/data,30.6278820038,-96.4820785522,48.8733940125
2018/12/16/17:23:08.445613,109946,2412,306300000,mti/data,30.6278820038,-96.4820785522,48.8728599548
2018/12/16/17:23:08.455221,109947,2412,316300000,mti/data,30.6278820038,-96.4820785522,48.8723106384
2018/12/16/17:23:08.465625,109948,2412,326300000,mti/data,30.6278820038,-96.4820785522,48.8721923828
2018/12/16/17:23:08.475255,109949,2412,336300000,mti/data,30.6278839111,-96.4820785522,48.872089386
2018/12/16/17:23:08.485378,109950,2412,346300000,mti/data,30.6278839111,-96.4820785522,48.8719825745
2018/12/16/17:23:08.495347,109951,2412,356300000,mti/data,30.6278839111,-96.4820785522,48.8718948364
2018/12/16/17:23:08.505195,109952,2412,366300000,mti/data,30.6278839111,-96.4820785522,48.8718147278
2018/12/16/17:23:08.515371,109953,2412,376300000,mti/data,30.6278858185,-96.4820785522,48.8717193604
2018/12/16/17:23:08.525319,109954,2412,386300000,mti/data,30.6278858185,-96.4820785522,48.8714027405
2018/12/16/17:23:08.535233,109955,2412,396300000,mti/data,30.6278858185,-96.4820785522,48.8710632324
2018/12/16/17:23:08.545308,109956,2412,406300000,mti/data,30.6278858185,-96.4820785522,48.8707351685
2018/12/16/17:23:08.555172,109957,2412,416300000,mti/data,30.6278877258,-96.4820785522,48.8703918457
2018/12/16/17:23:08.565323,109958,2412,426300000,mti/data,30.6278877258,-96.4820785522,48.8700294495
2018/12/16/17:23:08.575309,109959,2412,436300000,mti/data,30.6278877258,-96.4820785522,48.8696250916
2018/12/16/17:23:08.585351,109960,2412,446300000,mti/data,30.6278877258,-96.4820785522,48.8687210083
2018/12/16/17:23:08.595190,109961,2412,456300000,mti/data,30.6278896332,-96.4820785522,48.8678092957
2018/12/16/17:23:08.605407,109962,2412,466300000,mti/data,30.6278896332,-96.4820785522,48.8664169312
2018/12/16/17:23:08.615275,109963,2412,476300000,mti/data,30.6278896332,-96.4820785522,48.8650093079
2018/12/16/17:23:08.625259,109964,2412,486300000,mti/data,30.6278915405,-96.4820785522,48.8635864258
2018/12/16/17:23:08.635334,109965,2412,496300000,mti/data,30.6278915405,-96.4820785522,48.8621788025
2018/12/16/17:23:08.640759,109966,2412,506300000,mti/data,30.6278915405,-96.4820785522,48.861240387
2018/12/16/17:23:08.655218,109967,2412,516300000,mti/data,30.6278915405,-96.4820785522,48.8640022278
2018/12/16/17:23:08.665349,109968,2412,526300000,mti/data,30.6278934479,-96.4820785522,48.8670921326
2018/12/16/17:23:08.675359,109969,2412,536300000,mti/data,30.6278934479,-96.4820785522,48.8665351868
2018/12/16/17:23:08.680404,109970,2412,546300000,mti/data,30.6278934479,-96.4820785522,48.8655586243
2018/12/16/17:23:08.694250,109971,2412,556300000,mti/data,30.6278934479,-96.4820785522,48.8646087646
2018/12/16/17:23:08.704212,109972,2412,566300000,mti/data,30.6278953552,-96.4820785522,48.8643379211
2018/12/16/17:23:08.714232,109973,2412,576300000,mti/data,30.6278953552,-96.4820785522,48.8640899658
2018/12/16/17:23:08.724267,109974,2412,586300000,mti/data,30.6278953552,-96.4820785522,48.8634223938
2018/12/16/17:23:08.734257,109975,2412,596300000,mti/data,30.6278972626,-96.4820785522,48.8627891541
2018/12/16/17:23:08.744195,109976,2412,606300000,mti/data,30.6278972626,-96.4820785522,48.8626480103
2018/12/16/17:23:08.754206,109977,2412,616300000,mti/data,30.6278972626,-96.4820785522,48.8625526428
2018/12/16/17:23:08.764390,109978,2412,626300000,mti/data,30.6278972626,-96.4820785522,48.861366272
2018/12/16/17:23:08.774264,109979,2412,636300000,mti/data,30.6278991699,-96.4820785522,48.8601951599
2018/12/16/17:23:08.784236,109980,2412,646300000,mti/data,30.6278991699,-96.4820785522,48.8592453003
2018/12/16/17:23:08.794163,109981,2412,656300000,mti/data,30.6278991699,-96.4820785522,48.858291626
2018/12/16/17:23:08.804572,109982,2412,666300000,mti/data,30.6278991699,-96.4820785522,48.8573188782
2018/12/16/17:23:08.814178,109983,2412,676300000,mti/data,30.6279010773,-96.4820785522,48.8563461304
2018/12/16/17:23:08.824205,109984,2412,686300000,mti/data,30.6279010773,-96.4820785522,48.8553733826
2018/12/16/17:23:08.834548,109985,2412,696300000,mti/data,30.6279010773,-96.4820785522,48.854385376
2018/12/16/17:23:08.844332,109986,2412,706300000,mti/data,30.6279010773,-96.4820785522,48.8533859253
2018/12/16/17:23:08.854244,109987,2412,716300000,mti/data,30.6279029846,-96.4820785522,48.852394104
2018/12/16/17:23:08.864201,109988,2412,726300000,mti/data,30.6279029846,-96.4820785522,48.850933075
2018/12/16/17:23:08.875342,109989,2412,736300000,mti/data,30.6279029846,-96.4820785522,48.8494911194
2018/12/16/17:23:08.880420,109990,2412,746300000,mti/data,30.627904892,-96.4820785522,48.8492622375
2018/12/16/17:23:08.894246,109991,2412,756300000,mti/data,30.627904892,-96.4820785522,48.847869873
2018/12/16/17:23:08.904219,109992,2412,766300000,mti/data,30.627904892,-96.4820785522,48.8470726013
2018/12/16/17:23:08.914186,109993,2412,776300000,mti/data,30.627904892,-96.4820785522,48.8473930359
2018/12/16/17:23:08.924183,109994,2412,786300000,mti/data,30.6279067993,-96.4820785522,48.8463821411
2018/12/16/17:23:08.934219,109995,2412,796300000,mti/data,30.6279067993,-96.4820785522,48.8453941345
2018/12/16/17:23:08.944298,109996,2412,806300000,mti/data,30.6279067993,-96.4820785522,48.8451423645
2018/12/16/17:23:08.954226,109997,2412,816300000,mti/data,30.6279067993,-96.4820785522,48.8448905945
2018/12/16/17:23:08.964224,109998,2412,826300000,mti/data,30.6279087067,-96.4820785522,48.8443908691
2018/12/16/17:23:08.974237,109999,2412,836300000,mti/data,30.6279087067,-96.4820785522,48.8438835144
2018/12/16/17:23:08.984238,110000,2412,846300000,mti/data,30.6279087067,-96.4820785522,48.8446769714
2018/12/16/17:23:08.994204,110001,2412,856300000,mti/data,30.627910614,-96.4820785522,48.8454437256
2018/12/16/17:23:09.004246,110002,2412,866300000,mti/data,30.627910614,-96.4820785522,48.8447990417
2018/12/16/17:23:09.014190,110003,2412,876300000,mti/data,30.627910614,-96.4820785522,48.8441390991
2018/12/16/17:23:09.024474,110004,2412,886300000,mti/data,30.627910614,-96.4820785522,48.8436355591
2018/12/16/17:23:09.034219,110005,2412,896300000,mti/data,30.6279125214,-96.4820785522,48.8430747986
2018/12/16/17:23:09.044261,110006,2412,906300000,mti/data,30.6279125214,-96.4820785522,48.8420028687
2018/12/16/17:23:09.054251,110007,2412,916300000,mti/data,30.6279125214,-96.4820785522,48.8409004211
2018/12/16/17:23:09.064279,110008,2412,926300000,mti/data,30.6279125214,-96.4820785522,48.8399353027
2018/12/16/17:23:09.074309,110009,2412,936300000,mti/data,30.6279144287,-96.4820785522,48.8389015198
2018/12/16/17:23:09.084359,110010,2412,946300000,mti/data,30.6279144287,-96.4820785522,48.8376426697
2018/12/16/17:23:09.094225,110011,2412,956300000,mti/data,30.6279144287,-96.4820785522,48.8363952637
2018/12/16/17:23:09.104322,110012,2412,966300000,mti/data,30.6279144287,-96.4820785522,48.8358650208
2018/12/16/17:23:09.114200,110013,2412,976300000,mti/data,30.6279163361,-96.4820785522,48.8353347778
2018/12/16/17:23:09.124338,110014,2412,986300000,mti/data,30.6279163361,-96.4820785522,48.8338851929
2018/12/16/17:23:09.134304,110015,2412,996300000,mti/data,30.6279163361,-96.4820785522,48.8324165344
2018/12/16/17:23:09.144255,110016,2413,6300000,mti/data,30.6279163361,-96.4820785522,48.8321723938
2018/12/16/17:23:09.154321,110017,2413,16300000,mti/data,30.6279182434,-96.4820785522,48.835723877
2018/12/16/17:23:09.164315,110018,2413,26300000,mti/data,30.6279182434,-96.4820785522,48.8389015198
2018/12/16/17:23:09.174229,110019,2413,36300000,mti/data,30.6279182434,-96.4820785522,48.8383712769
2018/12/16/17:23:09.184438,110020,2413,46300000,mti/data,30.6279201508,-96.4820785522,48.8378562927
2018/12/16/17:23:09.194286,110021,2413,56300000,mti/data,30.6279201508,-96.4820785522,48.837348938
2018/12/16/17:23:09.204347,110022,2413,66300000,mti/data,30.6279201508,-96.4820785522,48.8373069763
2018/12/16/17:23:09.214254,110023,2413,76300000,mti/data,30.6279201508,-96.4820785522,48.8372917175
2018/12/16/17:23:09.224309,110024,2413,86300000,mti/data,30.6279220581,-96.4820785522,48.8368492126
2018/12/16/17:23:09.234154,110025,2413,96300000,mti/data,30.6279220581,-96.4820785522,48.8364448547
2018/12/16/17:23:09.244338,110026,2413,106300000,mti/data,30.6279220581,-96.4820785522,48.835395813
2018/12/16/17:23:09.254402,110027,2413,116300000,mti/data,30.6279220581,-96.4820785522,48.83436203
2018/12/16/17:23:09.264240,110028,2413,126300000,mti/data,30.6279239655,-96.4820785522,48.8328666687
2018/12/16/17:23:09.274312,110029,2413,136300000,mti/data,30.6279239655,-96.4820785522,48.8313980103
2018/12/16/17:23:09.284288,110030,2413,146300000,mti/data,30.6279239655,-96.4820785522,48.8299674988
2018/12/16/17:23:09.294399,110031,2413,156300000,mti/data,30.6279258728,-96.4820785522,48.8285903931
2018/12/16/17:23:09.304458,110032,2413,166300000,mti/data,30.6279258728,-96.4820785522,48.8278999329
2018/12/16/17:23:09.314286,110033,2413,176300000,mti/data,30.6279258728,-96.4820785522,48.8271980286
2018/12/16/17:23:09.324264,110034,2413,186300000,mti/data,30.6279258728,-96.4820785522,48.8271980286
2018/12/16/17:23:09.334182,110035,2413,196300000,mti/data,30.6279277802,-96.4820785522,48.8272132874
2018/12/16/17:23:09.344271,110036,2413,206300000,mti/data,30.6279277802,-96.4820785522,48.8267440796
2018/12/16/17:23:09.354256,110037,2413,216300000,mti/data,30.6279277802,-96.4820785522,48.8262634277
2018/12/16/17:23:09.364241,110038,2413,226300000,mti/data,30.6279277802,-96.4820785522,48.8252983093
2018/12/16/17:23:09.374310,110039,2413,236300000,mti/data,30.6279296875,-96.4820785522,48.8243217468
2018/12/16/17:23:09.384273,110040,2413,246300000,mti/data,30.6279296875,-96.4820785522,48.8245010376
2018/12/16/17:23:09.394211,110041,2413,256300000,mti/data,30.6279296875,-96.4820785522,48.8246688843
2018/12/16/17:23:09.404342,110042,2413,266300000,mti/data,30.6279296875,-96.4820785522,48.8240127563
2018/12/16/17:23:09.414217,110043,2413,276300000,mti/data,30.6279315948,-96.4820785522,48.8230056763
2018/12/16/17:23:09.424284,110044,2413,286300000,mti/data,30.6279315948,-96.4820785522,48.8223762512
2018/12/16/17:23:09.434304,110045,2413,296300000,mti/data,30.6279315948,-96.4820785522,48.8219909668
2018/12/16/17:23:09.444289,110046,2413,306300000,mti/data,30.6279335022,-96.4820785522,48.8216285706
2018/12/16/17:23:09.454325,110047,2413,316300000,mti/data,30.6279335022,-96.4820785522,48.8212623596
2018/12/16/17:23:09.464579,110048,2413,326300000,mti/data,30.6279335022,-96.4820785522,48.8218231201
2018/12/16/17:23:09.474336,110049,2413,336300000,mti/data,30.6279335022,-96.4820785522,48.8224105835
2018/12/16/17:23:09.484341,110050,2413,346300000,mti/data,30.6279354095,-96.4820785522,48.8220672607
2018/12/16/17:23:09.494253,110051,2413,356300000,mti/data,30.6279354095,-96.4820785522,48.8217163086
2018/12/16/17:23:09.504345,110052,2413,366300000,mti/data,30.6279354095,-96.4820785522,48.8213729858
2018/12/16/17:23:09.514280,110053,2413,376300000,mti/data,30.6279354095,-96.4820785522,48.8210487366
2018/12/16/17:23:09.524343,110054,2413,386300000,mti/data,30.6279373169,-96.4820785522,48.8202781677
2018/12/16/17:23:09.534292,110055,2413,396300000,mti/data,30.6279373169,-96.4820785522,48.8195152283
2018/12/16/17:23:09.544459,110056,2413,406300000,mti/data,30.6279373169,-96.4820785522,48.8189926147
2018/12/16/17:23:09.554276,110057,2413,416300000,mti/data,30.6279373169,-96.4820785522,48.8184700012
2018/12/16/17:23:09.564304,110058,2413,426300000,mti/data,30.6279392242,-96.4820785522,48.8181381226
2018/12/16/17:23:09.574327,110059,2413,436300000,mti/data,30.6279392242,-96.4820785522,48.8178443909
2018/12/16/17:23:09.584416,110060,2413,446300000,mti/data,30.6279392242,-96.4820785522,48.8169021606
2018/12/16/17:23:09.594340,110061,2413,456300000,mti/data,30.6279392242,-96.4820785522,48.8159484863
2018/12/16/17:23:09.604270,110062,2413,466300000,mti/data,30.6279411316,-96.4820785522,48.8147087097
2018/12/16/17:23:09.614233,110063,2413,476300000,mti/data,30.6279411316,-96.4820785522,48.8134346008
2018/12/16/17:23:09.624344,110064,2413,486300000,mti/data,30.6279411316,-96.4820785522,48.8124237061
2018/12/16/17:23:09.634631,110065,2413,496300000,mti/data,30.6279411316,-96.4820785522,48.8114395142
2018/12/16/17:23:09.644247,110066,2413,506300000,mti/data,30.6279430389,-96.4820785522,48.8101997375
2018/12/16/17:23:09.654277,110067,2413,516300000,mti/data,30.6279430389,-96.4820785522,48.8093948364
2018/12/16/17:23:09.664308,110068,2413,526300000,mti/data,30.6279430389,-96.4820785522,48.8100013733
2018/12/16/17:23:09.674328,110069,2413,536300000,mti/data,30.6279449463,-96.4820785522,48.8101348877
2018/12/16/17:23:09.684290,110070,2413,546300000,mti/data,30.6279449463,-96.4820785522,48.8095703125
2018/12/16/17:23:09.694221,110071,2413,556300000,mti/data,30.6279449463,-96.4820785522,48.808971405
2018/12/16/17:23:09.704350,110072,2413,566300000,mti/data,30.6279449463,-96.4820785522,48.808795929
