time,.header.seq,.header.stamp.secs,.header.stamp.nsecs,.header.frame_id,.status.status,.status.service,.latitude,.longitude,.altitude,.position_covariance,.position_covariance_type
2018/12/16/17:23:04.045019,109483,1545002584,44826030,imu_link,0,1,30.6276779175,-96.4820785522,48.9679374695,"(1.0, 0.0, 0.0, 0.0, 1.0, 0.0, 0.0, 0.0, 0.0001)",0
2018/12/16/17:23:04.055190,109484,1545002584,54959058,imu_link,0,1,30.6276798248,-96.4820785522,48.9669532776,"(1.0, 0.0, 0.0, 0.0, 1.0, 0.0, 0.0, 0.0, 0.0001)",0
2018/12/16/17:23:04.064943,109485,1545002584,64766883,imu_link,0,1,30.6276798248,-96.4820785522,48.9666595459,"(1.0, 0.0, 0.0, 0.0, 1.0, 0.0, 0.0, 0.0, 0.0001)",0
2018/12/16/17:23:04.074974,109486,1545002584,74749946,imu_link,0,1,30.6276798248,-96.4820785522,48.9663543701,"(1.0, 0.0, 0.0, 0.0, 1.0, 0.0, 0.0, 0.0, 0.0001)",0
2018/12/16/17:23:04.085057,109487,1545002584,84863901,imu_link,0,1,30.6276798248,-96.4820785522,48.9648132324,"(1.0, 0.0, 0.0, 0.0, 1.0, 0.0, 0.0, 0.0, 0.0001)",0
2018/12/16/17:23:04.095016,109488,1545002584,94783067,imu_link,0,1,30.6276817322,-96.4820785522,48.9632339478,"(1.0, 0.0, 0.0, 0.0, 1.0, 0.0, 0.0, 0.0, 0.0001)",0
2018/12/16/17:23:04.105131,109489,1545002584,104944944,imu_link,0,1,30.6276817322,-96.4820785522,48.9618759155,"(1.0, 0.0, 0.0, 0.0, 1.0, 0.0, 0.0, 0.0, 0.0001)",0
2018/12/16/17:23:04.115591,109490,1545002584,115364074,imu_link,0,1,30.6276817322,-96.4820785522,48.9605293274,"(1.0, 0.0, 0.0, 0.0, 1.0, 0.0, 0.0, 0.0, 0.0001)",0
2018/12/16/17:23:04.124992,109491,1545002584,124809026,imu_link,0,1,30.6276817322,-96.4820785522,48.9597091675,"(1.0, 0.0, 0.0, 0.0, 1.0, 0.0, 0.0, 0.0, 0.0001)",0
2018/12/16/17:23:04.135151,109492,1545002584,134953975,imu_link,0,1,30.6276817322,-96.4820785522,48.9589271545,"(1.0, 0.0, 0.0, 0.0, 1.0, 0.0, 0.0, 0.0, 0.0001)",0
2018/12/16/17:23:04.145045,109493,1545002584,144845962,imu_link,0,1,30.6276836395,-96.4820785522,48.9574317932,"(1.0, 0.0, 0.0, 0.0, 1.0, 0.0, 0.0, 0.0, 0.0001)",0
2018/12/16/17:23:04.155282,109494,1545002584,154901981,imu_link,0,1,30.6276836395,-96.4820785522,48.9633178711,"(1.0, 0.0, 0.0, 0.0, 1.0, 0.0, 0.0, 0.0, 0.0001)",0
2018/12/16/17:23:04.165149,109495,1545002584,164937973,imu_link,0,1,30.6276836395,-96.4820785522,48.9688529968,"(1.0, 0.0, 0.0, 0.0, 1.0, 0.0, 0.0, 0.0, 0.0001)",0
2018/12/16/17:23:04.176010,109496,1545002584,175837993,imu_link,0,1,30.6276836395,-96.4820785522,48.9670066833,"(1.0, 0.0, 0.0, 0.0, 1.0, 0.0, 0.0, 0.0, 0.0001)",0
2018/12/16/17:23:04.185078,109497,1545002584,184870958,imu_link,0,1,30.6276836395,-96.4820785522,48.9662742615,"(1.0, 0.0, 0.0, 0.0, 1.0, 0.0, 0.0, 0.0, 0.0001)",0
2018/12/16/17:23:04.195103,109498,1545002584,194850921,imu_link,0,1,30.6276855469,-96.4820785522,48.9655075073,"(1.0, 0.0, 0.0, 0.0, 1.0, 0.0, 0.0, 0.0, 0.0001)",0
2018/12/16/17:23:04.204965,109499,1545002584,204772949,imu_link,0,1,30.6276855469,-96.4820785522,48.9637641907,"(1.0, 0.0, 0.0, 0.0, 1.0, 0.0, 0.0, 0.0, 0.0001)",0
2018/12/16/17:23:04.215097,109500,1545002584,214899063,imu_link,0,1,30.6276855469,-96.4820785522,48.9619827271,"(1.0, 0.0, 0.0, 0.0, 1.0, 0.0, 0.0, 0.0, 0.0001)",0
2018/12/16/17:23:04.225030,109501,1545002584,224845886,imu_link,0,1,30.6276855469,-96.4820785522,48.9604759216,"(1.0, 0.0, 0.0, 0.0, 1.0, 0.0, 0.0, 0.0, 0.0001)",0
2018/12/16/17:23:04.235095,109502,1545002584,234870910,imu_link,0,1,30.6276874542,-96.4820785522,48.9590301514,"(1.0, 0.0, 0.0, 0.0, 1.0, 0.0, 0.0, 0.0, 0.0001)",0
2018/12/16/17:23:04.245045,109503,1545002584,244817972,imu_link,0,1,30.6276874542,-96.4820785522,48.9583282471,"(1.0, 0.0, 0.0, 0.0, 1.0, 0.0, 0.0, 0.0, 0.0001)",0
2018/12/16/17:23:04.255162,109504,1545002584,254929065,imu_link,0,1,30.6276874542,-96.4820785522,48.9576454163,"(1.0, 0.0, 0.0, 0.0, 1.0, 0.0, 0.0, 0.0, 0.0001)",0
2018/12/16/17:23:04.264918,109505,1545002584,264761924,imu_link,0,1,30.6276874542,-96.4820785522,48.9569969177,"(1.0, 0.0, 0.0, 0.0, 1.0, 0.0, 0.0, 0.0, 0.0001)",0
2018/12/16/17:23:04.275419,109506,1545002584,275199890,imu_link,0,1,30.6276874542,-96.4820785522,48.9563179016,"(1.0, 0.0, 0.0, 0.0, 1.0, 0.0, 0.0, 0.0, 0.0001)",0
2018/12/16/17:23:04.285097,109507,1545002584,284881114,imu_link,0,1,30.6276893616,-96.4820785522,48.9548873901,"(1.0, 0.0, 0.0, 0.0, 1.0, 0.0, 0.0, 0.0, 0.0001)",0
2018/12/16/17:23:04.294917,109508,1545002584,294723033,imu_link,0,1,30.6276893616,-96.4820785522,48.9534683228,"(1.0, 0.0, 0.0, 0.0, 1.0, 0.0, 0.0, 0.0, 0.0001)",0
2018/12/16/17:23:04.305124,109509,1545002584,304928064,imu_link,0,1,30.6276893616,-96.4820785522,48.9523048401,"(1.0, 0.0, 0.0, 0.0, 1.0, 0.0, 0.0, 0.0, 0.0001)",0
2018/12/16/17:23:04.314969,109510,1545002584,314809083,imu_link,0,1,30.6276893616,-96.4820785522,48.9511642456,"(1.0, 0.0, 0.0, 0.0, 1.0, 0.0, 0.0, 0.0, 0.0001)",0
2018/12/16/17:23:04.325104,109511,1545002584,324892997,imu_link,0,1,30.6276893616,-96.4820785522,48.9512672424,"(1.0, 0.0, 0.0, 0.0, 1.0, 0.0, 0.0, 0.0, 0.0001)",0
2018/12/16/17:23:04.335018,109512,1545002584,334800004,imu_link,0,1,30.6276912689,-96.4820785522,48.9513969421,"(1.0, 0.0, 0.0, 0.0, 1.0, 0.0, 0.0, 0.0, 0.0001)",0
2018/12/16/17:23:04.345846,109513,1545002584,345659971,imu_link,0,1,30.6276912689,-96.4820785522,48.9508094788,"(1.0, 0.0, 0.0, 0.0, 1.0, 0.0, 0.0, 0.0, 0.0001)",0
2018/12/16/17:23:04.354985,109514,1545002584,354851007,imu_link,0,1,30.6276912689,-96.4820785522,48.9502449036,"(1.0, 0.0, 0.0, 0.0, 1.0, 0.0, 0.0, 0.0, 0.0001)",0
2018/12/16/17:23:04.364999,109515,1545002584,364809989,imu_link,0,1,30.6276912689,-96.4820785522,48.9499320984,"(1.0, 0.0, 0.0, 0.0, 1.0, 0.0, 0.0, 0.0, 0.0001)",0
2018/12/16/17:23:04.376838,109516,1545002584,376619100,imu_link,0,1,30.6276912689,-96.4820785522,48.9496078491,"(1.0, 0.0, 0.0, 0.0, 1.0, 0.0, 0.0, 0.0, 0.0001)",0
2018/12/16/17:23:04.385093,109517,1545002584,384898900,imu_link,0,1,30.6276931763,-96.4820785522,48.9487495422,"(1.0, 0.0, 0.0, 0.0, 1.0, 0.0, 0.0, 0.0, 0.0001)",0
2018/12/16/17:23:04.395013,109518,1545002584,394817113,imu_link,0,1,30.6276931763,-96.4820785522,48.9540672302,"(1.0, 0.0, 0.0, 0.0, 1.0, 0.0, 0.0, 0.0, 0.0001)",0
2018/12/16/17:23:04.405111,109519,1545002584,404927015,imu_link,0,1,30.6276931763,-96.4820785522,48.9595985413,"(1.0, 0.0, 0.0, 0.0, 1.0, 0.0, 0.0, 0.0, 0.0001)",0
2018/12/16/17:23:04.415087,109520,1545002584,414858102,imu_link,0,1,30.6276931763,-96.4820785522,48.9589157104,"(1.0, 0.0, 0.0, 0.0, 1.0, 0.0, 0.0, 0.0, 0.0001)",0
2018/12/16/17:23:04.425069,109521,1545002584,424882888,imu_link,0,1,30.6276950836,-96.4820785522,48.9575309753,"(1.0, 0.0, 0.0, 0.0, 1.0, 0.0, 0.0, 0.0, 0.0001)",0
2018/12/16/17:23:04.435151,109522,1545002584,434921979,imu_link,0,1,30.6276950836,-96.4820785522,48.9561157227,"(1.0, 0.0, 0.0, 0.0, 1.0, 0.0, 0.0, 0.0, 0.0001)",0
2018/12/16/17:23:04.445113,109523,1545002584,444883108,imu_link,0,1,30.6276950836,-96.4820785522,48.9558677673,"(1.0, 0.0, 0.0, 0.0, 1.0, 0.0, 0.0, 0.0, 0.0001)",0
2018/12/16/17:23:04.455181,109524,1545002584,454884052,imu_link,0,1,30.6276950836,-96.4820785522,48.9556236267,"(1.0, 0.0, 0.0, 0.0, 1.0, 0.0, 0.0, 0.0, 0.0001)",0
2018/12/16/17:23:04.465006,109525,1545002584,464837074,imu_link,0,1,30.6276950836,-96.4820785522,48.9541931152,"(1.0, 0.0, 0.0, 0.0, 1.0, 0.0, 0.0, 0.0, 0.0001)",0
2018/12/16/17:23:04.475068,109526,1545002584,474837064,imu_link,0,1,30.627696991,-96.4820785522,48.9527130127,"(1.0, 0.0, 0.0, 0.0, 1.0, 0.0, 0.0, 0.0, 0.0001)",0
2018/12/16/17:23:04.485044,109527,1545002584,484867095,imu_link,0,1,30.627696991,-96.4820785522,48.9521446228,"(1.0, 0.0, 0.0, 0.0, 1.0, 0.0, 0.0, 0.0, 0.0001)",0
2018/12/16/17:23:04.495042,109528,1545002584,494832038,imu_link,0,1,30.627696991,-96.4820785522,48.9515571594,"(1.0, 0.0, 0.0, 0.0, 1.0, 0.0, 0.0, 0.0, 0.0001)",0
2018/12/16/17:23:04.505068,109529,1545002584,504884004,imu_link,0,1,30.627696991,-96.4820785522,48.9497718811,"(1.0, 0.0, 0.0, 0.0, 1.0, 0.0, 0.0, 0.0, 0.0001)",0
2018/12/16/17:23:04.515097,109530,1545002584,514797925,imu_link,0,1,30.6276988983,-96.4820785522,48.9479751587,"(1.0, 0.0, 0.0, 0.0, 1.0, 0.0, 0.0, 0.0, 0.0001)",0
2018/12/16/17:23:04.525023,109531,1545002584,524816036,imu_link,0,1,30.6276988983,-96.4820785522,48.9466590881,"(1.0, 0.0, 0.0, 0.0, 1.0, 0.0, 0.0, 0.0, 0.0001)",0
2018/12/16/17:23:04.535161,109532,1545002584,534923076,imu_link,0,1,30.6276988983,-96.4820785522,48.9453659058,"(1.0, 0.0, 0.0, 0.0, 1.0, 0.0, 0.0, 0.0, 0.0001)",0
2018/12/16/17:23:04.545083,109533,1545002584,544900894,imu_link,0,1,30.6276988983,-96.4820785522,48.9438514709,"(1.0, 0.0, 0.0, 0.0, 1.0, 0.0, 0.0, 0.0, 0.0001)",0
2018/12/16/17:23:04.555027,109534,1545002584,554774045,imu_link,0,1,30.6276988983,-96.4820785522,48.9423446655,"(1.0, 0.0, 0.0, 0.0, 1.0, 0.0, 0.0, 0.0, 0.0001)",0
2018/12/16/17:23:04.565164,109535,1545002584,564940929,imu_link,0,1,30.6277008057,-96.4820785522,48.940574646,"(1.0, 0.0, 0.0, 0.0, 1.0, 0.0, 0.0, 0.0, 0.0001)",0
2018/12/16/17:23:04.575352,109536,1545002584,574923992,imu_link,0,1,30.6277008057,-96.4820785522,48.9388046265,"(1.0, 0.0, 0.0, 0.0, 1.0, 0.0, 0.0, 0.0, 0.0001)",0
2018/12/16/17:23:04.585128,109537,1545002584,584947109,imu_link,0,1,30.6277008057,-96.4820785522,48.9380264282,"(1.0, 0.0, 0.0, 0.0, 1.0, 0.0, 0.0, 0.0, 0.0001)",0
2018/12/16/17:23:04.595192,109538,1545002584,594959020,imu_link,0,1,30.6277008057,-96.4820785522,48.9372596741,"(1.0, 0.0, 0.0, 0.0, 1.0, 0.0, 0.0, 0.0, 0.0001)",0
2018/12/16/17:23:04.605244,109539,1545002584,605003118,imu_link,0,1,30.6277008057,-96.4820785522,48.936000824,"(1.0, 0.0, 0.0, 0.0, 1.0, 0.0, 0.0, 0.0, 0.0001)",0
2018/12/16/17:23:04.615131,109540,1545002584,614829063,imu_link,0,1,30.627702713,-96.4820785522,48.9347648621,"(1.0, 0.0, 0.0, 0.0, 1.0, 0.0, 0.0, 0.0, 0.0001)",0
2018/12/16/17:23:04.625029,109541,1545002584,624878883,imu_link,0,1,30.627702713,-96.4820785522,48.9327926636,"(1.0, 0.0, 0.0, 0.0, 1.0, 0.0, 0.0, 0.0, 0.0001)",0
2018/12/16/17:23:04.636440,109542,1545002584,635725021,imu_link,0,1,30.627702713,-96.4820785522,48.9308052063,"(1.0, 0.0, 0.0, 0.0, 1.0, 0.0, 0.0, 0.0, 0.0001)",0
2018/12/16/17:23:04.647852,109543,1545002584,647538900,imu_link,0,1,30.627702713,-96.4820785522,48.9393157959,"(1.0, 0.0, 0.0, 0.0, 1.0, 0.0, 0.0, 0.0, 0.0001)",0
2018/12/16/17:23:04.655254,109544,1545002584,655039072,imu_link,0,1,30.6277046204,-96.4820785522,48.9465408325,"(1.0, 0.0, 0.0, 0.0, 1.0, 0.0, 0.0, 0.0, 0.0001)",0
2018/12/16/17:23:04.665159,109545,1545002584,664940118,imu_link,0,1,30.6277046204,-96.4820785522,48.9438438416,"(1.0, 0.0, 0.0, 0.0, 1.0, 0.0, 0.0, 0.0, 0.0001)",0
2018/12/16/17:23:04.675267,109546,1545002584,675055980,imu_link,0,1,30.6277046204,-96.4820785522,48.9424362183,"(1.0, 0.0, 0.0, 0.0, 1.0, 0.0, 0.0, 0.0, 0.0001)",0
2018/12/16/17:23:04.685393,109547,1545002584,685220956,imu_link,0,1,30.6277046204,-96.4820785522,48.9417152405,"(1.0, 0.0, 0.0, 0.0, 1.0, 0.0, 0.0, 0.0, 0.0001)",0
2018/12/16/17:23:04.695200,109548,1545002584,695030927,imu_link,0,1,30.6277046204,-96.4820785522,48.9409980774,"(1.0, 0.0, 0.0, 0.0, 1.0, 0.0, 0.0, 0.0, 0.0001)",0
2018/12/16/17:23:04.705132,109549,1545002584,704946994,imu_link,0,1,30.6277065277,-96.4820785522,48.9398345947,"(1.0, 0.0, 0.0, 0.0, 1.0, 0.0, 0.0, 0.0, 0.0001)",0
2018/12/16/17:23:04.715260,109550,1545002584,714994907,imu_link,0,1,30.6277065277,-96.4820785522,48.9386672974,"(1.0, 0.0, 0.0, 0.0, 1.0, 0.0, 0.0, 0.0, 0.0001)",0
2018/12/16/17:23:04.725184,109551,1545002584,724983930,imu_link,0,1,30.6277065277,-96.4820785522,48.93724823,"(1.0, 0.0, 0.0, 0.0, 1.0, 0.0, 0.0, 0.0, 0.0001)",0
2018/12/16/17:23:04.735277,109552,1545002584,735037088,imu_link,0,1,30.6277065277,-96.4820785522,48.9358139038,"(1.0, 0.0, 0.0, 0.0, 1.0, 0.0, 0.0, 0.0, 0.0001)",0
2018/12/16/17:23:04.745114,109553,1545002584,744894027,imu_link,0,1,30.6277084351,-96.4820785522,48.9353218079,"(1.0, 0.0, 0.0, 0.0, 1.0, 0.0, 0.0, 0.0, 0.0001)",0
2018/12/16/17:23:04.755493,109554,1545002584,755284070,imu_link,0,1,30.6277084351,-96.4820785522,48.934803009,"(1.0, 0.0, 0.0, 0.0, 1.0, 0.0, 0.0, 0.0, 0.0001)",0
2018/12/16/17:23:04.765142,109555,1545002584,764960050,imu_link,0,1,30.6277084351,-96.4820785522,48.9335594177,"(1.0, 0.0, 0.0, 0.0, 1.0, 0.0, 0.0, 0.0, 0.0001)",0
2018/12/16/17:23:04.775248,109556,1545002584,774959087,imu_link,0,1,30.6277084351,-96.4820785522,48.9323501587,"(1.0, 0.0, 0.0, 0.0, 1.0, 0.0, 0.0, 0.0, 0.0001)",0
2018/12/16/17:23:04.785239,109557,1545002584,785023927,imu_link,0,1,30.6277084351,-96.4820785522,48.9306716919,"(1.0, 0.0, 0.0, 0.0, 1.0, 0.0, 0.0, 0.0, 0.0001)",0
2018/12/16/17:23:04.795266,109558,1545002584,794918060,imu_link,0,1,30.6277103424,-96.4820785522,48.9290008545,"(1.0, 0.0, 0.0, 0.0, 1.0, 0.0, 0.0, 0.0, 0.0001)",0
2018/12/16/17:23:04.805101,109559,1545002584,804940938,imu_link,0,1,30.6277103424,-96.4820785522,48.9271202087,"(1.0, 0.0, 0.0, 0.0, 1.0, 0.0, 0.0, 0.0, 0.0001)",0
2018/12/16/17:23:04.817757,109560,1545002584,817490100,imu_link,0,1,30.6277103424,-96.4820785522,48.9252662659,"(1.0, 0.0, 0.0, 0.0, 1.0, 0.0, 0.0, 0.0, 0.0001)",0
2018/12/16/17:23:04.825139,109561,1545002584,824959993,imu_link,0,1,30.6277103424,-96.4820785522,48.9239006042,"(1.0, 0.0, 0.0, 0.0, 1.0, 0.0, 0.0, 0.0, 0.0001)",0
2018/12/16/17:23:04.835397,109562,1545002584,835199117,imu_link,0,1,30.6277122498,-96.4820785522,48.9225769043,"(1.0, 0.0, 0.0, 0.0, 1.0, 0.0, 0.0, 0.0, 0.0001)",0
2018/12/16/17:23:04.845178,109563,1545002584,844988107,imu_link,0,1,30.6277122498,-96.4820785522,48.9212837219,"(1.0, 0.0, 0.0, 0.0, 1.0, 0.0, 0.0, 0.0, 0.0001)",0
2018/12/16/17:23:04.855145,109564,1545002584,854963064,imu_link,0,1,30.6277122498,-96.4820785522,48.9200019836,"(1.0, 0.0, 0.0, 0.0, 1.0, 0.0, 0.0, 0.0, 0.0001)",0
2018/12/16/17:23:04.865115,109565,1545002584,864933013,imu_link,0,1,30.6277122498,-96.4820785522,48.9192314148,"(1.0, 0.0, 0.0, 0.0, 1.0, 0.0, 0.0, 0.0, 0.0001)",0
2018/12/16/17:23:04.875292,109566,1545002584,874887943,imu_link,0,1,30.6277122498,-96.4820785522,48.9184951782,"(1.0, 0.0, 0.0, 0.0, 1.0, 0.0, 0.0, 0.0, 0.0001)",0
2018/12/16/17:23:04.885200,109567,1545002584,885008096,imu_link,0,1,30.6277141571,-96.4820785522,48.9172897339,"(1.0, 0.0, 0.0, 0.0, 1.0, 0.0, 0.0, 0.0, 0.0001)",0
2018/12/16/17:23:04.895282,109568,1545002584,894978046,imu_link,0,1,30.6277141571,-96.4820785522,48.9200019836,"(1.0, 0.0, 0.0, 0.0, 1.0, 0.0, 0.0, 0.0, 0.0001)",0
2018/12/16/17:23:04.905172,109569,1545002584,904999971,imu_link,0,1,30.6277141571,-96.4820785522,48.9231567383,"(1.0, 0.0, 0.0, 0.0, 1.0, 0.0, 0.0, 0.0, 0.0001)",0
2018/12/16/17:23:04.915394,109570,1545002584,914885044,imu_link,0,1,30.6277141571,-96.4820785522,48.92237854,"(1.0, 0.0, 0.0, 0.0, 1.0, 0.0, 0.0, 0.0, 0.0001)",0
2018/12/16/17:23:04.925120,109571,1545002584,924922943,imu_link,0,1,30.6277160645,-96.4820785522,48.9213790894,"(1.0, 0.0, 0.0, 0.0, 1.0, 0.0, 0.0, 0.0, 0.0001)",0
2018/12/16/17:23:04.935073,109572,1545002584,934861898,imu_link,0,1,30.6277160645,-96.4820785522,48.9204063416,"(1.0, 0.0, 0.0, 0.0, 1.0, 0.0, 0.0, 0.0, 0.0001)",0
2018/12/16/17:23:04.944983,109573,1545002584,944756031,imu_link,0,1,30.6277160645,-96.4820785522,48.9194412231,"(1.0, 0.0, 0.0, 0.0, 1.0, 0.0, 0.0, 0.0, 0.0001)",0
2018/12/16/17:23:04.955107,109574,1545002584,954895019,imu_link,0,1,30.6277160645,-96.4820785522,48.9184570312,"(1.0, 0.0, 0.0, 0.0, 1.0, 0.0, 0.0, 0.0, 0.0001)",0
2018/12/16/17:23:04.965115,109575,1545002584,964930057,imu_link,0,1,30.6277179718,-96.4820785522,48.9174423218,"(1.0, 0.0, 0.0, 0.0, 1.0, 0.0, 0.0, 0.0, 0.0001)",0
2018/12/16/17:23:04.975253,109576,1545002584,974958896,imu_link,0,1,30.6277179718,-96.4820785522,48.9164123535,"(1.0, 0.0, 0.0, 0.0, 1.0, 0.0, 0.0, 0.0, 0.0001)",0
2018/12/16/17:23:04.985065,109577,1545002584,984818935,imu_link,0,1,30.6277179718,-96.4820785522,48.9151382446,"(1.0, 0.0, 0.0, 0.0, 1.0, 0.0, 0.0, 0.0, 0.0001)",0
2018/12/16/17:23:04.995170,109578,1545002584,994987010,imu_link,0,1,30.6277179718,-96.4820785522,48.9138793945,"(1.0, 0.0, 0.0, 0.0, 1.0, 0.0, 0.0, 0.0, 0.0001)",0
2018/12/16/17:23:05.005169,109579,1545002585,4977941,imu_link,0,1,30.6277179718,-96.4820785522,48.9128456116,"(1.0, 0.0, 0.0, 0.0, 1.0, 0.0, 0.0, 0.0, 0.0001)",0
2018/12/16/17:23:05.015124,109580,1545002585,14884948,imu_link,0,1,30.6277198792,-96.4820785522,48.9118003845,"(1.0, 0.0, 0.0, 0.0, 1.0, 0.0, 0.0, 0.0, 0.0001)",0
2018/12/16/17:23:05.025141,109581,1545002585,24981975,imu_link,0,1,30.6277198792,-96.4820785522,48.911239624,"(1.0, 0.0, 0.0, 0.0, 1.0, 0.0, 0.0, 0.0, 0.0001)",0
2018/12/16/17:23:05.035380,109582,1545002585,35079956,imu_link,0,1,30.6277198792,-96.4820785522,48.9106636047,"(1.0, 0.0, 0.0, 0.0, 1.0, 0.0, 0.0, 0.0, 0.0001)",0
2018/12/16/17:23:05.045079,109583,1545002585,44909000,imu_link,0,1,30.6277198792,-96.4820785522,48.909828186,"(1.0, 0.0, 0.0, 0.0, 1.0, 0.0, 0.0, 0.0, 0.0001)",0
2018/12/16/17:23:05.055219,109584,1545002585,55037021,imu_link,0,1,30.6277217865,-96.4820785522,48.9090042114,"(1.0, 0.0, 0.0, 0.0, 1.0, 0.0, 0.0, 0.0, 0.0001)",0
2018/12/16/17:23:05.065103,109585,1545002585,64891099,imu_link,0,1,30.6277217865,-96.4820785522,48.9074249268,"(1.0, 0.0, 0.0, 0.0, 1.0, 0.0, 0.0, 0.0, 0.0001)",0
2018/12/16/17:23:05.075402,109586,1545002585,75171947,imu_link,0,1,30.6277217865,-96.4820785522,48.9058418274,"(1.0, 0.0, 0.0, 0.0, 1.0, 0.0, 0.0, 0.0, 0.0001)",0
2018/12/16/17:23:05.085076,109587,1545002585,84877967,imu_link,0,1,30.6277217865,-96.4820785522,48.9052658081,"(1.0, 0.0, 0.0, 0.0, 1.0, 0.0, 0.0, 0.0, 0.0001)",0
2018/12/16/17:23:05.095210,109588,1545002585,95035076,imu_link,0,1,30.6277236938,-96.4820785522,48.9047012329,"(1.0, 0.0, 0.0, 0.0, 1.0, 0.0, 0.0, 0.0, 0.0001)",0
2018/12/16/17:23:05.105311,109589,1545002585,105142116,imu_link,0,1,30.6277236938,-96.4820785522,48.9031295776,"(1.0, 0.0, 0.0, 0.0, 1.0, 0.0, 0.0, 0.0, 0.0001)",0
2018/12/16/17:23:05.115252,109590,1545002585,114969015,imu_link,0,1,30.6277236938,-96.4820785522,48.9015617371,"(1.0, 0.0, 0.0, 0.0, 1.0, 0.0, 0.0, 0.0, 0.0001)",0
2018/12/16/17:23:05.125139,109591,1545002585,124953031,imu_link,0,1,30.6277236938,-96.4820785522,48.8994865417,"(1.0, 0.0, 0.0, 0.0, 1.0, 0.0, 0.0, 0.0, 0.0001)",0
2018/12/16/17:23:05.135151,109592,1545002585,134947061,imu_link,0,1,30.6277236938,-96.4820785522,48.8973846436,"(1.0, 0.0, 0.0, 0.0, 1.0, 0.0, 0.0, 0.0, 0.0001)",0
2018/12/16/17:23:05.145088,109593,1545002585,144895076,imu_link,0,1,30.6277256012,-96.4820785522,48.9038009644,"(1.0, 0.0, 0.0, 0.0, 1.0, 0.0, 0.0, 0.0, 0.0001)",0
2018/12/16/17:23:05.155154,109594,1545002585,154954910,imu_link,0,1,30.6277256012,-96.4820785522,48.9091491699,"(1.0, 0.0, 0.0, 0.0, 1.0, 0.0, 0.0, 0.0, 0.0001)",0
2018/12/16/17:23:05.165068,109595,1545002585,164880037,imu_link,0,1,30.6277256012,-96.4820785522,48.9067687988,"(1.0, 0.0, 0.0, 0.0, 1.0, 0.0, 0.0, 0.0, 0.0001)",0
2018/12/16/17:23:05.175097,109596,1545002585,174856901,imu_link,0,1,30.6277256012,-96.4820785522,48.9054069519,"(1.0, 0.0, 0.0, 0.0, 1.0, 0.0, 0.0, 0.0, 0.0001)",0
2018/12/16/17:23:05.185071,109597,1545002585,184819936,imu_link,0,1,30.6277275085,-96.4820785522,48.9045028687,"(1.0, 0.0, 0.0, 0.0, 1.0, 0.0, 0.0, 0.0, 0.0001)",0
2018/12/16/17:23:05.195266,109598,1545002585,194953918,imu_link,0,1,30.6277275085,-96.4820785522,48.9035682678,"(1.0, 0.0, 0.0, 0.0, 1.0, 0.0, 0.0, 0.0, 0.0001)",0
2018/12/16/17:23:05.205168,109599,1545002585,204966068,imu_link,0,1,30.6277275085,-96.4820785522,48.901927948,"(1.0, 0.0, 0.0, 0.0, 1.0, 0.0, 0.0, 0.0, 0.0001)",0
2018/12/16/17:23:05.215211,109600,1545002585,214963912,imu_link,0,1,30.6277275085,-96.4820785522,48.9002838135,"(1.0, 0.0, 0.0, 0.0, 1.0, 0.0, 0.0, 0.0, 0.0001)",0
2018/12/16/17:23:05.225110,109601,1545002585,224906921,imu_link,0,1,30.6277294159,-96.4820785522,48.8991012573,"(1.0, 0.0, 0.0, 0.0, 1.0, 0.0, 0.0, 0.0, 0.0001)",0
2018/12/16/17:23:05.235149,109602,1545002585,234951972,imu_link,0,1,30.6277294159,-96.4820785522,48.8979187012,"(1.0, 0.0, 0.0, 0.0, 1.0, 0.0, 0.0, 0.0, 0.0001)",0
2018/12/16/17:23:05.245194,109603,1545002585,244970083,imu_link,0,1,30.6277294159,-96.4820785522,48.8969955444,"(1.0, 0.0, 0.0, 0.0, 1.0, 0.0, 0.0, 0.0, 0.0001)",0
2018/12/16/17:23:05.255143,109604,1545002585,254894018,imu_link,0,1,30.6277294159,-96.4820785522,48.8960723877,"(1.0, 0.0, 0.0, 0.0, 1.0, 0.0, 0.0, 0.0, 0.0001)",0
2018/12/16/17:23:05.265040,109605,1545002585,264883041,imu_link,0,1,30.6277294159,-96.4820785522,48.8960876465,"(1.0, 0.0, 0.0, 0.0, 1.0, 0.0, 0.0, 0.0, 0.0001)",0
2018/12/16/17:23:05.275390,109606,1545002585,275171041,imu_link,0,1,30.6277313232,-96.4820785522,48.8961410522,"(1.0, 0.0, 0.0, 0.0, 1.0, 0.0, 0.0, 0.0, 0.0001)",0
2018/12/16/17:23:05.285190,109607,1545002585,284986019,imu_link,0,1,30.6277313232,-96.4820785522,48.8957214355,"(1.0, 0.0, 0.0, 0.0, 1.0, 0.0, 0.0, 0.0, 0.0001)",0
2018/12/16/17:23:05.295044,109608,1545002585,294842004,imu_link,0,1,30.6277313232,-96.4820785522,48.8953132629,"(1.0, 0.0, 0.0, 0.0, 1.0, 0.0, 0.0, 0.0, 0.0001)",0
2018/12/16/17:23:05.305267,109609,1545002585,305088043,imu_link,0,1,30.6277313232,-96.4820785522,48.8939552307,"(1.0, 0.0, 0.0, 0.0, 1.0, 0.0, 0.0, 0.0, 0.0001)",0
2018/12/16/17:23:05.315148,109610,1545002585,314923048,imu_link,0,1,30.6277332306,-96.4820785522,48.8926124573,"(1.0, 0.0, 0.0, 0.0, 1.0, 0.0, 0.0, 0.0, 0.0001)",0
2018/12/16/17:23:05.325170,109611,1545002585,324991941,imu_link,0,1,30.6277332306,-96.4820785522,48.8915290833,"(1.0, 0.0, 0.0, 0.0, 1.0, 0.0, 0.0, 0.0, 0.0001)",0
2018/12/16/17:23:05.335210,109612,1545002585,335022926,imu_link,0,1,30.6277332306,-96.4820785522,48.890460968,"(1.0, 0.0, 0.0, 0.0, 1.0, 0.0, 0.0, 0.0, 0.0001)",0
2018/12/16/17:23:05.345225,109613,1545002585,345045089,imu_link,0,1,30.6277332306,-96.4820785522,48.8903694153,"(1.0, 0.0, 0.0, 0.0, 1.0, 0.0, 0.0, 0.0, 0.0001)",0
2018/12/16/17:23:05.355346,109614,1545002585,355076074,imu_link,0,1,30.6277351379,-96.4820785522,48.8902740479,"(1.0, 0.0, 0.0, 0.0, 1.0, 0.0, 0.0, 0.0, 0.0001)",0
2018/12/16/17:23:05.365233,109615,1545002585,365051984,imu_link,0,1,30.6277351379,-96.4820785522,48.8894233704,"(1.0, 0.0, 0.0, 0.0, 1.0, 0.0, 0.0, 0.0, 0.0001)",0
2018/12/16/17:23:05.375195,109616,1545002585,375010013,imu_link,0,1,30.6277351379,-96.4820785522,48.8885498047,"(1.0, 0.0, 0.0, 0.0, 1.0, 0.0, 0.0, 0.0, 0.0001)",0
2018/12/16/17:23:05.385304,109617,1545002585,385143995,imu_link,0,1,30.6277351379,-96.4820785522,48.8879165649,"(1.0, 0.0, 0.0, 0.0, 1.0, 0.0, 0.0, 0.0, 0.0001)",0
2018/12/16/17:23:05.395156,109618,1545002585,394860982,imu_link,0,1,30.6277351379,-96.4820785522,48.8957138062,"(1.0, 0.0, 0.0, 0.0, 1.0, 0.0, 0.0, 0.0, 0.0001)",0
2018/12/16/17:23:05.405405,109619,1545002585,405203104,imu_link,0,1,30.6277370453,-96.4820785522,48.9042243958,"(1.0, 0.0, 0.0, 0.0, 1.0, 0.0, 0.0, 0.0, 0.0001)",0
2018/12/16/17:23:05.415340,109620,1545002585,414910078,imu_link,0,1,30.6277370453,-96.4820785522,48.9043121338,"(1.0, 0.0, 0.0, 0.0, 1.0, 0.0, 0.0, 0.0, 0.0001)",0
2018/12/16/17:23:05.425154,109621,1545002585,424976110,imu_link,0,1,30.6277370453,-96.4820785522,48.90417099,"(1.0, 0.0, 0.0, 0.0, 1.0, 0.0, 0.0, 0.0, 0.0001)",0
2018/12/16/17:23:05.435214,109622,1545002585,434969902,imu_link,0,1,30.6277370453,-96.4820785522,48.9040412903,"(1.0, 0.0, 0.0, 0.0, 1.0, 0.0, 0.0, 0.0, 0.0001)",0
2018/12/16/17:23:05.445354,109623,1545002585,445080995,imu_link,0,1,30.6277389526,-96.4820785522,48.9036483765,"(1.0, 0.0, 0.0, 0.0, 1.0, 0.0, 0.0, 0.0, 0.0001)",0
2018/12/16/17:23:05.455216,109624,1545002585,455032110,imu_link,0,1,30.6277389526,-96.4820785522,48.9032249451,"(1.0, 0.0, 0.0, 0.0, 1.0, 0.0, 0.0, 0.0, 0.0001)",0
2018/12/16/17:23:05.465159,109625,1545002585,464929103,imu_link,0,1,30.6277389526,-96.4820785522,48.9025115967,"(1.0, 0.0, 0.0, 0.0, 1.0, 0.0, 0.0, 0.0, 0.0001)",0
2018/12/16/17:23:05.475193,109626,1545002585,474931955,imu_link,0,1,30.6277389526,-96.4820785522,48.901763916,"(1.0, 0.0, 0.0, 0.0, 1.0, 0.0, 0.0, 0.0, 0.0001)",0
2018/12/16/17:23:05.485055,109627,1545002585,484874010,imu_link,0,1,30.62774086,-96.4820785522,48.90102005,"(1.0, 0.0, 0.0, 0.0, 1.0, 0.0, 0.0, 0.0, 0.0001)",0
2018/12/16/17:23:05.495126,109628,1545002585,494960069,imu_link,0,1,30.62774086,-96.4820785522,48.9003257751,"(1.0, 0.0, 0.0, 0.0, 1.0, 0.0, 0.0, 0.0, 0.0001)",0
2018/12/16/17:23:05.505283,109629,1545002585,504874944,imu_link,0,1,30.62774086,-96.4820785522,48.8994636536,"(1.0, 0.0, 0.0, 0.0, 1.0, 0.0, 0.0, 0.0, 0.0001)",0
2018/12/16/17:23:05.515168,109630,1545002585,514980077,imu_link,0,1,30.62774086,-96.4820785522,48.8986473083,"(1.0, 0.0, 0.0, 0.0, 1.0, 0.0, 0.0, 0.0, 0.0001)",0
2018/12/16/17:23:05.525158,109631,1545002585,524950027,imu_link,0,1,30.6277427673,-96.4820785522,48.8977737427,"(1.0, 0.0, 0.0, 0.0, 1.0, 0.0, 0.0, 0.0, 0.0001)",0
2018/12/16/17:23:05.535249,109632,1545002585,535051107,imu_link,0,1,30.6277427673,-96.4820785522,48.89686203,"(1.0, 0.0, 0.0, 0.0, 1.0, 0.0, 0.0, 0.0, 0.0001)",0
2018/12/16/17:23:05.545184,109633,1545002585,544939041,imu_link,0,1,30.6277427673,-96.4820785522,48.8964920044,"(1.0, 0.0, 0.0, 0.0, 1.0, 0.0, 0.0, 0.0, 0.0001)",0
2018/12/16/17:23:05.555133,109634,1545002585,554907083,imu_link,0,1,30.6277427673,-96.4820785522,48.8961715698,"(1.0, 0.0, 0.0, 0.0, 1.0, 0.0, 0.0, 0.0, 0.0001)",0
2018/12/16/17:23:05.565390,109635,1545002585,564987897,imu_link,0,1,30.6277427673,-96.4820785522,48.8960723877,"(1.0, 0.0, 0.0, 0.0, 1.0, 0.0, 0.0, 0.0, 0.0001)",0
2018/12/16/17:23:05.575126,109636,1545002585,574920892,imu_link,0,1,30.6277446747,-96.4820785522,48.8959503174,"(1.0, 0.0, 0.0, 0.0, 1.0, 0.0, 0.0, 0.0, 0.0001)",0
2018/12/16/17:23:05.585266,109637,1545002585,585064888,imu_link,0,1,30.6277446747,-96.4820785522,48.8955879211,"(1.0, 0.0, 0.0, 0.0, 1.0, 0.0, 0.0, 0.0, 0.0001)",0
2018/12/16/17:23:05.595216,109638,1545002585,594930887,imu_link,0,1,30.6277446747,-96.4820785522,48.8952598572,"(1.0, 0.0, 0.0, 0.0, 1.0, 0.0, 0.0, 0.0, 0.0001)",0
2018/12/16/17:23:05.605704,109639,1545002585,605532884,imu_link,0,1,30.6277446747,-96.4820785522,48.8947372437,"(1.0, 0.0, 0.0, 0.0, 1.0, 0.0, 0.0, 0.0, 0.0001)",0
2018/12/16/17:23:05.615120,109640,1545002585,614916086,imu_link,0,1,30.627746582,-96.4820785522,48.8942146301,"(1.0, 0.0, 0.0, 0.0, 1.0, 0.0, 0.0, 0.0, 0.0001)",0
2018/12/16/17:23:05.625204,109641,1545002585,625044107,imu_link,0,1,30.627746582,-96.4820785522,48.893196106,"(1.0, 0.0, 0.0, 0.0, 1.0, 0.0, 0.0, 0.0, 0.0001)",0
2018/12/16/17:23:05.635335,109642,1545002585,635044097,imu_link,0,1,30.627746582,-96.4820785522,48.8922042847,"(1.0, 0.0, 0.0, 0.0, 1.0, 0.0, 0.0, 0.0, 0.0001)",0
2018/12/16/17:23:05.645162,109643,1545002585,644964933,imu_link,0,1,30.627746582,-96.4820785522,48.8993682861,"(1.0, 0.0, 0.0, 0.0, 1.0, 0.0, 0.0, 0.0, 0.0001)",0
2018/12/16/17:23:05.655247,109644,1545002585,655031919,imu_link,0,1,30.6277484894,-96.4820785522,48.9047737122,"(1.0, 0.0, 0.0, 0.0, 1.0, 0.0, 0.0, 0.0, 0.0001)",0
2018/12/16/17:23:05.665363,109645,1545002585,665147066,imu_link,0,1,30.6277484894,-96.4820785522,48.9020690918,"(1.0, 0.0, 0.0, 0.0, 1.0, 0.0, 0.0, 0.0, 0.0001)",0
2018/12/16/17:23:05.675357,109646,1545002585,675076007,imu_link,0,1,30.6277484894,-96.4820785522,48.9010543823,"(1.0, 0.0, 0.0, 0.0, 1.0, 0.0, 0.0, 0.0, 0.0001)",0
2018/12/16/17:23:05.685222,109647,1545002585,685046911,imu_link,0,1,30.6277484894,-96.4820785522,48.9002532959,"(1.0, 0.0, 0.0, 0.0, 1.0, 0.0, 0.0, 0.0, 0.0001)",0
2018/12/16/17:23:05.695030,109648,1545002585,694839954,imu_link,0,1,30.6277503967,-96.4820785522,48.8994293213,"(1.0, 0.0, 0.0, 0.0, 1.0, 0.0, 0.0, 0.0, 0.0001)",0
2018/12/16/17:23:05.705284,109649,1545002585,705045938,imu_link,0,1,30.6277503967,-96.4820785522,48.8985824585,"(1.0, 0.0, 0.0, 0.0, 1.0, 0.0, 0.0, 0.0, 0.0001)",0
2018/12/16/17:23:05.715188,109650,1545002585,714961051,imu_link,0,1,30.6277503967,-96.4820785522,48.897731781,"(1.0, 0.0, 0.0, 0.0, 1.0, 0.0, 0.0, 0.0, 0.0001)",0
2018/12/16/17:23:05.725264,109651,1545002585,725075960,imu_link,0,1,30.6277503967,-96.4820785522,48.8964195251,"(1.0, 0.0, 0.0, 0.0, 1.0, 0.0, 0.0, 0.0, 0.0001)",0
2018/12/16/17:23:05.735185,109652,1545002585,735030889,imu_link,0,1,30.6277523041,-96.4820785522,48.8951034546,"(1.0, 0.0, 0.0, 0.0, 1.0, 0.0, 0.0, 0.0, 0.0001)",0
2018/12/16/17:23:05.745112,109653,1545002585,744919061,imu_link,0,1,30.6277523041,-96.4820785522,48.8937568665,"(1.0, 0.0, 0.0, 0.0, 1.0, 0.0, 0.0, 0.0, 0.0001)",0
2018/12/16/17:23:05.755281,109654,1545002585,755027055,imu_link,0,1,30.6277523041,-96.4820785522,48.8924026489,"(1.0, 0.0, 0.0, 0.0, 1.0, 0.0, 0.0, 0.0, 0.0001)",0
2018/12/16/17:23:05.765234,109655,1545002585,764971017,imu_link,0,1,30.6277523041,-96.4820785522,48.891746521,"(1.0, 0.0, 0.0, 0.0, 1.0, 0.0, 0.0, 0.0, 0.0001)",0
2018/12/16/17:23:05.775138,109656,1545002585,774987936,imu_link,0,1,30.6277523041,-96.4820785522,48.8910827637,"(1.0, 0.0, 0.0, 0.0, 1.0, 0.0, 0.0, 0.0, 0.0001)",0
2018/12/16/17:23:05.785107,109657,1545002585,784945011,imu_link,0,1,30.6277542114,-96.4820785522,48.8906402588,"(1.0, 0.0, 0.0, 0.0, 1.0, 0.0, 0.0, 0.0, 0.0001)",0
2018/12/16/17:23:05.795654,109658,1545002585,795361042,imu_link,0,1,30.6277542114,-96.4820785522,48.8901786804,"(1.0, 0.0, 0.0, 0.0, 1.0, 0.0, 0.0, 0.0, 0.0001)",0
2018/12/16/17:23:05.805545,109659,1545002585,804974079,imu_link,0,1,30.6277542114,-96.4820785522,48.8897171021,"(1.0, 0.0, 0.0, 0.0, 1.0, 0.0, 0.0, 0.0, 0.0001)",0
2018/12/16/17:23:05.816257,109660,1545002585,815251111,imu_link,0,1,30.6277542114,-96.4820785522,48.8892707825,"(1.0, 0.0, 0.0, 0.0, 1.0, 0.0, 0.0, 0.0, 0.0001)",0
2018/12/16/17:23:05.825452,109661,1545002585,825211048,imu_link,0,1,30.6277561188,-96.4820785522,48.888835907,"(1.0, 0.0, 0.0, 0.0, 1.0, 0.0, 0.0, 0.0, 0.0001)",0
2018/12/16/17:23:05.835354,109662,1545002585,835097074,imu_link,0,1,30.6277561188,-96.4820785522,48.8883972168,"(1.0, 0.0, 0.0, 0.0, 1.0, 0.0, 0.0, 0.0, 0.0001)",0
2018/12/16/17:23:05.845214,109663,1545002585,845047950,imu_link,0,1,30.6277561188,-96.4820785522,48.8874740601,"(1.0, 0.0, 0.0, 0.0, 1.0, 0.0, 0.0, 0.0, 0.0001)",0
2018/12/16/17:23:05.855285,109664,1545002585,855076074,imu_link,0,1,30.6277561188,-96.4820785522,48.8865509033,"(1.0, 0.0, 0.0, 0.0, 1.0, 0.0, 0.0, 0.0, 0.0001)",0
2018/12/16/17:23:05.865407,109665,1545002585,865214109,imu_link,0,1,30.6277580261,-96.4820785522,48.8859100342,"(1.0, 0.0, 0.0, 0.0, 1.0, 0.0, 0.0, 0.0, 0.0001)",0
2018/12/16/17:23:05.875471,109666,1545002585,875276088,imu_link,0,1,30.6277580261,-96.4820785522,48.8852806091,"(1.0, 0.0, 0.0, 0.0, 1.0, 0.0, 0.0, 0.0, 0.0001)",0
2018/12/16/17:23:05.885447,109667,1545002585,885224103,imu_link,0,1,30.6277580261,-96.4820785522,48.8846549988,"(1.0, 0.0, 0.0, 0.0, 1.0, 0.0, 0.0, 0.0, 0.0001)",0
2018/12/16/17:23:05.895096,109668,1545002585,894942998,imu_link,0,1,30.6277580261,-96.4820785522,48.8922843933,"(1.0, 0.0, 0.0, 0.0, 1.0, 0.0, 0.0, 0.0, 0.0001)",0
2018/12/16/17:23:05.905392,109669,1545002585,905180931,imu_link,0,1,30.6277599335,-96.4820785522,48.8997421265,"(1.0, 0.0, 0.0, 0.0, 1.0, 0.0, 0.0, 0.0, 0.0001)",0
2018/12/16/17:23:05.915116,109670,1545002585,914921045,imu_link,0,1,30.6277599335,-96.4820785522,48.8989677429,"(1.0, 0.0, 0.0, 0.0, 1.0, 0.0, 0.0, 0.0, 0.0001)",0
2018/12/16/17:23:05.925140,109671,1545002585,924978017,imu_link,0,1,30.6277599335,-96.4820785522,48.8988838196,"(1.0, 0.0, 0.0, 0.0, 1.0, 0.0, 0.0, 0.0, 0.0001)",0
2018/12/16/17:23:05.935169,109672,1545002585,934950113,imu_link,0,1,30.6277599335,-96.4820785522,48.898815155,"(1.0, 0.0, 0.0, 0.0, 1.0, 0.0, 0.0, 0.0, 0.0001)",0
2018/12/16/17:23:05.945001,109673,1545002585,944839000,imu_link,0,1,30.6277599335,-96.4820785522,48.897605896,"(1.0, 0.0, 0.0, 0.0, 1.0, 0.0, 0.0, 0.0, 0.0001)",0
2018/12/16/17:23:05.955176,109674,1545002585,954966068,imu_link,0,1,30.6277618408,-96.4820785522,48.8963890076,"(1.0, 0.0, 0.0, 0.0, 1.0, 0.0, 0.0, 0.0, 0.0001)",0
2018/12/16/17:23:05.965168,109675,1545002585,964986085,imu_link,0,1,30.6277618408,-96.4820785522,48.8956184387,"(1.0, 0.0, 0.0, 0.0, 1.0, 0.0, 0.0, 0.0, 0.0001)",0
2018/12/16/17:23:05.975151,109676,1545002585,974946975,imu_link,0,1,30.6277618408,-96.4820785522,48.8948669434,"(1.0, 0.0, 0.0, 0.0, 1.0, 0.0, 0.0, 0.0, 0.0001)",0
2018/12/16/17:23:05.985213,109677,1545002585,985042095,imu_link,0,1,30.6277618408,-96.4820785522,48.893901825,"(1.0, 0.0, 0.0, 0.0, 1.0, 0.0, 0.0, 0.0, 0.0001)",0
2018/12/16/17:23:05.995124,109678,1545002585,994895935,imu_link,0,1,30.6277637482,-96.4820785522,48.8929519653,"(1.0, 0.0, 0.0, 0.0, 1.0, 0.0, 0.0, 0.0, 0.0001)",0
2018/12/16/17:23:06.005233,109679,1545002586,5070924,imu_link,0,1,30.6277637482,-96.4820785522,48.8919754028,"(1.0, 0.0, 0.0, 0.0, 1.0, 0.0, 0.0, 0.0, 0.0001)",0
2018/12/16/17:23:06.015134,109680,1545002586,14908075,imu_link,0,1,30.6277637482,-96.4820785522,48.8909988403,"(1.0, 0.0, 0.0, 0.0, 1.0, 0.0, 0.0, 0.0, 0.0001)",0
2018/12/16/17:23:06.025271,109681,1545002586,25088071,imu_link,0,1,30.6277637482,-96.4820785522,48.8902702332,"(1.0, 0.0, 0.0, 0.0, 1.0, 0.0, 0.0, 0.0, 0.0001)",0
2018/12/16/17:23:06.035260,109682,1545002586,35060882,imu_link,0,1,30.6277656555,-96.4820785522,48.8895378113,"(1.0, 0.0, 0.0, 0.0, 1.0, 0.0, 0.0, 0.0, 0.0001)",0
2018/12/16/17:23:06.045265,109683,1545002586,45082092,imu_link,0,1,30.6277656555,-96.4820785522,48.8895072937,"(1.0, 0.0, 0.0, 0.0, 1.0, 0.0, 0.0, 0.0, 0.0001)",0
2018/12/16/17:23:06.055213,109684,1545002586,55032968,imu_link,0,1,30.6277656555,-96.4820785522,48.8894424438,"(1.0, 0.0, 0.0, 0.0, 1.0, 0.0, 0.0, 0.0, 0.0001)",0
2018/12/16/17:23:06.065584,109685,1545002586,65339088,imu_link,0,1,30.6277656555,-96.4820785522,48.8889007568,"(1.0, 0.0, 0.0, 0.0, 1.0, 0.0, 0.0, 0.0, 0.0001)",0
2018/12/16/17:23:06.075476,109686,1545002586,75324058,imu_link,0,1,30.6277675629,-96.4820785522,48.8883628845,"(1.0, 0.0, 0.0, 0.0, 1.0, 0.0, 0.0, 0.0, 0.0001)",0
2018/12/16/17:23:06.085222,109687,1545002586,85014104,imu_link,0,1,30.6277675629,-96.4820785522,48.88829422,"(1.0, 0.0, 0.0, 0.0, 1.0, 0.0, 0.0, 0.0, 0.0001)",0
2018/12/16/17:23:06.095089,109688,1545002586,94893932,imu_link,0,1,30.6277675629,-96.4820785522,48.8882064819,"(1.0, 0.0, 0.0, 0.0, 1.0, 0.0, 0.0, 0.0, 0.0001)",0
2018/12/16/17:23:06.105315,109689,1545002586,105115890,imu_link,0,1,30.6277675629,-96.4820785522,48.8883666992,"(1.0, 0.0, 0.0, 0.0, 1.0, 0.0, 0.0, 0.0, 0.0001)",0
2018/12/16/17:23:06.115237,109690,1545002586,115025043,imu_link,0,1,30.6277675629,-96.4820785522,48.8885345459,"(1.0, 0.0, 0.0, 0.0, 1.0, 0.0, 0.0, 0.0, 0.0001)",0
2018/12/16/17:23:06.125248,109691,1545002586,125061988,imu_link,0,1,30.6277694702,-96.4820785522,48.8884468079,"(1.0, 0.0, 0.0, 0.0, 1.0, 0.0, 0.0, 0.0, 0.0001)",0
2018/12/16/17:23:06.135289,109692,1545002586,135090112,imu_link,0,1,30.6277694702,-96.4820785522,48.8883590698,"(1.0, 0.0, 0.0, 0.0, 1.0, 0.0, 0.0, 0.0, 0.0001)",0
2018/12/16/17:23:06.145246,109693,1545002586,145076990,imu_link,0,1,30.6277694702,-96.4820785522,48.8885269165,"(1.0, 0.0, 0.0, 0.0, 1.0, 0.0, 0.0, 0.0, 0.0001)",0
2018/12/16/17:23:06.155277,109694,1545002586,154979944,imu_link,0,1,30.6277694702,-96.4820785522,48.8959617615,"(1.0, 0.0, 0.0, 0.0, 1.0, 0.0, 0.0, 0.0, 0.0001)",0
2018/12/16/17:23:06.165297,109695,1545002586,165059089,imu_link,0,1,30.6277713776,-96.4820785522,48.9031181335,"(1.0, 0.0, 0.0, 0.0, 1.0, 0.0, 0.0, 0.0, 0.0001)",0
2018/12/16/17:23:06.175092,109696,1545002586,174911022,imu_link,0,1,30.6277713776,-96.4820785522,48.9029884338,"(1.0, 0.0, 0.0, 0.0, 1.0, 0.0, 0.0, 0.0, 0.0001)",0
2018/12/16/17:23:06.185196,109697,1545002586,184989929,imu_link,0,1,30.6277713776,-96.4820785522,48.9028549194,"(1.0, 0.0, 0.0, 0.0, 1.0, 0.0, 0.0, 0.0, 0.0001)",0
2018/12/16/17:23:06.195121,109698,1545002586,194900035,imu_link,0,1,30.6277713776,-96.4820785522,48.9027404785,"(1.0, 0.0, 0.0, 0.0, 1.0, 0.0, 0.0, 0.0, 0.0001)",0
2018/12/16/17:23:06.205281,109699,1545002586,204987049,imu_link,0,1,30.6277732849,-96.4820785522,48.9021873474,"(1.0, 0.0, 0.0, 0.0, 1.0, 0.0, 0.0, 0.0, 0.0001)",0
2018/12/16/17:23:06.215231,109700,1545002586,215027093,imu_link,0,1,30.6277732849,-96.4820785522,48.9016456604,"(1.0, 0.0, 0.0, 0.0, 1.0, 0.0, 0.0, 0.0, 0.0001)",0
2018/12/16/17:23:06.225210,109701,1545002586,225018978,imu_link,0,1,30.6277732849,-96.4820785522,48.901550293,"(1.0, 0.0, 0.0, 0.0, 1.0, 0.0, 0.0, 0.0, 0.0001)",0
2018/12/16/17:23:06.235241,109702,1545002586,235006093,imu_link,0,1,30.6277732849,-96.4820785522,48.9014472961,"(1.0, 0.0, 0.0, 0.0, 1.0, 0.0, 0.0, 0.0, 0.0001)",0
2018/12/16/17:23:06.245209,109703,1545002586,245050907,imu_link,0,1,30.6277751923,-96.4820785522,48.9008674622,"(1.0, 0.0, 0.0, 0.0, 1.0, 0.0, 0.0, 0.0, 0.0001)",0
2018/12/16/17:23:06.255211,109704,1545002586,255009889,imu_link,0,1,30.6277751923,-96.4820785522,48.9002838135,"(1.0, 0.0, 0.0, 0.0, 1.0, 0.0, 0.0, 0.0, 0.0001)",0
2018/12/16/17:23:06.265243,109705,1545002586,265033006,imu_link,0,1,30.6277751923,-96.4820785522,48.8992385864,"(1.0, 0.0, 0.0, 0.0, 1.0, 0.0, 0.0, 0.0, 0.0001)",0
2018/12/16/17:23:06.275218,109706,1545002586,275017023,imu_link,0,1,30.6277751923,-96.4820785522,48.8981971741,"(1.0, 0.0, 0.0, 0.0, 1.0, 0.0, 0.0, 0.0, 0.0001)",0
2018/12/16/17:23:06.285327,109707,1545002586,285114049,imu_link,0,1,30.6277770996,-96.4820785522,48.8976020813,"(1.0, 0.0, 0.0, 0.0, 1.0, 0.0, 0.0, 0.0, 0.0001)",0
2018/12/16/17:23:06.295390,109708,1545002586,295209884,imu_link,0,1,30.6277770996,-96.4820785522,48.8970146179,"(1.0, 0.0, 0.0, 0.0, 1.0, 0.0, 0.0, 0.0, 0.0001)",0
2018/12/16/17:23:06.305399,109709,1545002586,305044889,imu_link,0,1,30.6277770996,-96.4820785522,48.896446228,"(1.0, 0.0, 0.0, 0.0, 1.0, 0.0, 0.0, 0.0, 0.0001)",0
2018/12/16/17:23:06.315243,109710,1545002586,315062999,imu_link,0,1,30.6277770996,-96.4820785522,48.8959121704,"(1.0, 0.0, 0.0, 0.0, 1.0, 0.0, 0.0, 0.0, 0.0001)",0
2018/12/16/17:23:06.325207,109711,1545002586,325042963,imu_link,0,1,30.6277770996,-96.4820785522,48.8961257935,"(1.0, 0.0, 0.0, 0.0, 1.0, 0.0, 0.0, 0.0, 0.0001)",0
2018/12/16/17:23:06.335129,109712,1545002586,334975957,imu_link,0,1,30.627779007,-96.4820785522,48.8963508606,"(1.0, 0.0, 0.0, 0.0, 1.0, 0.0, 0.0, 0.0, 0.0001)",0
2018/12/16/17:23:06.345221,109713,1545002586,344988107,imu_link,0,1,30.627779007,-96.4820785522,48.8958778381,"(1.0, 0.0, 0.0, 0.0, 1.0, 0.0, 0.0, 0.0, 0.0001)",0
2018/12/16/17:23:06.355256,109714,1545002586,354989051,imu_link,0,1,30.627779007,-96.4820785522,48.8954277039,"(1.0, 0.0, 0.0, 0.0, 1.0, 0.0, 0.0, 0.0, 0.0001)",0
2018/12/16/17:23:06.365380,109715,1545002586,365094900,imu_link,0,1,30.627779007,-96.4820785522,48.8945045471,"(1.0, 0.0, 0.0, 0.0, 1.0, 0.0, 0.0, 0.0, 0.0001)",0
2018/12/16/17:23:06.375219,109716,1545002586,375003099,imu_link,0,1,30.6277809143,-96.4820785522,48.8936004639,"(1.0, 0.0, 0.0, 0.0, 1.0, 0.0, 0.0, 0.0, 0.0001)",0
2018/12/16/17:23:06.385226,109717,1545002586,385035037,imu_link,0,1,30.6277809143,-96.4820785522,48.8932151794,"(1.0, 0.0, 0.0, 0.0, 1.0, 0.0, 0.0, 0.0, 0.0001)",0
2018/12/16/17:23:06.395492,109718,1545002586,395288944,imu_link,0,1,30.6277809143,-96.4820785522,48.8974723816,"(1.0, 0.0, 0.0, 0.0, 1.0, 0.0, 0.0, 0.0, 0.0001)",0
2018/12/16/17:23:06.405202,109719,1545002586,405029058,imu_link,0,1,30.6277809143,-96.4820785522,48.9014816284,"(1.0, 0.0, 0.0, 0.0, 1.0, 0.0, 0.0, 0.0, 0.0001)",0
2018/12/16/17:23:06.415184,109720,1545002586,415034055,imu_link,0,1,30.6277828217,-96.4820785522,48.9008712769,"(1.0, 0.0, 0.0, 0.0, 1.0, 0.0, 0.0, 0.0, 0.0001)",0
2018/12/16/17:23:06.425263,109721,1545002586,425081014,imu_link,0,1,30.6277828217,-96.4820785522,48.9004592896,"(1.0, 0.0, 0.0, 0.0, 1.0, 0.0, 0.0, 0.0, 0.0001)",0
2018/12/16/17:23:06.435183,109722,1545002586,435045003,imu_link,0,1,30.6277828217,-96.4820785522,48.9000778198,"(1.0, 0.0, 0.0, 0.0, 1.0, 0.0, 0.0, 0.0, 0.0001)",0
2018/12/16/17:23:06.445264,109723,1545002586,445060014,imu_link,0,1,30.6277828217,-96.4820785522,48.8999519348,"(1.0, 0.0, 0.0, 0.0, 1.0, 0.0, 0.0, 0.0, 0.0001)",0
2018/12/16/17:23:06.455228,109724,1545002586,455010890,imu_link,0,1,30.627784729,-96.4820785522,48.8998146057,"(1.0, 0.0, 0.0, 0.0, 1.0, 0.0, 0.0, 0.0, 0.0001)",0
2018/12/16/17:23:06.465286,109725,1545002586,465096950,imu_link,0,1,30.627784729,-96.4820785522,48.8992118835,"(1.0, 0.0, 0.0, 0.0, 1.0, 0.0, 0.0, 0.0, 0.0001)",0
2018/12/16/17:23:06.475235,109726,1545002586,475009918,imu_link,0,1,30.627784729,-96.4820785522,48.8985900879,"(1.0, 0.0, 0.0, 0.0, 1.0, 0.0, 0.0, 0.0, 0.0001)",0
2018/12/16/17:23:06.485258,109727,1545002586,485076904,imu_link,0,1,30.627784729,-96.4820785522,48.8984222412,"(1.0, 0.0, 0.0, 0.0, 1.0, 0.0, 0.0, 0.0, 0.0001)",0
2018/12/16/17:23:06.495142,109728,1545002586,494982004,imu_link,0,1,30.6277866364,-96.4820785522,48.8982467651,"(1.0, 0.0, 0.0, 0.0, 1.0, 0.0, 0.0, 0.0, 0.0001)",0
2018/12/16/17:23:06.505283,109729,1545002586,505090951,imu_link,0,1,30.6277866364,-96.4820785522,48.8971481323,"(1.0, 0.0, 0.0, 0.0, 1.0, 0.0, 0.0, 0.0, 0.0001)",0
2018/12/16/17:23:06.515302,109730,1545002586,515115022,imu_link,0,1,30.6277866364,-96.4820785522,48.8960266113,"(1.0, 0.0, 0.0, 0.0, 1.0, 0.0, 0.0, 0.0, 0.0001)",0
2018/12/16/17:23:06.525364,109731,1545002586,525192975,imu_link,0,1,30.6277866364,-96.4820785522,48.8953437805,"(1.0, 0.0, 0.0, 0.0, 1.0, 0.0, 0.0, 0.0, 0.0001)",0
2018/12/16/17:23:06.535181,109732,1545002586,534979104,imu_link,0,1,30.6277885437,-96.4820785522,48.8946647644,"(1.0, 0.0, 0.0, 0.0, 1.0, 0.0, 0.0, 0.0, 0.0001)",0
2018/12/16/17:23:06.545210,109733,1545002586,545022964,imu_link,0,1,30.6277885437,-96.4820785522,48.8944625854,"(1.0, 0.0, 0.0, 0.0, 1.0, 0.0, 0.0, 0.0, 0.0001)",0
2018/12/16/17:23:06.555275,109734,1545002586,555046081,imu_link,0,1,30.6277885437,-96.4820785522,48.8942489624,"(1.0, 0.0, 0.0, 0.0, 1.0, 0.0, 0.0, 0.0, 0.0001)",0
2018/12/16/17:23:06.565274,109735,1545002586,565047025,imu_link,0,1,30.6277885437,-96.4820785522,48.8935470581,"(1.0, 0.0, 0.0, 0.0, 1.0, 0.0, 0.0, 0.0, 0.0001)",0
2018/12/16/17:23:06.575298,109736,1545002586,575128078,imu_link,0,1,30.627790451,-96.4820785522,48.8928375244,"(1.0, 0.0, 0.0, 0.0, 1.0, 0.0, 0.0, 0.0, 0.0001)",0
2018/12/16/17:23:06.585282,109737,1545002586,585088968,imu_link,0,1,30.627790451,-96.4820785522,48.8926315308,"(1.0, 0.0, 0.0, 0.0, 1.0, 0.0, 0.0, 0.0, 0.0001)",0
2018/12/16/17:23:06.595543,109738,1545002586,595355987,imu_link,0,1,30.627790451,-96.4820785522,48.8924407959,"(1.0, 0.0, 0.0, 0.0, 1.0, 0.0, 0.0, 0.0, 0.0001)",0
2018/12/16/17:23:06.605234,109739,1545002586,605048894,imu_link,0,1,30.627790451,-96.4820785522,48.8922386169,"(1.0, 0.0, 0.0, 0.0, 1.0, 0.0, 0.0, 0.0, 0.0001)",0
2018/12/16/17:23:06.615250,109740,1545002586,615019083,imu_link,0,1,30.627790451,-96.4820785522,48.8920173645,"(1.0, 0.0, 0.0, 0.0, 1.0, 0.0, 0.0, 0.0, 0.0001)",0
2018/12/16/17:23:06.625333,109741,1545002586,625160932,imu_link,0,1,30.6277923584,-96.4820785522,48.8915405273,"(1.0, 0.0, 0.0, 0.0, 1.0, 0.0, 0.0, 0.0, 0.0001)",0
2018/12/16/17:23:06.635347,109742,1545002586,635174989,imu_link,0,1,30.6277923584,-96.4820785522,48.8910369873,"(1.0, 0.0, 0.0, 0.0, 1.0, 0.0, 0.0, 0.0, 0.0001)",0
2018/12/16/17:23:06.645256,109743,1545002586,645075082,imu_link,0,1,30.6277923584,-96.4820785522,48.8909721375,"(1.0, 0.0, 0.0, 0.0, 1.0, 0.0, 0.0, 0.0, 0.0001)",0
2018/12/16/17:23:06.655193,109744,1545002586,654964923,imu_link,0,1,30.6277923584,-96.4820785522,48.8957481384,"(1.0, 0.0, 0.0, 0.0, 1.0, 0.0, 0.0, 0.0, 0.0001)",0
2018/12/16/17:23:06.665316,109745,1545002586,665112018,imu_link,0,1,30.6277942657,-96.4820785522,48.9000015259,"(1.0, 0.0, 0.0, 0.0, 1.0, 0.0, 0.0, 0.0, 0.0001)",0
2018/12/16/17:23:06.675333,109746,1545002586,675111055,imu_link,0,1,30.6277942657,-96.4820785522,48.8993644714,"(1.0, 0.0, 0.0, 0.0, 1.0, 0.0, 0.0, 0.0, 0.0001)",0
2018/12/16/17:23:06.685151,109747,1545002586,684993982,imu_link,0,1,30.6277942657,-96.4820785522,48.8995933533,"(1.0, 0.0, 0.0, 0.0, 1.0, 0.0, 0.0, 0.0, 0.0001)",0
2018/12/16/17:23:06.695163,109748,1545002586,694957971,imu_link,0,1,30.6277942657,-96.4820785522,48.899772644,"(1.0, 0.0, 0.0, 0.0, 1.0, 0.0, 0.0, 0.0, 0.0001)",0
2018/12/16/17:23:06.705312,109749,1545002586,705153942,imu_link,0,1,30.6277961731,-96.4820785522,48.8989830017,"(1.0, 0.0, 0.0, 0.0, 1.0, 0.0, 0.0, 0.0, 0.0001)",0
2018/12/16/17:23:06.715273,109750,1545002586,715127944,imu_link,0,1,30.6277961731,-96.4820785522,48.8981933594,"(1.0, 0.0, 0.0, 0.0, 1.0, 0.0, 0.0, 0.0, 0.0001)",0
2018/12/16/17:23:06.725356,109751,1545002586,725162982,imu_link,0,1,30.6277961731,-96.4820785522,48.8972434998,"(1.0, 0.0, 0.0, 0.0, 1.0, 0.0, 0.0, 0.0, 0.0001)",0
2018/12/16/17:23:06.735395,109752,1545002586,735059976,imu_link,0,1,30.6277961731,-96.4820785522,48.8963813782,"(1.0, 0.0, 0.0, 0.0, 1.0, 0.0, 0.0, 0.0, 0.0001)",0
2018/12/16/17:23:06.745326,109753,1545002586,745153903,imu_link,0,1,30.6277980804,-96.4820785522,48.8955421448,"(1.0, 0.0, 0.0, 0.0, 1.0, 0.0, 0.0, 0.0, 0.0001)",0
2018/12/16/17:23:06.755447,109754,1545002586,755249977,imu_link,0,1,30.6277980804,-96.4820785522,48.8946914673,"(1.0, 0.0, 0.0, 0.0, 1.0, 0.0, 0.0, 0.0, 0.0001)",0
2018/12/16/17:23:06.765368,109755,1545002586,765089988,imu_link,0,1,30.6277980804,-96.4820785522,48.8942871094,"(1.0, 0.0, 0.0, 0.0, 1.0, 0.0, 0.0, 0.0, 0.0001)",0
2018/12/16/17:23:06.775354,109756,1545002586,775082111,imu_link,0,1,30.6277980804,-96.4820785522,48.8938865662,"(1.0, 0.0, 0.0, 0.0, 1.0, 0.0, 0.0, 0.0, 0.0001)",0
2018/12/16/17:23:06.785254,109757,1545002586,785073041,imu_link,0,1,30.6277999878,-96.4820785522,48.8925514221,"(1.0, 0.0, 0.0, 0.0, 1.0, 0.0, 0.0, 0.0, 0.0001)",0
2018/12/16/17:23:06.795533,109758,1545002586,795332908,imu_link,0,1,30.6277999878,-96.4820785522,48.8912315369,"(1.0, 0.0, 0.0, 0.0, 1.0, 0.0, 0.0, 0.0, 0.0001)",0
2018/12/16/17:23:06.805241,109759,1545002586,805051088,imu_link,0,1,30.6277999878,-96.4820785522,48.8903846741,"(1.0, 0.0, 0.0, 0.0, 1.0, 0.0, 0.0, 0.0, 0.0001)",0
2018/12/16/17:23:06.815272,109760,1545002586,815043926,imu_link,0,1,30.6277999878,-96.4820785522,48.8895606995,"(1.0, 0.0, 0.0, 0.0, 1.0, 0.0, 0.0, 0.0, 0.0001)",0
2018/12/16/17:23:06.825327,109761,1545002586,825151920,imu_link,0,1,30.6278018951,-96.4820785522,48.8892097473,"(1.0, 0.0, 0.0, 0.0, 1.0, 0.0, 0.0, 0.0, 0.0001)",0
2018/12/16/17:23:06.835397,109762,1545002586,835170984,imu_link,0,1,30.6278018951,-96.4820785522,48.888874054,"(1.0, 0.0, 0.0, 0.0, 1.0, 0.0, 0.0, 0.0, 0.0001)",0
2018/12/16/17:23:06.845342,109763,1545002586,845139980,imu_link,0,1,30.6278018951,-96.4820785522,48.888053894,"(1.0, 0.0, 0.0, 0.0, 1.0, 0.0, 0.0, 0.0, 0.0001)",0
2018/12/16/17:23:06.855479,109764,1545002586,855288982,imu_link,0,1,30.6278018951,-96.4820785522,48.8872375488,"(1.0, 0.0, 0.0, 0.0, 1.0, 0.0, 0.0, 0.0, 0.0001)",0
2018/12/16/17:23:06.865304,109765,1545002586,865101099,imu_link,0,1,30.6278038025,-96.4820785522,48.8871536255,"(1.0, 0.0, 0.0, 0.0, 1.0, 0.0, 0.0, 0.0, 0.0001)",0
2018/12/16/17:23:06.875318,109766,1545002586,875112056,imu_link,0,1,30.6278038025,-96.4820785522,48.8870697021,"(1.0, 0.0, 0.0, 0.0, 1.0, 0.0, 0.0, 0.0, 0.0001)",0
2018/12/16/17:23:06.885291,109767,1545002586,885103940,imu_link,0,1,30.6278038025,-96.4820785522,48.8867149353,"(1.0, 0.0, 0.0, 0.0, 1.0, 0.0, 0.0, 0.0, 0.0001)",0
2018/12/16/17:23:06.895413,109768,1545002586,895198106,imu_link,0,1,30.6278038025,-96.4820785522,48.8918075562,"(1.0, 0.0, 0.0, 0.0, 1.0, 0.0, 0.0, 0.0, 0.0001)",0
2018/12/16/17:23:06.905279,109769,1545002586,905126094,imu_link,0,1,30.6278057098,-96.4820785522,48.8971252441,"(1.0, 0.0, 0.0, 0.0, 1.0, 0.0, 0.0, 0.0, 0.0001)",0
2018/12/16/17:23:06.915309,109770,1545002586,915075063,imu_link,0,1,30.6278057098,-96.4820785522,48.8970184326,"(1.0, 0.0, 0.0, 0.0, 1.0, 0.0, 0.0, 0.0, 0.0001)",0
2018/12/16/17:23:06.925291,109771,1545002586,925066947,imu_link,0,1,30.6278057098,-96.4820785522,48.8962364197,"(1.0, 0.0, 0.0, 0.0, 1.0, 0.0, 0.0, 0.0, 0.0001)",0
2018/12/16/17:23:06.935548,109772,1545002586,935311079,imu_link,0,1,30.6278057098,-96.4820785522,48.8954620361,"(1.0, 0.0, 0.0, 0.0, 1.0, 0.0, 0.0, 0.0, 0.0001)",0
2018/12/16/17:23:06.945232,109773,1545002586,945038080,imu_link,0,1,30.6278076172,-96.4820785522,48.8945007324,"(1.0, 0.0, 0.0, 0.0, 1.0, 0.0, 0.0, 0.0, 0.0001)",0
2018/12/16/17:23:06.955316,109774,1545002586,955125093,imu_link,0,1,30.6278076172,-96.4820785522,48.8935928345,"(1.0, 0.0, 0.0, 0.0, 1.0, 0.0, 0.0, 0.0, 0.0001)",0
2018/12/16/17:23:06.965507,109775,1545002586,965053081,imu_link,0,1,30.6278076172,-96.4820785522,48.8931694031,"(1.0, 0.0, 0.0, 0.0, 1.0, 0.0, 0.0, 0.0, 0.0001)",0
2018/12/16/17:23:06.975456,109776,1545002586,975265026,imu_link,0,1,30.6278076172,-96.4820785522,48.8927383423,"(1.0, 0.0, 0.0, 0.0, 1.0, 0.0, 0.0, 0.0, 0.0001)",0
2018/12/16/17:23:06.985354,109777,1545002586,985136985,imu_link,0,1,30.6278095245,-96.4820785522,48.8927764893,"(1.0, 0.0, 0.0, 0.0, 1.0, 0.0, 0.0, 0.0, 0.0001)",0
2018/12/16/17:23:06.995598,109778,1545002586,995384931,imu_link,0,1,30.6278095245,-96.4820785522,48.892829895,"(1.0, 0.0, 0.0, 0.0, 1.0, 0.0, 0.0, 0.0, 0.0001)",0
2018/12/16/17:23:07.005743,109779,1545002587,5511999,imu_link,0,1,30.6278095245,-96.4820785522,48.8929252625,"(1.0, 0.0, 0.0, 0.0, 1.0, 0.0, 0.0, 0.0, 0.0001)",0
2018/12/16/17:23:07.015709,109780,1545002587,15490055,imu_link,0,1,30.6278095245,-96.4820785522,48.8930282593,"(1.0, 0.0, 0.0, 0.0, 1.0, 0.0, 0.0, 0.0, 0.0001)",0
2018/12/16/17:23:07.025405,109781,1545002587,25217056,imu_link,0,1,30.6278114319,-96.4820785522,48.89220047,"(1.0, 0.0, 0.0, 0.0, 1.0, 0.0, 0.0, 0.0, 0.0001)",0
2018/12/16/17:23:07.035421,109782,1545002587,35202980,imu_link,0,1,30.6278114319,-96.4820785522,48.8913955688,"(1.0, 0.0, 0.0, 0.0, 1.0, 0.0, 0.0, 0.0, 0.0001)",0
2018/12/16/17:23:07.045346,109783,1545002587,45165061,imu_link,0,1,30.6278114319,-96.4820785522,48.8903465271,"(1.0, 0.0, 0.0, 0.0, 1.0, 0.0, 0.0, 0.0, 0.0001)",0
2018/12/16/17:23:07.055426,109784,1545002587,55229902,imu_link,0,1,30.6278114319,-96.4820785522,48.8892669678,"(1.0, 0.0, 0.0, 0.0, 1.0, 0.0, 0.0, 0.0, 0.0001)",0
2018/12/16/17:23:07.065660,109785,1545002587,65448999,imu_link,0,1,30.6278133392,-96.4820785522,48.8883934021,"(1.0, 0.0, 0.0, 0.0, 1.0, 0.0, 0.0, 0.0, 0.0001)",0
2018/12/16/17:23:07.075455,109786,1545002587,75254917,imu_link,0,1,30.6278133392,-96.4820785522,48.887550354,"(1.0, 0.0, 0.0, 0.0, 1.0, 0.0, 0.0, 0.0, 0.0001)",0
2018/12/16/17:23:07.085488,109787,1545002587,85246086,imu_link,0,1,30.6278133392,-96.4820785522,48.8874168396,"(1.0, 0.0, 0.0, 0.0, 1.0, 0.0, 0.0, 0.0, 0.0001)",0
2018/12/16/17:23:07.095364,109788,1545002587,95153093,imu_link,0,1,30.6278133392,-96.4820785522,48.8872528076,"(1.0, 0.0, 0.0, 0.0, 1.0, 0.0, 0.0, 0.0, 0.0001)",0
2018/12/16/17:23:07.105746,109789,1545002587,105549097,imu_link,0,1,30.6278152466,-96.4820785522,48.8863601685,"(1.0, 0.0, 0.0, 0.0, 1.0, 0.0, 0.0, 0.0, 0.0001)",0
2018/12/16/17:23:07.115292,109790,1545002587,115092992,imu_link,0,1,30.6278152466,-96.4820785522,48.8854598999,"(1.0, 0.0, 0.0, 0.0, 1.0, 0.0, 0.0, 0.0, 0.0001)",0
2018/12/16/17:23:07.125472,109791,1545002587,125283956,imu_link,0,1,30.6278152466,-96.4820785522,48.8852500916,"(1.0, 0.0, 0.0, 0.0, 1.0, 0.0, 0.0, 0.0, 0.0001)",0
2018/12/16/17:23:07.135250,109792,1545002587,135094881,imu_link,0,1,30.6278152466,-96.4820785522,48.8850135803,"(1.0, 0.0, 0.0, 0.0, 1.0, 0.0, 0.0, 0.0, 0.0001)",0
2018/12/16/17:23:07.145264,109793,1545002587,145061016,imu_link,0,1,30.6278171539,-96.4820785522,48.8897247314,"(1.0, 0.0, 0.0, 0.0, 1.0, 0.0, 0.0, 0.0, 0.0001)",0
2018/12/16/17:23:07.155401,109794,1545002587,155210018,imu_link,0,1,30.6278171539,-96.4820785522,48.8939208984,"(1.0, 0.0, 0.0, 0.0, 1.0, 0.0, 0.0, 0.0, 0.0001)",0
2018/12/16/17:23:07.165297,109795,1545002587,165102005,imu_link,0,1,30.6278171539,-96.4820785522,48.8931922913,"(1.0, 0.0, 0.0, 0.0, 1.0, 0.0, 0.0, 0.0, 0.0001)",0
2018/12/16/17:23:07.175332,109796,1545002587,175163030,imu_link,0,1,30.6278171539,-96.4820785522,48.8929672241,"(1.0, 0.0, 0.0, 0.0, 1.0, 0.0, 0.0, 0.0, 0.0001)",0
2018/12/16/17:23:07.185388,109797,1545002587,185149908,imu_link,0,1,30.6278190613,-96.4820785522,48.8924942017,"(1.0, 0.0, 0.0, 0.0, 1.0, 0.0, 0.0, 0.0, 0.0001)",0
2018/12/16/17:23:07.195737,109798,1545002587,195538997,imu_link,0,1,30.6278190613,-96.4820785522,48.8920440674,"(1.0, 0.0, 0.0, 0.0, 1.0, 0.0, 0.0, 0.0, 0.0001)",0
2018/12/16/17:23:07.205482,109799,1545002587,205303907,imu_link,0,1,30.6278190613,-96.4820785522,48.8911552429,"(1.0, 0.0, 0.0, 0.0, 1.0, 0.0, 0.0, 0.0, 0.0001)",0
2018/12/16/17:23:07.215344,109800,1545002587,215167999,imu_link,0,1,30.6278190613,-96.4820785522,48.8902702332,"(1.0, 0.0, 0.0, 0.0, 1.0, 0.0, 0.0, 0.0, 0.0001)",0
2018/12/16/17:23:07.225340,109801,1545002587,225147962,imu_link,0,1,30.6278209686,-96.4820785522,48.8891639709,"(1.0, 0.0, 0.0, 0.0, 1.0, 0.0, 0.0, 0.0, 0.0001)",0
2018/12/16/17:23:07.235346,109802,1545002587,235131025,imu_link,0,1,30.6278209686,-96.4820785522,48.8880691528,"(1.0, 0.0, 0.0, 0.0, 1.0, 0.0, 0.0, 0.0, 0.0001)",0
2018/12/16/17:23:07.245394,109803,1545002587,245199918,imu_link,0,1,30.6278209686,-96.4820785522,48.8878936768,"(1.0, 0.0, 0.0, 0.0, 1.0, 0.0, 0.0, 0.0, 0.0001)",0
2018/12/16/17:23:07.255384,109804,1545002587,255181074,imu_link,0,1,30.6278209686,-96.4820785522,48.8877372742,"(1.0, 0.0, 0.0, 0.0, 1.0, 0.0, 0.0, 0.0, 0.0001)",0
2018/12/16/17:23:07.265421,109805,1545002587,265182018,imu_link,0,1,30.627822876,-96.4820785522,48.8869171143,"(1.0, 0.0, 0.0, 0.0, 1.0, 0.0, 0.0, 0.0, 0.0001)",0
2018/12/16/17:23:07.275358,109806,1545002587,275166988,imu_link,0,1,30.627822876,-96.4820785522,48.8860969543,"(1.0, 0.0, 0.0, 0.0, 1.0, 0.0, 0.0, 0.0, 0.0001)",0
2018/12/16/17:23:07.285289,109807,1545002587,285109996,imu_link,0,1,30.627822876,-96.4820785522,48.8864402771,"(1.0, 0.0, 0.0, 0.0, 1.0, 0.0, 0.0, 0.0, 0.0001)",0
2018/12/16/17:23:07.295290,109808,1545002587,295108079,imu_link,0,1,30.627822876,-96.4820785522,48.8867912292,"(1.0, 0.0, 0.0, 0.0, 1.0, 0.0, 0.0, 0.0, 0.0001)",0
2018/12/16/17:23:07.305412,109809,1545002587,305224895,imu_link,0,1,30.6278247833,-96.4820785522,48.8864135742,"(1.0, 0.0, 0.0, 0.0, 1.0, 0.0, 0.0, 0.0, 0.0001)",0
2018/12/16/17:23:07.315477,109810,1545002587,315290927,imu_link,0,1,30.6278247833,-96.4820785522,48.8860397339,"(1.0, 0.0, 0.0, 0.0, 1.0, 0.0, 0.0, 0.0, 0.0001)",0
2018/12/16/17:23:07.325449,109811,1545002587,325256109,imu_link,0,1,30.6278247833,-96.4820785522,48.8859138489,"(1.0, 0.0, 0.0, 0.0, 1.0, 0.0, 0.0, 0.0, 0.0001)",0
2018/12/16/17:23:07.335458,109812,1545002587,335251092,imu_link,0,1,30.6278247833,-96.4820785522,48.885799408,"(1.0, 0.0, 0.0, 0.0, 1.0, 0.0, 0.0, 0.0, 0.0001)",0
2018/12/16/17:23:07.345348,109813,1545002587,345174074,imu_link,0,1,30.6278266907,-96.4820785522,48.8857078552,"(1.0, 0.0, 0.0, 0.0, 1.0, 0.0, 0.0, 0.0, 0.0001)",0
2018/12/16/17:23:07.355340,109814,1545002587,355079889,imu_link,0,1,30.6278266907,-96.4820785522,48.8856010437,"(1.0, 0.0, 0.0, 0.0, 1.0, 0.0, 0.0, 0.0, 0.0001)",0
2018/12/16/17:23:07.365438,109815,1545002587,365221023,imu_link,0,1,30.6278266907,-96.4820785522,48.8861885071,"(1.0, 0.0, 0.0, 0.0, 1.0, 0.0, 0.0, 0.0, 0.0001)",0
2018/12/16/17:23:07.375279,109816,1545002587,375070095,imu_link,0,1,30.6278266907,-96.4820785522,48.8868026733,"(1.0, 0.0, 0.0, 0.0, 1.0, 0.0, 0.0, 0.0, 0.0001)",0
2018/12/16/17:23:07.385417,109817,1545002587,385201930,imu_link,0,1,30.627828598,-96.4820785522,48.8874435425,"(1.0, 0.0, 0.0, 0.0, 1.0, 0.0, 0.0, 0.0, 0.0001)",0
2018/12/16/17:23:07.395562,109818,1545002587,395371913,imu_link,0,1,30.627828598,-96.4820785522,48.8881149292,"(1.0, 0.0, 0.0, 0.0, 1.0, 0.0, 0.0, 0.0, 0.0001)",0
2018/12/16/17:23:07.405519,109819,1545002587,405337095,imu_link,0,1,30.627828598,-96.4820785522,48.8894958496,"(1.0, 0.0, 0.0, 0.0, 1.0, 0.0, 0.0, 0.0, 0.0001)",0
2018/12/16/17:23:07.415740,109820,1545002587,415482997,imu_link,0,1,30.6278305054,-96.4820785522,48.8908882141,"(1.0, 0.0, 0.0, 0.0, 1.0, 0.0, 0.0, 0.0, 0.0001)",0
2018/12/16/17:23:07.425352,109821,1545002587,425173997,imu_link,0,1,30.6278305054,-96.4820785522,48.8908042908,"(1.0, 0.0, 0.0, 0.0, 1.0, 0.0, 0.0, 0.0, 0.0001)",0
2018/12/16/17:23:07.435588,109822,1545002587,435412883,imu_link,0,1,30.6278305054,-96.4820785522,48.8905677795,"(1.0, 0.0, 0.0, 0.0, 1.0, 0.0, 0.0, 0.0, 0.0001)",0
2018/12/16/17:23:07.445933,109823,1545002587,445730924,imu_link,0,1,30.6278305054,-96.4820785522,48.8902931213,"(1.0, 0.0, 0.0, 0.0, 1.0, 0.0, 0.0, 0.0, 0.0001)",0
2018/12/16/17:23:07.455539,109824,1545002587,455351114,imu_link,0,1,30.6278324127,-96.4820785522,48.8900108337,"(1.0, 0.0, 0.0, 0.0, 1.0, 0.0, 0.0, 0.0, 0.0001)",0
2018/12/16/17:23:07.465570,109825,1545002587,465377092,imu_link,0,1,30.6278324127,-96.4820785522,48.8897094727,"(1.0, 0.0, 0.0, 0.0, 1.0, 0.0, 0.0, 0.0, 0.0001)",0
2018/12/16/17:23:07.475274,109826,1545002587,475094079,imu_link,0,1,30.6278324127,-96.4820785522,48.8893890381,"(1.0, 0.0, 0.0, 0.0, 1.0, 0.0, 0.0, 0.0, 0.0001)",0
2018/12/16/17:23:07.485485,109827,1545002587,485279083,imu_link,0,1,30.6278324127,-96.4820785522,48.8890342712,"(1.0, 0.0, 0.0, 0.0, 1.0, 0.0, 0.0, 0.0, 0.0001)",0
2018/12/16/17:23:07.495410,109828,1545002587,495101928,imu_link,0,1,30.6278343201,-96.4820785522,48.8886642456,"(1.0, 0.0, 0.0, 0.0, 1.0, 0.0, 0.0, 0.0, 0.0001)",0
2018/12/16/17:23:07.505490,109829,1545002587,505316972,imu_link,0,1,30.6278343201,-96.4820785522,48.8878517151,"(1.0, 0.0, 0.0, 0.0, 1.0, 0.0, 0.0, 0.0, 0.0001)",0
2018/12/16/17:23:07.515562,109830,1545002587,515265941,imu_link,0,1,30.6278343201,-96.4820785522,48.8870315552,"(1.0, 0.0, 0.0, 0.0, 1.0, 0.0, 0.0, 0.0, 0.0001)",0
2018/12/16/17:23:07.525240,109831,1545002587,525068998,imu_link,0,1,30.6278343201,-96.4820785522,48.8868751526,"(1.0, 0.0, 0.0, 0.0, 1.0, 0.0, 0.0, 0.0, 0.0001)",0
2018/12/16/17:23:07.535552,109832,1545002587,535356044,imu_link,0,1,30.6278362274,-96.4820785522,48.8867034912,"(1.0, 0.0, 0.0, 0.0, 1.0, 0.0, 0.0, 0.0, 0.0001)",0
2018/12/16/17:23:07.545378,109833,1545002587,545099020,imu_link,0,1,30.6278362274,-96.4820785522,48.8858451843,"(1.0, 0.0, 0.0, 0.0, 1.0, 0.0, 0.0, 0.0, 0.0001)",0
2018/12/16/17:23:07.555355,109834,1545002587,555176973,imu_link,0,1,30.6278362274,-96.4820785522,48.8849716187,"(1.0, 0.0, 0.0, 0.0, 1.0, 0.0, 0.0, 0.0, 0.0001)",0
2018/12/16/17:23:07.565349,109835,1545002587,565140962,imu_link,0,1,30.6278362274,-96.4820785522,48.884059906,"(1.0, 0.0, 0.0, 0.0, 1.0, 0.0, 0.0, 0.0, 0.0001)",0
2018/12/16/17:23:07.575369,109836,1545002587,575145006,imu_link,0,1,30.6278381348,-96.4820785522,48.8831291199,"(1.0, 0.0, 0.0, 0.0, 1.0, 0.0, 0.0, 0.0, 0.0001)",0
2018/12/16/17:23:07.585717,109837,1545002587,585386037,imu_link,0,1,30.6278381348,-96.4820785522,48.8829307556,"(1.0, 0.0, 0.0, 0.0, 1.0, 0.0, 0.0, 0.0, 0.0001)",0
2018/12/16/17:23:07.595260,109838,1545002587,595052957,imu_link,0,1,30.6278381348,-96.4820785522,48.8827552795,"(1.0, 0.0, 0.0, 0.0, 1.0, 0.0, 0.0, 0.0, 0.0001)",0
2018/12/16/17:23:07.605417,109839,1545002587,605223894,imu_link,0,1,30.6278381348,-96.4820785522,48.8813896179,"(1.0, 0.0, 0.0, 0.0, 1.0, 0.0, 0.0, 0.0, 0.0001)",0
2018/12/16/17:23:07.615282,109840,1545002587,615081071,imu_link,0,1,30.6278400421,-96.4820785522,48.8800239563,"(1.0, 0.0, 0.0, 0.0, 1.0, 0.0, 0.0, 0.0, 0.0001)",0
2018/12/16/17:23:07.625501,109841,1545002587,625314950,imu_link,0,1,30.6278400421,-96.4820785522,48.8791503906,"(1.0, 0.0, 0.0, 0.0, 1.0, 0.0, 0.0, 0.0, 0.0001)",0
2018/12/16/17:23:07.635484,109842,1545002587,635310888,imu_link,0,1,30.6278400421,-96.4820785522,48.8782920837,"(1.0, 0.0, 0.0, 0.0, 1.0, 0.0, 0.0, 0.0, 0.0001)",0
2018/12/16/17:23:07.645320,109843,1545002587,645123004,imu_link,0,1,30.6278400421,-96.4820785522,48.8774757385,"(1.0, 0.0, 0.0, 0.0, 1.0, 0.0, 0.0, 0.0, 0.0001)",0
2018/12/16/17:23:07.655461,109844,1545002587,655221939,imu_link,0,1,30.6278419495,-96.4820785522,48.8800926208,"(1.0, 0.0, 0.0, 0.0, 1.0, 0.0, 0.0, 0.0, 0.0001)",0
2018/12/16/17:23:07.665425,109845,1545002587,665194988,imu_link,0,1,30.6278419495,-96.4820785522,48.883190155,"(1.0, 0.0, 0.0, 0.0, 1.0, 0.0, 0.0, 0.0, 0.0001)",0
2018/12/16/17:23:07.675383,109846,1545002587,675182104,imu_link,0,1,30.6278419495,-96.4820785522,48.8828544617,"(1.0, 0.0, 0.0, 0.0, 1.0, 0.0, 0.0, 0.0, 0.0001)",0
2018/12/16/17:23:07.685396,109847,1545002587,685199975,imu_link,0,1,30.6278438568,-96.4820785522,48.882522583,"(1.0, 0.0, 0.0, 0.0, 1.0, 0.0, 0.0, 0.0, 0.0001)",0
