time,.header.seq,.header.stamp.secs,.header.stamp.nsecs,.header.frame_id,.twist.linear.x,.twist.linear.y,.twist.linear.z,.twist.angular.x,.twist.angular.y,.twist.angular.z
2018/12/16/17:23:03.762167,54757,1545002583,637495390,base_footprint,4.29722213745,0.0,0.0,0.0,0.0,0.0161825571024
2018/12/16/17:23:03.762494,54758,1545002583,657040342,base_footprint,4.28888893127,0.0,0.0,0.0,0.0,0.0165061746191
2018/12/16/17:23:03.762628,54759,1545002583,677062097,base_footprint,4.28888893127,0.0,0.0,0.0,0.0,0.0166836747332
2018/12/16/17:23:03.762666,54760,1545002583,697090674,base_footprint,4.28888893127,0.0,0.0,0.0,0.0,0.0166836747332
2018/12/16/17:23:03.762691,54761,1545002583,717109750,base_footprint,4.28888893127,0.0,0.0,0.0,0.0,0.0168611753115
2018/12/16/17:23:03.762748,54762,1545002583,737176818,base_footprint,4.28888893127,0.0,0.0,0.0,0.0,0.0168611753115
2018/12/16/17:23:03.763192,54763,1545002583,757199489,base_footprint,4.28611087799,0.0,0.0,0.0,0.0,0.0166728681728
2018/12/16/17:23:03.777680,54764,1545002583,777235705,base_footprint,4.28611087799,0.0,0.0,0.0,0.0,0.0166728681728
2018/12/16/17:23:03.801278,54765,1545002583,797722650,base_footprint,4.28611087799,0.0,0.0,0.0,0.0,0.0163180983486
2018/12/16/17:23:03.818328,54766,1545002583,817297024,base_footprint,4.28611087799,0.0,0.0,0.0,0.0,0.0154311816454
2018/12/16/17:23:03.838933,54767,1545002583,837318568,base_footprint,4.28611087799,0.0,0.0,0.0,0.0,0.0147216545245
2018/12/16/17:23:03.857670,54768,1545002583,857363335,base_footprint,4.28333330154,0.0,0.0,0.0,0.0,0.0136485277573
2018/12/16/17:23:03.878943,54769,1545002583,877403625,base_footprint,4.28333330154,0.0,0.0,0.0,0.0,0.01240769325
2018/12/16/17:23:03.897676,54770,1545002583,897431841,base_footprint,4.28333330154,0.0,0.0,0.0,0.0,0.011166875654
2018/12/16/17:23:03.917693,54771,1545002583,917437654,base_footprint,4.28333330154,0.0,0.0,0.0,0.0,0.00992607327796
2018/12/16/17:23:03.937741,54772,1545002583,937489150,base_footprint,4.28333330154,0.0,0.0,0.0,0.0,0.0085080299948
2018/12/16/17:23:03.957984,54773,1545002583,957515339,base_footprint,4.28333330154,0.0,0.0,0.0,0.0,0.00709000185716
2018/12/16/17:23:03.977789,54774,1545002583,977542337,base_footprint,4.2805557251,0.0,0.0,0.0,0.0,0.0058454445767
2018/12/16/17:23:04.002941,54775,1545002583,997594639,base_footprint,4.2805557251,0.0,0.0,0.0,0.0,0.00460549323385
2018/12/16/17:23:04.033172,54776,1545002584,17619292,base_footprint,4.28333330154,0.0,0.0,0.0,0.0,0.00372223088177
2018/12/16/17:23:04.038880,54777,1545002584,37648765,base_footprint,4.28333330154,0.0,0.0,0.0,0.0,0.00248148449926
2018/12/16/17:23:04.058040,54778,1545002584,57699941,base_footprint,4.28333330154,0.0,0.0,0.0,0.0,0.00177248813924
2018/12/16/17:23:04.077962,54779,1545002584,77713252,base_footprint,4.28611087799,0.0,0.0,0.0,0.0,0.00124154597709
2018/12/16/17:23:04.098014,54780,1545002584,97745954,base_footprint,4.28888893127,0.0,0.0,0.0,0.0,0.000887393249956
2018/12/16/17:23:04.118228,54781,1545002584,117781272,base_footprint,4.28888893127,0.0,0.0,0.0,0.0,0.000532435910483
2018/12/16/17:23:04.138195,54782,1545002584,137848483,base_footprint,4.29166650772,0.0,0.0,0.0,0.0,0.000532780727397
2018/12/16/17:23:04.158350,54783,1545002584,157886384,base_footprint,4.294444561,0.0,0.0,0.0,0.0,0.000710834161074
2018/12/16/17:23:04.178368,54784,1545002584,177885556,base_footprint,4.30000019073,0.0,0.0,0.0,0.0,0.00106763072669
2018/12/16/17:23:04.198322,54785,1545002584,198011535,base_footprint,4.30277776718,0.0,0.0,0.0,0.0,0.00160248097019
2018/12/16/17:23:04.218315,54786,1545002584,217983585,base_footprint,4.31111097336,0.0,0.0,0.0,0.0,0.00214077983325
2018/12/16/17:23:04.238279,54787,1545002584,238019468,base_footprint,4.31666660309,0.0,0.0,0.0,0.0,0.00267942436024
2018/12/16/17:23:04.258368,54788,1545002584,258030250,base_footprint,4.32499980927,0.0,0.0,0.0,0.0,0.0032215178532
2018/12/16/17:23:04.278460,54789,1545002584,278067623,base_footprint,4.33333349228,0.0,0.0,0.0,0.0,0.00376568121378
2018/12/16/17:23:04.298423,54790,1545002584,298086693,base_footprint,4.34166669846,0.0,0.0,0.0,0.0,0.00395258686808
2018/12/16/17:23:04.318542,54791,1545002584,318144841,base_footprint,4.34999990463,0.0,0.0,0.0,0.0,0.00432019067802
2018/12/16/17:23:04.338440,54792,1545002584,338166364,base_footprint,4.35833311081,0.0,0.0,0.0,0.0,0.00432846677927
2018/12/16/17:23:04.358522,54793,1545002584,358188416,base_footprint,4.36388874054,0.0,0.0,0.0,0.0,0.00433398433796
2018/12/16/17:23:04.378529,54794,1545002584,378220049,base_footprint,4.36944437027,0.0,0.0,0.0,0.0,0.00415868850802
2018/12/16/17:23:04.398731,54795,1545002584,398271960,base_footprint,4.37777757645,0.0,0.0,0.0,0.0,0.00398546165835
2018/12/16/17:23:04.418578,54796,1545002584,418293458,base_footprint,4.38611125946,0.0,0.0,0.0,0.0,0.00363004251559
2018/12/16/17:23:04.438689,54797,1545002584,438318240,base_footprint,4.39444446564,0.0,0.0,0.0,0.0,0.00309139687819
2018/12/16/17:23:04.458650,54798,1545002584,458342725,base_footprint,4.40000009537,0.0,0.0,0.0,0.0,0.00236699675733
2018/12/16/17:23:04.478724,54799,1545002584,478400873,base_footprint,4.40833330154,0.0,0.0,0.0,0.0,0.00145937131421
2018/12/16/17:23:04.498746,54800,1545002584,498433733,base_footprint,4.419444561,0.0,0.0,0.0,0.0,0.000548643489345
2018/12/16/17:23:04.518927,54801,1545002584,518449369,base_footprint,4.42777776718,0.0,0.0,0.0,0.0,-0.000183225992966
2018/12/16/17:23:04.538834,54802,1545002584,538506833,base_footprint,4.43333339691,0.0,0.0,0.0,0.0,-0.00110073552238
2018/12/16/17:23:04.559190,54803,1545002584,558547999,base_footprint,4.44166660309,0.0,0.0,0.0,0.0,-0.00202180922267
2018/12/16/17:23:04.578937,54804,1545002584,578573491,base_footprint,4.44999980927,0.0,0.0,0.0,0.0,-0.00313047886391
2018/12/16/17:23:04.599351,54805,1545002584,598590815,base_footprint,4.45833349228,0.0,0.0,0.0,0.0,-0.00424329015044
2018/12/16/17:23:04.619232,54806,1545002584,618609996,base_footprint,4.46666669846,0.0,0.0,0.0,0.0,-0.00536024322381
2018/12/16/17:23:04.639662,54807,1545002584,638667018,base_footprint,4.47777795792,0.0,0.0,0.0,0.0,-0.00648536372499
2018/12/16/17:23:04.659383,54808,1545002584,658696555,base_footprint,4.48611116409,0.0,0.0,0.0,0.0,-0.00761129462014
2018/12/16/17:23:04.679041,54809,1545002584,678724701,base_footprint,4.5,0.0,0.0,0.0,0.0,-0.00837973696363
2018/12/16/17:23:04.699260,54810,1545002584,698749069,base_footprint,4.51111125946,0.0,0.0,0.0,0.0,-0.00914714817365
2018/12/16/17:23:04.719298,54811,1545002584,718784471,base_footprint,4.52222204208,0.0,0.0,0.0,0.0,-0.00973110042453
2018/12/16/17:23:04.739112,54812,1545002584,738813471,base_footprint,4.53611087799,0.0,0.0,0.0,0.0,-0.0103241358876
2018/12/16/17:23:04.759638,54813,1545002584,758860508,base_footprint,4.55000019073,0.0,0.0,0.0,0.0,-0.01073233139
2018/12/16/17:23:04.779189,54814,1545002584,778902195,base_footprint,4.56111097336,0.0,0.0,0.0,0.0,-0.0109472910289
2018/12/16/17:23:04.799299,54815,1545002584,798985585,base_footprint,4.57222223282,0.0,0.0,0.0,0.0,-0.0109739595734
2018/12/16/17:23:04.819479,54816,1545002584,818985440,base_footprint,4.580555439,0.0,0.0,0.0,0.0,-0.0109939604095
2018/12/16/17:23:04.839360,54817,1545002584,838980049,base_footprint,4.5944442749,0.0,0.0,0.0,0.0,-0.0108371640537
2018/12/16/17:23:04.859454,54818,1545002584,859017896,base_footprint,4.60555553436,0.0,0.0,0.0,0.0,-0.0106727818037
2018/12/16/17:23:04.879354,54819,1545002584,879060983,base_footprint,4.61111116409,0.0,0.0,0.0,0.0,-0.0103040153743
2018/12/16/17:23:04.899360,54820,1545002584,899083672,base_footprint,4.61666679382,0.0,0.0,0.0,0.0,-0.00974328028931
2018/12/16/17:23:04.919699,54821,1545002584,919154560,base_footprint,4.63055562973,0.0,0.0,0.0,0.0,-0.00958096824851
2018/12/16/17:23:04.939805,54822,1545002584,939162802,base_footprint,4.63888883591,0.0,0.0,0.0,0.0,-0.00921427369292
2018/12/16/17:23:04.960089,54823,1545002584,959195293,base_footprint,4.64722204208,0.0,0.0,0.0,0.0,-0.00865388851649
2018/12/16/17:23:04.979711,54824,1545002584,979227900,base_footprint,4.6555557251,0.0,0.0,0.0,0.0,-0.00866940719907
2018/12/16/17:23:04.999600,54825,1545002584,999297610,base_footprint,4.66111087799,0.0,0.0,0.0,0.0,-0.00867975180352
2018/12/16/17:23:05.019757,54826,1545002585,19305351,base_footprint,4.669444561,0.0,0.0,0.0,0.0,-0.0086952704861
2018/12/16/17:23:05.039847,54827,1545002585,39327548,base_footprint,4.67777776718,0.0,0.0,0.0,0.0,-0.00871078828073
2018/12/16/17:23:05.059646,54828,1545002585,59354630,base_footprint,4.68611097336,0.0,0.0,0.0,0.0,-0.00872630607536
2018/12/16/17:23:05.079826,54829,1545002585,79375298,base_footprint,4.69444465637,0.0,0.0,0.0,0.0,-0.00893609118944
2018/12/16/17:23:05.100213,54830,1545002585,99891463,base_footprint,4.69999980927,0.0,0.0,0.0,0.0,-0.00914116224311
2018/12/16/17:23:05.119880,54831,1545002585,119459914,base_footprint,4.70277786255,0.0,0.0,0.0,0.0,-0.00953578917972
2018/12/16/17:23:05.139807,54832,1545002585,139477951,base_footprint,4.71388912201,0.0,0.0,0.0,0.0,-0.0101435374047
2018/12/16/17:23:05.162959,54833,1545002585,159503464,base_footprint,4.7194442749,0.0,0.0,0.0,0.0,-0.0105460971632
2018/12/16/17:23:05.179935,54834,1545002585,179565871,base_footprint,4.72777795792,0.0,0.0,0.0,0.0,-0.0111516654189
2018/12/16/17:23:05.199943,54835,1545002585,199575664,base_footprint,4.73611116409,0.0,0.0,0.0,0.0,-0.0117593053496
2018/12/16/17:23:05.219961,54836,1545002585,219642852,base_footprint,4.73888874054,0.0,0.0,0.0,0.0,-0.0123545326918
2018/12/16/17:23:05.240566,54837,1545002585,239647891,base_footprint,4.74722242355,0.0,0.0,0.0,0.0,-0.012769171096
2018/12/16/17:23:05.260008,54838,1545002585,259700851,base_footprint,4.75555562973,0.0,0.0,0.0,0.0,-0.0129883873296
2018/12/16/17:23:05.280464,54839,1545002585,279752783,base_footprint,4.75833320618,0.0,0.0,0.0,0.0,-0.0127990570949
2018/12/16/17:23:05.300099,54840,1545002585,299746351,base_footprint,4.76111125946,0.0,0.0,0.0,0.0,-0.0126094985878
2018/12/16/17:23:05.320211,54841,1545002585,319860093,base_footprint,4.76388883591,0.0,0.0,0.0,0.0,-0.01222256404
2018/12/16/17:23:05.340186,54842,1545002585,339815895,base_footprint,4.76666688919,0.0,0.0,0.0,0.0,-0.01144065338
2018/12/16/17:23:05.360235,54843,1545002585,359852061,base_footprint,4.76944446564,0.0,0.0,0.0,0.0,-0.010460455613
2018/12/16/17:23:05.380431,54844,1545002585,380118251,base_footprint,4.77222204208,0.0,0.0,0.0,0.0,-0.00947911484293
2018/12/16/17:23:05.400557,54845,1545002585,400174047,base_footprint,4.77500009537,0.0,0.0,0.0,0.0,-0.00810143378255
2018/12/16/17:23:05.420625,54846,1545002585,420190654,base_footprint,4.77777767181,0.0,0.0,0.0,0.0,-0.00691986657
2018/12/16/17:23:05.440755,54847,1545002585,440441580,base_footprint,4.7805557251,0.0,0.0,0.0,0.0,-0.00553910070966
2018/12/16/17:23:05.460673,54848,1545002585,460410661,base_footprint,4.7805557251,0.0,0.0,0.0,0.0,-0.00435214471619
2018/12/16/17:23:05.480772,54849,1545002585,480415420,base_footprint,4.78333330154,0.0,0.0,0.0,0.0,-0.00316703168394
2018/12/16/17:23:05.500699,54850,1545002585,500424907,base_footprint,4.78888893127,0.0,0.0,0.0,0.0,-0.00237803130355
2018/12/16/17:23:05.520714,54851,1545002585,520434608,base_footprint,4.78888893127,0.0,0.0,0.0,0.0,-0.00178352306254
2018/12/16/17:23:05.540779,54852,1545002585,540459561,base_footprint,4.79166650772,0.0,0.0,0.0,0.0,-0.00178455751369
2018/12/16/17:23:05.560659,54853,1545002585,560407941,base_footprint,4.794444561,0.0,0.0,0.0,0.0,-0.00178559214242
2018/12/16/17:23:05.580747,54854,1545002585,580442508,base_footprint,4.80000019073,0.0,0.0,0.0,0.0,-0.00198629030418
2018/12/16/17:23:05.601020,54855,1545002585,600719478,base_footprint,4.80277776718,0.0,0.0,0.0,0.0,-0.00218618398269
2018/12/16/17:23:05.620790,54856,1545002585,620497842,base_footprint,4.80277776718,0.0,0.0,0.0,0.0,-0.00278241681037
2018/12/16/17:23:05.640988,54857,1545002585,640530659,base_footprint,4.80555534363,0.0,0.0,0.0,0.0,-0.00338060451177
2018/12/16/17:23:05.660937,54858,1545002585,660564668,base_footprint,4.81111097336,0.0,0.0,0.0,0.0,-0.00418087143352
2018/12/16/17:23:05.680886,54859,1545002585,680585799,base_footprint,4.81388902664,0.0,0.0,0.0,0.0,-0.00478090090893
2018/12/16/17:23:05.701149,54860,1545002585,700648762,base_footprint,4.81666660309,0.0,0.0,0.0,0.0,-0.00558094140798
2018/12/16/17:23:05.720888,54861,1545002585,720653918,base_footprint,4.81666660309,0.0,0.0,0.0,0.0,-0.00617890459221
2018/12/16/17:23:05.740988,54862,1545002585,740662043,base_footprint,4.81944465637,0.0,0.0,0.0,0.0,-0.00698021470533
2018/12/16/17:23:05.761106,54863,1545002585,760723963,base_footprint,4.82222223282,0.0,0.0,0.0,0.0,-0.00758289432414
2018/12/16/17:23:05.781038,54864,1545002585,780767962,base_footprint,4.82222223282,0.0,0.0,0.0,0.0,-0.00818155252851
2018/12/16/17:23:05.801759,54865,1545002585,800881376,base_footprint,4.82499980927,0.0,0.0,0.0,0.0,-0.0089849398336
2018/12/16/17:23:05.821054,54866,1545002585,820812250,base_footprint,4.82777786255,0.0,0.0,0.0,0.0,-0.00958946595353
2018/12/16/17:23:05.841181,54867,1545002585,840859310,base_footprint,4.82777786255,0.0,0.0,0.0,0.0,-0.0105883937647
2018/12/16/17:23:05.861333,54868,1545002585,860868814,base_footprint,4.82777786255,0.0,0.0,0.0,0.0,-0.0111877534293
2018/12/16/17:23:05.881542,54869,1545002585,880978751,base_footprint,4.82777786255,0.0,0.0,0.0,0.0,-0.0123864821637
2018/12/16/17:23:05.901342,54870,1545002585,901009700,base_footprint,4.82777786255,0.0,0.0,0.0,0.0,-0.013785014639
2018/12/16/17:23:05.921453,54871,1545002585,920983378,base_footprint,4.82777786255,0.0,0.0,0.0,0.0,-0.0151835659028
2018/12/16/17:23:05.941251,54872,1545002585,941018750,base_footprint,4.830555439,0.0,0.0,0.0,0.0,-0.0163917650861
2018/12/16/17:23:05.961304,54873,1545002585,961021877,base_footprint,4.830555439,0.0,0.0,0.0,0.0,-0.0175912467951
2018/12/16/17:23:05.981275,54874,1545002585,981043685,base_footprint,4.83333349228,0.0,0.0,0.0,0.0,-0.0186015184572
2018/12/16/17:23:06.001384,54875,1545002586,1090646,base_footprint,4.83611106873,0.0,0.0,0.0,0.0,-0.0190125036722
2018/12/16/17:23:06.021548,54876,1545002586,21127753,base_footprint,4.83888912201,0.0,0.0,0.0,0.0,-0.0190234252055
2018/12/16/17:23:06.041514,54877,1545002586,41148692,base_footprint,4.8444442749,0.0,0.0,0.0,0.0,-0.0188447716509
2018/12/16/17:23:06.061511,54878,1545002586,61201024,base_footprint,4.84722232819,0.0,0.0,0.0,0.0,-0.0182537578009
2018/12/16/17:23:06.081636,54879,1545002586,81225610,base_footprint,4.84999990463,0.0,0.0,0.0,0.0,-0.0168591811642
2018/12/16/17:23:06.101533,54880,1545002586,101274071,base_footprint,4.85555553436,0.0,0.0,0.0,0.0,-0.0154718719797
2018/12/16/17:23:06.121574,54881,1545002586,121278066,base_footprint,4.85833311081,0.0,0.0,0.0,0.0,-0.013269093484
2018/12/16/17:23:06.141529,54882,1545002586,141312757,base_footprint,4.85555553436,0.0,0.0,0.0,0.0,-0.0112521246063
2018/12/16/17:23:06.161657,54883,1545002586,161352390,base_footprint,4.86111116409,0.0,0.0,0.0,0.0,-0.00905218509023
2018/12/16/17:23:06.181649,54884,1545002586,181371029,base_footprint,4.86944437027,0.0,0.0,0.0,0.0,-0.0072541379651
2018/12/16/17:23:06.201728,54885,1545002586,201423391,base_footprint,4.87222242355,0.0,0.0,0.0,0.0,-0.00564531243559
2018/12/16/17:23:06.221803,54886,1545002586,221435837,base_footprint,4.875,0.0,0.0,0.0,0.0,-0.00403465763103
2018/12/16/17:23:06.241713,54887,1545002586,241482077,base_footprint,4.88055562973,0.0,0.0,0.0,0.0,-0.00262551343163
2018/12/16/17:23:06.261900,54888,1545002586,261509356,base_footprint,4.88333320618,0.0,0.0,0.0,0.0,-0.00141454173013
2018/12/16/17:23:06.282204,54889,1545002586,281552066,base_footprint,4.88888883591,0.0,0.0,0.0,0.0,-0.000202307242721
2018/12/16/17:23:06.301847,54890,1545002586,301554353,base_footprint,4.89166688919,0.0,0.0,0.0,0.0,0.000607266626779
2018/12/16/17:23:06.322130,54891,1545002586,321775859,base_footprint,4.89444446564,0.0,0.0,0.0,0.0,0.00141776029817
2018/12/16/17:23:06.342083,54892,1545002586,341802599,base_footprint,4.89722204208,0.0,0.0,0.0,0.0,0.00202652172356
2018/12/16/17:23:06.362049,54893,1545002586,361805210,base_footprint,4.90277767181,0.0,0.0,0.0,0.0,0.00284035024581
2018/12/16/17:23:06.382187,54894,1545002586,381779791,base_footprint,4.90833330154,0.0,0.0,0.0,0.0,0.00304668139229
2018/12/16/17:23:06.402130,54895,1545002586,401770672,base_footprint,4.91388893127,0.0,0.0,0.0,0.0,0.00345681485355
2018/12/16/17:23:06.422039,54896,1545002586,421768073,base_footprint,4.92222213745,0.0,0.0,0.0,0.0,0.00366636466879
2018/12/16/17:23:06.442053,54897,1545002586,441795518,base_footprint,4.93055534363,0.0,0.0,0.0,0.0,0.00367257173784
2018/12/16/17:23:06.462133,54898,1545002586,461832116,base_footprint,4.93611097336,0.0,0.0,0.0,0.0,0.00367670990227
2018/12/16/17:23:06.482288,54899,1545002586,481856948,base_footprint,4.94722223282,0.0,0.0,0.0,0.0,0.00368498623113
2018/12/16/17:23:06.502643,54900,1545002586,501889479,base_footprint,4.955555439,0.0,0.0,0.0,0.0,0.00369119330018
2018/12/16/17:23:06.522256,54901,1545002586,521975651,base_footprint,4.96111106873,0.0,0.0,0.0,0.0,0.00369533146461
2018/12/16/17:23:06.542278,54902,1545002586,541991602,base_footprint,4.97222232819,0.0,0.0,0.0,0.0,0.00370360779346
2018/12/16/17:23:06.562328,54903,1545002586,562005156,base_footprint,4.98055553436,0.0,0.0,0.0,0.0,0.00370981486252
2018/12/16/17:23:06.582697,54904,1545002586,582030362,base_footprint,4.98611116409,0.0,0.0,0.0,0.0,0.00371395302694
2018/12/16/17:23:06.602506,54905,1545002586,602029457,base_footprint,4.99444437027,0.0,0.0,0.0,0.0,0.003720160096
2018/12/16/17:23:06.622379,54906,1545002586,622082466,base_footprint,5.00277757645,0.0,0.0,0.0,0.0,0.00351934609779
2018/12/16/17:23:06.642580,54907,1545002586,642295762,base_footprint,5.00833320618,0.0,0.0,0.0,0.0,0.00331600349542
2018/12/16/17:23:06.662658,54908,1545002586,662305337,base_footprint,5.01666688919,0.0,0.0,0.0,0.0,0.00290633024495
2018/12/16/17:23:06.682625,54909,1545002586,682317277,base_footprint,5.02500009537,0.0,0.0,0.0,0.0,0.00249527765179
2018/12/16/17:23:06.702630,54910,1545002586,702359885,base_footprint,5.03333330154,0.0,0.0,0.0,0.0,0.00208284598694
2018/12/16/17:23:06.722790,54911,1545002586,722490790,base_footprint,5.04166650772,0.0,0.0,0.0,0.0,0.00146040570313
2018/12/16/17:23:06.742952,54912,1545002586,742530691,base_footprint,5.05000019073,0.0,0.0,0.0,0.0,0.00083589684254
2018/12/16/17:23:06.763682,54913,1545002586,762573678,base_footprint,5.05555534363,0.0,0.0,0.0,0.0,0.000418408153895
2018/12/16/17:23:06.783211,54914,1545002586,782685464,base_footprint,5.06111097336,0.0,0.0,0.0,0.0,-0.000209433971704
2018/12/16/17:23:06.802955,54915,1545002586,802581162,base_footprint,5.06944465637,0.0,0.0,0.0,0.0,-0.000839115370623
2018/12/16/17:23:06.823578,54916,1545002586,822608814,base_footprint,5.07777786255,0.0,0.0,0.0,0.0,-0.0014708659802
2018/12/16/17:23:06.842858,54917,1545002586,842569737,base_footprint,5.08611106873,0.0,0.0,0.0,0.0,-0.00210468597925
2018/12/16/17:23:06.863302,54918,1545002586,862548451,base_footprint,5.09722232819,0.0,0.0,0.0,0.0,-0.00274207010471
2018/12/16/17:23:06.882939,54919,1545002586,882538894,base_footprint,5.11111116409,0.0,0.0,0.0,0.0,-0.00338405249569
2018/12/16/17:23:06.903389,54920,1545002586,902646408,base_footprint,5.11666679382,0.0,0.0,0.0,0.0,-0.00381119864788
2018/12/16/17:23:06.922923,54921,1545002586,922563498,base_footprint,5.125,0.0,0.0,0.0,0.0,-0.0044536420414
2018/12/16/17:23:06.942940,54922,1545002586,942587928,base_footprint,5.13611125946,0.0,0.0,0.0,0.0,-0.00446329776282
2018/12/16/17:23:06.963226,54923,1545002586,962612882,base_footprint,5.14444446564,0.0,0.0,0.0,0.0,-0.00468342345249
2018/12/16/17:23:06.983025,54924,1545002586,982635314,base_footprint,5.15277767181,0.0,0.0,0.0,0.0,-0.00469100987576
2018/12/16/17:23:07.003006,54925,1545002587,2667656,base_footprint,5.15833330154,0.0,0.0,0.0,0.0,-0.00448260879128
2018/12/16/17:23:07.023267,54926,1545002587,22950911,base_footprint,5.16666650772,0.0,0.0,0.0,0.0,-0.00448985037515
2018/12/16/17:23:07.043254,54927,1545002587,43005426,base_footprint,5.17222213745,0.0,0.0,0.0,0.0,-0.0042806452341
2018/12/16/17:23:07.063434,54928,1545002587,62771793,base_footprint,5.17777776718,0.0,0.0,0.0,0.0,-0.00385671774624
2018/12/16/17:23:07.083230,54929,1545002587,82798589,base_footprint,5.18611097336,0.0,0.0,0.0,0.0,-0.00364831718738
2018/12/16/17:23:07.105129,54930,1545002587,102818562,base_footprint,5.18888902664,0.0,0.0,0.0,0.0,-0.00343554900231
2018/12/16/17:23:07.123105,54931,1545002587,122847949,base_footprint,5.19722223282,0.0,0.0,0.0,0.0,-0.00301093225813
2018/12/16/17:23:07.143315,54932,1545002587,142888837,base_footprint,5.205555439,0.0,0.0,0.0,0.0,-0.00280034831299
2018/12/16/17:23:07.163316,54933,1545002587,162976338,base_footprint,5.21111106873,0.0,0.0,0.0,0.0,-0.00258769527244
2018/12/16/17:23:07.183360,54934,1545002587,182981823,base_footprint,5.2194442749,0.0,0.0,0.0,0.0,-0.00215986065511
2018/12/16/17:23:07.203225,54935,1545002587,202976959,base_footprint,5.22499990463,0.0,0.0,0.0,0.0,-0.00216215963282
2018/12/16/17:23:07.223650,54936,1545002587,223282116,base_footprint,5.23611116409,0.0,0.0,0.0,0.0,-0.00173340578132
2018/12/16/17:23:07.243492,54937,1545002587,243054759,base_footprint,5.24444437027,0.0,0.0,0.0,0.0,-0.00151914381016
2018/12/16/17:23:07.263736,54938,1545002587,263348185,base_footprint,5.25555562973,0.0,0.0,0.0,0.0,-0.0015223623782
2018/12/16/17:23:07.283636,54939,1545002587,283385966,base_footprint,5.26388883591,0.0,0.0,0.0,0.0,-0.00108912576109
2018/12/16/17:23:07.303725,54940,1545002587,303412962,base_footprint,5.27500009537,0.0,0.0,0.0,0.0,-0.000873139753976
2018/12/16/17:23:07.323424,54941,1545002587,323176603,base_footprint,5.27500009537,0.0,0.0,0.0,0.0,-0.000873139753976
2018/12/16/17:23:07.343872,54942,1545002587,343480075,base_footprint,5.2805557251,0.0,0.0,0.0,0.0,-0.000655544487255
2018/12/16/17:23:07.364233,54943,1545002587,363412062,base_footprint,5.294444561,0.0,0.0,0.0,0.0,-0.000438179116654
2018/12/16/17:23:07.383677,54944,1545002587,383419676,base_footprint,5.30277776718,0.0,0.0,0.0,0.0,-0.00043886878993
2018/12/16/17:23:07.403758,54945,1545002587,403415703,base_footprint,5.30555534363,0.0,0.0,0.0,0.0,-0.00021954933088
2018/12/16/17:23:07.423973,54946,1545002587,423413970,base_footprint,5.31111097336,0.0,0.0,0.0,0.0,-0.000219779228546
2018/12/16/17:23:07.443670,54947,1545002587,443350467,base_footprint,5.31666660309,0.0,0.0,0.0,0.0,-0.000220009126212
2018/12/16/17:23:07.464196,54948,1545002587,463414733,base_footprint,5.32499980927,0.0,0.0,0.0,0.0,-0.000440707931819
2018/12/16/17:23:07.483766,54949,1545002587,483479979,base_footprint,5.32777786255,0.0,0.0,0.0,0.0,-0.00066140678916
2018/12/16/17:23:07.504028,54950,1545002587,503445134,base_footprint,5.330555439,0.0,0.0,0.0,0.0,-0.000882335503396
2018/12/16/17:23:07.523794,54951,1545002587,523492483,base_footprint,5.33611106873,0.0,0.0,0.0,0.0,-0.00110406891372
2018/12/16/17:23:07.544085,54952,1545002587,543732474,base_footprint,5.3444442749,0.0,0.0,0.0,0.0,-0.00154811050814
2018/12/16/17:23:07.564196,54953,1545002587,563547587,base_footprint,5.34999990463,0.0,0.0,0.0,0.0,-0.00221388594077
2018/12/16/17:23:07.583813,54954,1545002587,583580448,base_footprint,5.35833311081,0.0,0.0,0.0,0.0,-0.00243906809531
2018/12/16/17:23:07.604217,54955,1545002587,603619767,base_footprint,5.36666679382,0.0,0.0,0.0,0.0,-0.00288701877803
2018/12/16/17:23:07.623956,54956,1545002587,623662942,base_footprint,5.37222242355,0.0,0.0,0.0,0.0,-0.00333462482833
2018/12/16/17:23:07.643932,54957,1545002587,643680972,base_footprint,5.38055562973,0.0,0.0,0.0,0.0,-0.0037851048083
2018/12/16/17:23:07.664338,54958,1545002587,663744542,base_footprint,5.38888883591,0.0,0.0,0.0,0.0,-0.00401396586344
2018/12/16/17:23:07.684005,54959,1545002587,683757661,base_footprint,5.39444446564,0.0,0.0,0.0,0.0,-0.00446456133917
2018/12/16/17:23:07.704080,54960,1545002587,703774865,base_footprint,5.40277767181,0.0,0.0,0.0,0.0,-0.00447145808458
2018/12/16/17:23:07.724040,54961,1545002587,723804052,base_footprint,5.41388893127,0.0,0.0,0.0,0.0,-0.00470468748327
2018/12/16/17:23:07.744080,54962,1545002587,743838123,base_footprint,5.41666650772,0.0,0.0,0.0,0.0,-0.00470710120644
2018/12/16/17:23:07.764088,54963,1545002587,763859853,base_footprint,5.42222213745,0.0,0.0,0.0,0.0,-0.00471192906715
2018/12/16/17:23:07.784386,54964,1545002587,783979271,base_footprint,5.42500019073,0.0,0.0,0.0,0.0,-0.00471434320469
2018/12/16/17:23:07.804226,54965,1545002587,803978472,base_footprint,5.42777776718,0.0,0.0,0.0,0.0,-0.00471675692786
2018/12/16/17:23:07.824435,54966,1545002587,823988464,base_footprint,5.43055534363,0.0,0.0,0.0,0.0,-0.00494389441392
2018/12/16/17:23:07.844999,54967,1545002587,844009526,base_footprint,5.43333339691,0.0,0.0,0.0,0.0,-0.00494642351108
2018/12/16/17:23:07.864268,54968,1545002587,864021394,base_footprint,5.43888902664,0.0,0.0,0.0,0.0,-0.0049514812713
2018/12/16/17:23:07.884692,54969,1545002587,884077165,base_footprint,5.44166660309,0.0,0.0,0.0,0.0,-0.00495400993436
2018/12/16/17:23:07.904550,54970,1545002587,904101110,base_footprint,5.44166660309,0.0,0.0,0.0,0.0,-0.00495400993436
2018/12/16/17:23:07.924700,54971,1545002587,924125530,base_footprint,5.44444465637,0.0,0.0,0.0,0.0,-0.00495653903152
2018/12/16/17:23:07.944416,54972,1545002587,944162537,base_footprint,5.45277786255,0.0,0.0,0.0,0.0,-0.0049641254548
2018/12/16/17:23:07.964453,54973,1545002587,964177842,base_footprint,5.455555439,0.0,0.0,0.0,0.0,-0.00496665411785
2018/12/16/17:23:07.984627,54974,1545002587,984205244,base_footprint,5.46111106873,0.0,0.0,0.0,0.0,-0.00519769973434
2018/12/16/17:23:08.004472,54975,1545002588,4243893,base_footprint,5.46388912201,0.0,0.0,0.0,0.0,-0.0054264467513
2018/12/16/17:23:08.024616,54976,1545002588,24289686,base_footprint,5.4694442749,0.0,0.0,0.0,0.0,-0.00543196383641
2018/12/16/17:23:08.044734,54977,1545002588,44319285,base_footprint,5.47777795792,0.0,0.0,0.0,0.0,-0.0056669182613
2018/12/16/17:23:08.064730,54978,1545002588,64343468,base_footprint,5.48333311081,0.0,0.0,0.0,0.0,-0.00589957359805
2018/12/16/17:23:08.084665,54979,1545002588,84387108,base_footprint,5.48611116409,0.0,0.0,0.0,0.0,-0.00612958554513
2018/12/16/17:23:08.104773,54980,1545002588,104402873,base_footprint,5.48888874054,0.0,0.0,0.0,0.0,-0.00613268890777
2018/12/16/17:23:08.124808,54981,1545002588,124459668,base_footprint,5.49166679382,0.0,0.0,0.0,0.0,-0.00613579280318
2018/12/16/17:23:08.144819,54982,1545002588,144496150,base_footprint,5.49166679382,0.0,0.0,0.0,0.0,-0.00613579280318
2018/12/16/17:23:08.164773,54983,1545002588,164528245,base_footprint,5.49444437027,0.0,0.0,0.0,0.0,-0.00613889616582
2018/12/16/17:23:08.184850,54984,1545002588,184538763,base_footprint,5.49722242355,0.0,0.0,0.0,0.0,-0.00614200006123
2018/12/16/17:23:08.205239,54985,1545002588,204592187,base_footprint,5.49722242355,0.0,0.0,0.0,0.0,-0.00591451725022
2018/12/16/17:23:08.224951,54986,1545002588,224629505,base_footprint,5.49722242355,0.0,0.0,0.0,0.0,-0.00568703411818
2018/12/16/17:23:08.245621,54987,1545002588,244894944,base_footprint,5.49722242355,0.0,0.0,0.0,0.0,-0.00545955162986
2018/12/16/17:23:08.265003,54988,1545002588,264709567,base_footprint,5.50277757645,0.0,0.0,0.0,0.0,-0.00500964442857
2018/12/16/17:23:08.285010,54989,1545002588,284709194,base_footprint,5.5,0.0,0.0,0.0,0.0,-0.00455192142988
2018/12/16/17:23:08.305060,54990,1545002588,304745684,base_footprint,5.5,0.0,0.0,0.0,0.0,-0.00409672808647
2018/12/16/17:23:08.325224,54991,1545002588,324804047,base_footprint,5.50277757645,0.0,0.0,0.0,0.0,-0.0036433737387
2018/12/16/17:23:08.345085,54992,1545002588,344814740,base_footprint,5.50277757645,0.0,0.0,0.0,0.0,-0.00318795113467
2018/12/16/17:23:08.365150,54993,1545002588,364843489,base_footprint,5.50833320618,0.0,0.0,0.0,0.0,-0.00250734687517
2018/12/16/17:23:08.385320,54994,1545002588,384983032,base_footprint,5.51111125946,0.0,0.0,0.0,0.0,-0.0020524998956
2018/12/16/17:23:08.405575,54995,1545002588,404981662,base_footprint,5.51111125946,0.0,0.0,0.0,0.0,-0.00182444409969
2018/12/16/17:23:08.425503,54996,1545002588,425286212,base_footprint,5.51111125946,0.0,0.0,0.0,0.0,-0.00159638847623
2018/12/16/17:23:08.445333,54997,1545002588,445013171,base_footprint,5.51944446564,0.0,0.0,0.0,0.0,-0.00159880233319
2018/12/16/17:23:08.465297,54998,1545002588,465032980,base_footprint,5.51944446564,0.0,0.0,0.0,0.0,-0.00114200153951
2018/12/16/17:23:08.485485,54999,1545002588,485060838,base_footprint,5.52222204208,0.0,0.0,0.0,0.0,-0.00114257623441
2018/12/16/17:23:08.505687,55000,1545002588,505086104,base_footprint,5.51944446564,0.0,0.0,0.0,0.0,-0.00114200153951
2018/12/16/17:23:08.525510,55001,1545002588,525138020,base_footprint,5.52222204208,0.0,0.0,0.0,0.0,-0.00137109155121
2018/12/16/17:23:08.545527,55002,1545002588,545188697,base_footprint,5.52222204208,0.0,0.0,0.0,0.0,-0.00137109155121
2018/12/16/17:23:08.565939,55003,1545002588,565406084,base_footprint,5.51388883591,0.0,0.0,0.0,0.0,-0.00159719304917
2018/12/16/17:23:08.585481,55004,1545002588,585243239,base_footprint,5.51666688919,0.0,0.0,0.0,0.0,-0.00159799776025
2018/12/16/17:23:08.605846,55005,1545002588,605278961,base_footprint,5.51666688919,0.0,0.0,0.0,0.0,-0.00159799776025
2018/12/16/17:23:08.625511,55006,1545002588,625294085,base_footprint,5.51388883591,0.0,0.0,0.0,0.0,-0.0018253636117
2018/12/16/17:23:08.645676,55007,1545002588,645447338,base_footprint,5.51388883591,0.0,0.0,0.0,0.0,-0.0018253636117
2018/12/16/17:23:08.666394,55008,1545002588,665590856,base_footprint,5.51388883591,0.0,0.0,0.0,0.0,-0.0018253636117
2018/12/16/17:23:08.685642,55009,1545002588,685386013,base_footprint,5.51666688919,0.0,0.0,0.0,0.0,-0.00205456897548
2018/12/16/17:23:08.705733,55010,1545002588,705438923,base_footprint,5.51111125946,0.0,0.0,0.0,0.0,-0.0022805555052
2018/12/16/17:23:08.725727,55011,1545002588,725438681,base_footprint,5.51666688919,0.0,0.0,0.0,0.0,-0.00228285448292
2018/12/16/17:23:08.745752,55012,1545002588,745491841,base_footprint,5.51666688919,0.0,0.0,0.0,0.0,-0.00228285448292
2018/12/16/17:23:08.765842,55013,1545002588,765505159,base_footprint,5.51388883591,0.0,0.0,0.0,0.0,-0.0022817048954
2018/12/16/17:23:08.785833,55014,1545002588,785571985,base_footprint,5.51666688919,0.0,0.0,0.0,0.0,-0.00228285448292
2018/12/16/17:23:08.805851,55015,1545002588,805569963,base_footprint,5.51666688919,0.0,0.0,0.0,0.0,-0.00228285448292
2018/12/16/17:23:08.825873,55016,1545002588,825608837,base_footprint,5.51666688919,0.0,0.0,0.0,0.0,-0.00228285448292
2018/12/16/17:23:08.845927,55017,1545002588,845663058,base_footprint,5.51388883591,0.0,0.0,0.0,0.0,-0.00205353434674
2018/12/16/17:23:08.865974,55018,1545002588,865690366,base_footprint,5.51388883591,0.0,0.0,0.0,0.0,-0.00159719304917
2018/12/16/17:23:08.885989,55019,1545002588,885723986,base_footprint,5.51111125946,0.0,0.0,0.0,0.0,-0.00114027735616
2018/12/16/17:23:08.905993,55020,1545002588,905747490,base_footprint,5.51111125946,0.0,0.0,0.0,0.0,-0.000456110898061
2018/12/16/17:23:08.926073,55021,1545002588,925791930,base_footprint,5.50833320618,0.0,0.0,0.0,0.0,0.0
2018/12/16/17:23:08.946179,55022,1545002588,945973543,base_footprint,5.50833320618,0.0,0.0,0.0,0.0,0.00068382148684
2018/12/16/17:23:08.966063,55023,1545002588,965855154,base_footprint,5.50555562973,0.0,0.0,0.0,0.0,0.00159477919221
2018/12/16/17:23:08.986099,55024,1545002588,985869608,base_footprint,5.49722242355,0.0,0.0,0.0,0.0,0.00227480815958
2018/12/16/17:23:09.006205,55025,1545002589,5976445,base_footprint,5.49444437027,0.0,0.0,0.0,0.0,0.00295575721043
2018/12/16/17:23:09.026180,55026,1545002589,25987917,base_footprint,5.49722242355,0.0,0.0,0.0,0.0,0.00318473284068
2018/12/16/17:23:09.046225,55027,1545002589,45974864,base_footprint,5.49166679382,0.0,0.0,0.0,0.0,0.00340876586929
2018/12/16/17:23:09.066348,55028,1545002589,66004562,base_footprint,5.48888874054,0.0,0.0,0.0,0.0,0.00363417797905
2018/12/16/17:23:09.086429,55029,1545002589,86040179,base_footprint,5.49166679382,0.0,0.0,0.0,0.0,0.00363601732041
2018/12/16/17:23:09.106368,55030,1545002589,106083292,base_footprint,5.49166679382,0.0,0.0,0.0,0.0,0.00340876586929
2018/12/16/17:23:09.126621,55031,1545002589,126372323,base_footprint,5.49444437027,0.0,0.0,0.0,0.0,0.00295575721043
2018/12/16/17:23:09.146340,55032,1545002589,146133295,base_footprint,5.49444437027,0.0,0.0,0.0,0.0,0.00250102479406
2018/12/16/17:23:09.166433,55033,1545002589,166170393,base_footprint,5.49444437027,0.0,0.0,0.0,0.0,0.00204629265595
2018/12/16/17:23:09.186497,55034,1545002589,186221307,base_footprint,5.49166679382,0.0,0.0,0.0,0.0,0.00113625419589
2018/12/16/17:23:09.206539,55035,1545002589,206239895,base_footprint,5.48611116409,0.0,0.0,0.0,0.0,0.000454041838771
2018/12/16/17:23:09.226561,55036,1545002589,226296527,base_footprint,5.48611116409,0.0,0.0,0.0,0.0,-0.000227020916228
2018/12/16/17:23:09.246604,55037,1545002589,246335714,base_footprint,5.48611116409,0.0,0.0,0.0,0.0,-0.00113510470743
2018/12/16/17:23:09.266751,55038,1545002589,266351411,base_footprint,5.47777795792,0.0,0.0,0.0,0.0,-0.00181340916636
2018/12/16/17:23:09.286634,55039,1545002589,286377801,base_footprint,5.47499990463,0.0,0.0,0.0,0.0,-0.00226561224872
2018/12/16/17:23:09.306629,55040,1545002589,306397961,base_footprint,5.47222232819,0.0,0.0,0.0,0.0,-0.00271735598448
2018/12/16/17:23:09.326710,55041,1545002589,326454986,base_footprint,5.46666669846,0.0,0.0,0.0,0.0,-0.00294081410641
2018/12/16/17:23:09.346739,55042,1545002589,346492167,base_footprint,5.46111106873,0.0,0.0,0.0,0.0,-0.0029378254343
2018/12/16/17:23:09.366800,55043,1545002589,366534243,base_footprint,5.455555439,0.0,0.0,0.0,0.0,-0.0029348367622
2018/12/16/17:23:09.386788,55044,1545002589,386528222,base_footprint,5.44999980927,0.0,0.0,0.0,0.0,-0.0027063208892
2018/12/16/17:23:09.406835,55045,1545002589,406583539,base_footprint,5.44444465637,0.0,0.0,0.0,0.0,-0.00225296816727
2018/12/16/17:23:09.426929,55046,1545002589,426628519,base_footprint,5.44166660309,0.0,0.0,0.0,0.0,-0.00202663666344
2018/12/16/17:23:09.447007,55047,1545002589,446657767,base_footprint,5.43888902664,0.0,0.0,0.0,0.0,-0.00157546806022
2018/12/16/17:23:09.466914,55048,1545002589,466680484,base_footprint,5.43333339691,0.0,0.0,0.0,0.0,-0.00112418471507
2018/12/16/17:23:09.487056,55049,1545002589,486736918,base_footprint,5.43333339691,0.0,0.0,0.0,0.0,-0.000674510779015
2018/12/16/17:23:09.507263,55050,1545002589,506742652,base_footprint,5.43055534363,0.0,0.0,0.0,0.0,-0.000224721959301
2018/12/16/17:23:09.527137,55051,1545002589,526790950,base_footprint,5.43333339691,0.0,0.0,0.0,0.0,0.0
2018/12/16/17:23:09.547253,55052,1545002589,546821512,base_footprint,5.43055534363,0.0,0.0,0.0,0.0,0.0
2018/12/16/17:23:09.567132,55053,1545002589,566844801,base_footprint,5.42222213745,0.0,0.0,0.0,0.0,0.0
2018/12/16/17:23:09.587254,55054,1545002589,586882273,base_footprint,5.42500019073,0.0,0.0,0.0,0.0,0.000224492081367
2018/12/16/17:23:09.607254,55055,1545002589,606978146,base_footprint,5.42222213745,0.0,0.0,0.0,0.0,0.000224377122668
2018/12/16/17:23:09.627284,55056,1545002589,626998807,base_footprint,5.419444561,0.0,0.0,0.0,0.0,0.000224262183701
2018/12/16/17:23:09.647269,55057,1545002589,647004313,base_footprint,5.41666650772,0.0,0.0,0.0,0.0,0.000224147225002
2018/12/16/17:23:09.667516,55058,1545002589,667025513,base_footprint,5.41111087799,0.0,0.0,0.0,0.0,0.000223917327336
2018/12/16/17:23:09.687330,55059,1545002589,687071325,base_footprint,5.4055557251,0.0,0.0,0.0,0.0,0.000223687449403
2018/12/16/17:23:09.707402,55060,1545002589,707065908,base_footprint,5.40277767181,0.0,0.0,0.0,0.0,0.000223572490704
2018/12/16/17:23:09.727407,55061,1545002589,727138622,base_footprint,5.40000009537,0.0,0.0,0.0,0.0,0.000223457551737
2018/12/16/17:23:09.747444,55062,1545002589,747162634,base_footprint,5.39444446564,0.0,0.0,0.0,0.0,0.000223227654071
2018/12/16/17:23:09.767499,55063,1545002589,767180050,base_footprint,5.38611125946,0.0,0.0,0.0,0.0,0.000222882817438
2018/12/16/17:23:09.787544,55064,1545002589,787229552,base_footprint,5.38055562973,0.0,0.0,0.0,0.0,0.000445305845737
2018/12/16/17:23:09.807530,55065,1545002589,807249218,base_footprint,5.375,0.0,0.0,0.0,0.0,0.000444846050399
2018/12/16/17:23:09.827573,55066,1545002589,827284717,base_footprint,5.375,0.0,0.0,0.0,0.0,0.000667269091064
2018/12/16/17:23:09.847593,55067,1545002589,847312180,base_footprint,5.37222242355,0.0,0.0,0.0,0.0,0.00066692427415
2018/12/16/17:23:09.867602,55068,1545002589,867357614,base_footprint,5.36944437027,0.0,0.0,0.0,0.0,0.000666579398041
2018/12/16/17:23:09.887689,55069,1545002589,887404806,base_footprint,5.36944437027,0.0,0.0,0.0,0.0,0.000666579398041
2018/12/16/17:23:09.907784,55070,1545002589,907394348,base_footprint,5.36944437027,0.0,0.0,0.0,0.0,0.000666579398041
2018/12/16/17:23:09.927761,55071,1545002589,927452678,base_footprint,5.36944437027,0.0,0.0,0.0,0.0,0.0
2018/12/16/17:23:09.947745,55072,1545002589,947486277,base_footprint,5.36666679382,0.0,0.0,0.0,0.0,-0.000666234581127
2018/12/16/17:23:09.967796,55073,1545002589,967520218,base_footprint,5.36388874054,0.0,0.0,0.0,0.0,-0.00177570633278
2018/12/16/17:23:09.987805,55074,1545002589,987543638,base_footprint,5.36111116409,0.0,0.0,0.0,0.0,-0.00332772789095
2018/12/16/17:23:10.007916,55075,1545002590,7604135,base_footprint,5.36111116409,0.0,0.0,0.0,0.0,-0.00488067349643
2018/12/16/17:23:10.028002,55076,1545002590,27624961,base_footprint,5.35555553436,0.0,0.0,0.0,0.0,-0.00620533744754
2018/12/16/17:23:10.047938,55077,1545002590,47654335,base_footprint,5.35555553436,0.0,0.0,0.0,0.0,-0.00775668778492
2018/12/16/17:23:10.068068,55078,1545002590,67680008,base_footprint,5.35277795792,0.0,0.0,0.0,0.0,-0.00908171210736
2018/12/16/17:23:10.088054,55079,1545002590,87726093,base_footprint,5.34722232819,0.0,0.0,0.0,0.0,-0.00995740368805
2018/12/16/17:23:10.108019,55080,1545002590,107739139,base_footprint,5.33888912201,0.0,0.0,0.0,0.0,-0.0108256274503
2018/12/16/17:23:10.128031,55081,1545002590,127794006,base_footprint,5.33611106873,0.0,0.0,0.0,0.0,-0.0114824597738
2018/12/16/17:23:10.148256,55082,1545002590,147848192,base_footprint,5.32777786255,0.0,0.0,0.0,0.0,-0.0116850052976
2018/12/16/17:23:10.168171,55083,1545002590,167877886,base_footprint,5.32499980927,0.0,0.0,0.0,0.0,-0.0123400012539
2018/12/16/17:23:10.188340,55084,1545002590,187903615,base_footprint,5.31666660309,0.0,0.0,0.0,0.0,-0.0125407088973
2018/12/16/17:23:10.208293,55085,1545002590,207987199,base_footprint,5.31111097336,0.0,0.0,0.0,0.0,-0.0127473937494
2018/12/16/17:23:10.228327,55086,1545002590,227978031,base_footprint,5.30833339691,0.0,0.0,0.0,0.0,-0.0133997530901
2018/12/16/17:23:10.248331,55087,1545002590,248021267,base_footprint,5.30833339691,0.0,0.0,0.0,0.0,-0.0138391049214
2018/12/16/17:23:10.268481,55088,1545002590,268007581,base_footprint,5.30833339691,0.0,0.0,0.0,0.0,-0.0142784582924
2018/12/16/17:23:10.288459,55089,1545002590,288041333,base_footprint,5.30833339691,0.0,0.0,0.0,0.0,-0.0147178132521
2018/12/16/17:23:10.308383,55090,1545002590,308100274,base_footprint,5.30833339691,0.0,0.0,0.0,0.0,-0.0151571707871
2018/12/16/17:23:10.328374,55091,1545002590,328128013,base_footprint,5.30833339691,0.0,0.0,0.0,0.0,-0.0153768497151
2018/12/16/17:23:10.348488,55092,1545002590,348139136,base_footprint,5.30555534363,0.0,0.0,0.0,0.0,-0.0153688024233
2018/12/16/17:23:10.368691,55093,1545002590,368229366,base_footprint,5.30555534363,0.0,0.0,0.0,0.0,-0.0155883668124
2018/12/16/17:23:10.388476,55094,1545002590,388226773,base_footprint,5.30277776718,0.0,0.0,0.0,0.0,-0.0157996567675
2018/12/16/17:23:10.408564,55095,1545002590,408254534,base_footprint,5.29722213745,0.0,0.0,0.0,0.0,-0.0160023241376
2018/12/16/17:23:10.428517,55096,1545002590,428301639,base_footprint,5.29166650772,0.0,0.0,0.0,0.0,-0.0159855411926
2018/12/16/17:23:10.448703,55097,1545002590,448340755,base_footprint,5.28611087799,0.0,0.0,0.0,0.0,-0.0159687582476
2018/12/16/17:23:10.468701,55098,1545002590,468344347,base_footprint,5.2805557251,0.0,0.0,0.0,0.0,-0.0159519767431
2018/12/16/17:23:10.488700,55099,1545002590,488374725,base_footprint,5.27777767181,0.0,0.0,0.0,0.0,-0.0159435845504
2018/12/16/17:23:10.508710,55100,1545002590,508445822,base_footprint,5.27222204208,0.0,0.0,0.0,0.0,-0.0161449878444
2018/12/16/17:23:10.528754,55101,1545002590,528460521,base_footprint,5.26388883591,0.0,0.0,0.0,0.0,-0.0159016279081
2018/12/16/17:23:10.548888,55102,1545002590,548484972,base_footprint,5.25555562973,0.0,0.0,0.0,0.0,-0.0158764542109
2018/12/16/17:23:10.568997,55103,1545002590,568512044,base_footprint,5.25,0.0,0.0,0.0,0.0,-0.0158596712659
2018/12/16/17:23:10.588840,55104,1545002590,588573946,base_footprint,5.24722242355,0.0,0.0,0.0,0.0,-0.0160684321656
2018/12/16/17:23:10.608886,55105,1545002590,608595510,base_footprint,5.24166679382,0.0,0.0,0.0,0.0,-0.0160514193058
2018/12/16/17:23:10.628847,55106,1545002590,628620015,base_footprint,5.23888874054,0.0,0.0,0.0,0.0,-0.0160429121458
2018/12/16/17:23:10.649078,55107,1545002590,648675622,base_footprint,5.24166679382,0.0,0.0,0.0,0.0,-0.0160514193058
2018/12/16/17:23:10.668903,55108,1545002590,668665943,base_footprint,5.22499990463,0.0,0.0,0.0,0.0,-0.0157841487337
2018/12/16/17:23:10.689018,55109,1545002590,688745818,base_footprint,5.2194442749,0.0,0.0,0.0,0.0,-0.0159833678666
2018/12/16/17:23:10.709169,55110,1545002590,708751495,base_footprint,5.23333311081,0.0,0.0,0.0,0.0,-0.016025899286
2018/12/16/17:23:10.729078,55111,1545002590,728804577,base_footprint,5.24166679382,0.0,0.0,0.0,0.0,-0.0158344975686
2018/12/16/17:23:10.749108,55112,1545002590,748813070,base_footprint,5.22777795792,0.0,0.0,0.0,0.0,-0.0157925409264
2018/12/16/17:23:10.769228,55113,1545002590,768872759,base_footprint,5.21666669846,0.0,0.0,0.0,0.0,-0.0155430883444
2018/12/16/17:23:10.789197,55114,1545002590,788891440,base_footprint,5.23888874054,0.0,0.0,0.0,0.0,-0.0158261053759
2018/12/16/17:23:10.809271,55115,1545002590,808981983,base_footprint,5.24166679382,0.0,0.0,0.0,0.0,-0.0160514193058
2018/12/16/17:23:10.829249,55116,1545002590,829003694,base_footprint,5.23055553436,0.0,0.0,0.0,0.0,-0.015368008252
2018/12/16/17:23:10.849355,55117,1545002590,848991387,base_footprint,5.21666669846,0.0,0.0,0.0,0.0,-0.0151113153297
2018/12/16/17:23:10.869417,55118,1545002590,869028481,base_footprint,5.21111106873,0.0,0.0,0.0,0.0,-0.0155265353137
2018/12/16/17:23:10.889380,55119,1545002590,889081339,base_footprint,5.19999980927,0.0,0.0,0.0,0.0,-0.0152782318158
2018/12/16/17:23:10.909437,55120,1545002590,909095995,base_footprint,5.19722223282,0.0,0.0,0.0,0.0,-0.0152700709584
2018/12/16/17:23:10.929454,55121,1545002590,929127404,base_footprint,5.18888902664,0.0,0.0,0.0,0.0,-0.0154603246119
2018/12/16/17:23:10.949583,55122,1545002590,949155982,base_footprint,5.18611097336,0.0,0.0,0.0,0.0,-0.0152374247268
2018/12/16/17:23:10.969428,55123,1545002590,969188347,base_footprint,5.18055534363,0.0,0.0,0.0,0.0,-0.0152211016111
2018/12/16/17:23:10.989482,55124,1545002590,989225090,base_footprint,5.17500019073,0.0,0.0,0.0,0.0,-0.0152047798963
2018/12/16/17:23:11.009502,55125,1545002591,9251741,base_footprint,5.17222213745,0.0,0.0,0.0,0.0,-0.0151966176379
2018/12/16/17:23:11.029512,55126,1545002591,29277137,base_footprint,5.169444561,0.0,0.0,0.0,0.0,-0.0151884567805
2018/12/16/17:23:11.050010,55127,1545002591,49340124,base_footprint,5.16388893127,0.0,0.0,0.0,0.0,-0.0151721336647
2018/12/16/17:23:11.069813,55128,1545002591,69371889,base_footprint,5.16111087799,0.0,0.0,0.0,0.0,-0.0151639714064
2018/12/16/17:23:11.089712,55129,1545002591,89400710,base_footprint,5.1555557251,0.0,0.0,0.0,0.0,-0.0151476496916
2018/12/16/17:23:11.109710,55130,1545002591,109417071,base_footprint,5.15277767181,0.0,0.0,0.0,0.0,-0.0151394874332
2018/12/16/17:23:11.129700,55131,1545002591,129451067,base_footprint,5.15000009537,0.0,0.0,0.0,0.0,-0.0151313265758
2018/12/16/17:23:11.149779,55132,1545002591,149502630,base_footprint,5.15000009537,0.0,0.0,0.0,0.0,-0.0149181996642
2018/12/16/17:23:11.169784,55133,1545002591,169495801,base_footprint,5.14444446564,0.0,0.0,0.0,0.0,-0.01511500346
2018/12/16/17:23:11.189772,55134,1545002591,189555437,base_footprint,5.14166688919,0.0,0.0,0.0,0.0,-0.0148940605513
2018/12/16/17:23:11.210064,55135,1545002591,209578361,base_footprint,5.13611125946,0.0,0.0,0.0,0.0,-0.014877967349
2018/12/16/17:23:11.229910,55136,1545002591,229626595,base_footprint,5.13055562973,0.0,0.0,0.0,0.0,-0.0148618741466
2018/12/16/17:23:11.250091,55137,1545002591,249655733,base_footprint,5.125,0.0,0.0,0.0,0.0,-0.0146336890462
2018/12/16/17:23:11.270000,55138,1545002591,269682644,base_footprint,5.11666679382,0.0,0.0,0.0,0.0,-0.014609894793
2018/12/16/17:23:11.290066,55139,1545002591,289736804,base_footprint,5.11388874054,0.0,0.0,0.0,0.0,-0.0146019624675
2018/12/16/17:23:11.310080,55140,1545002591,309726777,base_footprint,5.10555553436,0.0,0.0,0.0,0.0,-0.0143668814072
2018/12/16/17:23:11.330064,55141,1545002591,329787184,base_footprint,5.09722232819,0.0,0.0,0.0,0.0,-0.0141324895634
2018/12/16/17:23:11.350203,55142,1545002591,349843991,base_footprint,5.0944442749,0.0,0.0,0.0,0.0,-0.0141247871705
2018/12/16/17:23:11.370181,55143,1545002591,369857826,base_footprint,5.080555439,0.0,0.0,0.0,0.0,-0.0138760277513
2018/12/16/17:23:11.390273,55144,1545002591,389903606,base_footprint,5.06944465637,0.0,0.0,0.0,0.0,-0.0138456819496
2018/12/16/17:23:11.410283,55145,1545002591,409895712,base_footprint,5.05555534363,0.0,0.0,0.0,0.0,-0.0138077474183
2018/12/16/17:23:11.430295,55146,1545002591,429989847,base_footprint,5.05277776718,0.0,0.0,0.0,0.0,-0.0138001612935
2018/12/16/17:23:11.450430,55147,1545002591,449995016,base_footprint,5.044444561,0.0,0.0,0.0,0.0,-0.0137774016166
2018/12/16/17:23:11.470278,55148,1545002591,470027452,base_footprint,5.03611087799,0.0,0.0,0.0,0.0,-0.0137546406374
2018/12/16/17:23:11.490845,55149,1545002591,490037335,base_footprint,5.02222204208,0.0,0.0,0.0,0.0,-0.0137167074085
2018/12/16/17:23:11.510564,55150,1545002591,510099510,base_footprint,5.01944446564,0.0,0.0,0.0,0.0,-0.0137091212836
2018/12/16/17:23:11.530387,55151,1545002591,530127920,base_footprint,5.01666688919,0.0,0.0,0.0,0.0,-0.0137015351588
2018/12/16/17:23:11.550465,55152,1545002591,550173967,base_footprint,5.00833320618,0.0,0.0,0.0,0.0,-0.0136787741795
2018/12/16/17:23:11.570482,55153,1545002591,570191125,base_footprint,5.0,0.0,0.0,0.0,0.0,-0.0136560145027
2018/12/16/17:23:11.590464,55154,1545002591,590216503,base_footprint,4.98888874054,0.0,0.0,0.0,0.0,-0.0136256673986
2018/12/16/17:23:11.610692,55155,1545002591,610228813,base_footprint,4.97777795792,0.0,0.0,0.0,0.0,-0.0135953215969
2018/12/16/17:23:11.630587,55156,1545002591,630292057,base_footprint,4.97222232819,0.0,0.0,0.0,0.0,-0.0135801480448
2018/12/16/17:23:11.650619,55157,1545002591,650312769,base_footprint,4.9694442749,0.0,0.0,0.0,0.0,-0.0135725606176
2018/12/16/17:23:11.670635,55158,1545002591,670336971,base_footprint,4.955555439,0.0,0.0,0.0,0.0,-0.0135346273887
2018/12/16/17:23:11.690700,55159,1545002591,690400435,base_footprint,4.94722223282,0.0,0.0,0.0,0.0,-0.0133071344682
2018/12/16/17:23:11.710727,55160,1545002591,710412591,base_footprint,4.94166660309,0.0,0.0,0.0,0.0,-0.0128831852661
2018/12/16/17:23:11.730783,55161,1545002591,730453289,base_footprint,4.93333339691,0.0,0.0,0.0,0.0,-0.0124531457403
2018/12/16/17:23:11.750820,55162,1545002591,750487728,base_footprint,4.93055534363,0.0,0.0,0.0,0.0,-0.0120380491637
2018/12/16/17:23:11.771654,55163,1545002591,770981993,base_footprint,4.91666650772,0.0,0.0,0.0,0.0,-0.0113937414166
2018/12/16/17:23:11.791337,55164,1545002591,790999129,base_footprint,4.9055557251,0.0,0.0,0.0,0.0,-0.010961982874
2018/12/16/17:23:11.811411,55165,1545002591,810992590,base_footprint,4.90277767181,0.0,0.0,0.0,0.0,-0.0103471052138
2018/12/16/17:23:11.831363,55166,1545002591,830982429,base_footprint,4.90000009537,0.0,0.0,0.0,0.0,-0.00973292173431
2018/12/16/17:23:11.851281,55167,1545002591,850984470,base_footprint,4.88333320618,0.0,0.0,0.0,0.0,-0.00909356617189
2018/12/16/17:23:11.871816,55168,1545002591,871013067,base_footprint,4.87222242355,0.0,0.0,0.0,0.0,-0.00866962943377
2018/12/16/17:23:11.891427,55169,1545002591,891008295,base_footprint,4.87222242355,0.0,0.0,0.0,0.0,-0.00846800690801
2018/12/16/17:23:11.911312,55170,1545002591,910984490,base_footprint,4.86388874054,0.0,0.0,0.0,0.0,-0.00825224539689
2018/12/16/17:23:11.931233,55171,1545002591,930997142,base_footprint,4.85833311081,0.0,0.0,0.0,0.0,-0.00804177222583
2018/12/16/17:23:11.951390,55172,1545002591,950993364,base_footprint,4.85277795792,0.0,0.0,0.0,0.0,-0.00823339445074
2018/12/16/17:23:11.972647,55173,1545002591,970984829,base_footprint,4.84722232819,0.0,0.0,0.0,0.0,-0.00822396857315
2018/12/16/17:23:11.991518,55174,1545002591,990981593,base_footprint,4.84722232819,0.0,0.0,0.0,0.0,-0.00842455630952
2018/12/16/17:23:12.011472,55175,1545002592,10985177,base_footprint,4.84166669846,0.0,0.0,0.0,0.0,-0.00861525859627
2018/12/16/17:23:12.031753,55176,1545002592,30984117,base_footprint,4.83333349228,0.0,0.0,0.0,0.0,-0.0088004448099
2018/12/16/17:23:12.051237,55177,1545002592,50991570,base_footprint,4.82777786255,0.0,0.0,0.0,0.0,-0.00899011302377
2018/12/16/17:23:12.071882,55178,1545002592,71013196,base_footprint,4.82222223282,0.0,0.0,0.0,0.0,-0.00897976753137
2018/12/16/17:23:12.091477,55179,1545002592,91033894,base_footprint,4.81388902664,0.0,0.0,0.0,0.0,-0.00916345903866
2018/12/16/17:23:12.111535,55180,1545002592,111210520,base_footprint,4.80555534363,0.0,0.0,0.0,0.0,-0.00914759548997
2018/12/16/17:23:12.131367,55181,1545002592,131111830,base_footprint,4.79722213745,0.0,0.0,0.0,0.0,-0.00913173284897
2018/12/16/17:23:12.151407,55182,1545002592,151141838,base_footprint,4.79166650772,0.0,0.0,0.0,0.0,-0.00951773758957
2018/12/16/17:23:12.171518,55183,1545002592,171166250,base_footprint,4.78333330154,0.0,0.0,0.0,0.0,-0.010292970201
2018/12/16/17:23:12.191516,55184,1545002592,191226740,base_footprint,4.77500009537,0.0,0.0,0.0,0.0,-0.0114606542161
2018/12/16/17:23:12.211816,55185,1545002592,211275672,base_footprint,4.76666688919,0.0,0.0,0.0,0.0,-0.0136105211792
2018/12/16/17:23:12.231618,55186,1545002592,231271319,base_footprint,4.76111125946,0.0,0.0,0.0,0.0,-0.0165501935762
2018/12/16/17:23:12.251588,55187,1545002592,251303809,base_footprint,4.75555562973,0.0,0.0,0.0,0.0,-0.0198767068697
2018/12/16/17:23:12.271833,55188,1545002592,271354995,base_footprint,4.75,0.0,0.0,0.0,0.0,-0.0233921621626
2018/12/16/17:23:12.291997,55189,1545002592,291382748,base_footprint,4.74722242355,0.0,0.0,0.0,0.0,-0.0271117958701
2018/12/16/17:23:12.311964,55190,1545002592,311404568,base_footprint,4.74444437027,0.0,0.0,0.0,0.0,-0.0304345355786
2018/12/16/17:23:12.331760,55191,1545002592,331460212,base_footprint,4.74166679382,0.0,0.0,0.0,0.0,-0.033557321631
2018/12/16/17:23:12.351739,55192,1545002592,351479718,base_footprint,4.73888874054,0.0,0.0,0.0,0.0,-0.0360880802473
2018/12/16/17:23:12.371815,55193,1545002592,371525665,base_footprint,4.73333311081,0.0,0.0,0.0,0.0,-0.0382014216631
2018/12/16/17:23:12.391881,55194,1545002592,391547053,base_footprint,4.72499990463,0.0,0.0,0.0,0.0,-0.0398948667309
2018/12/16/17:23:12.411937,55195,1545002592,411584838,base_footprint,4.72222232819,0.0,0.0,0.0,0.0,-0.0410445788285
2018/12/16/17:23:12.432279,55196,1545002592,431615623,base_footprint,4.7194442749,0.0,0.0,0.0,0.0,-0.0421929443322
2018/12/16/17:23:12.451981,55197,1545002592,451666000,base_footprint,4.71666669846,0.0,0.0,0.0,0.0,-0.0431446641187
2018/12/16/17:23:12.472141,55198,1545002592,471702157,base_footprint,4.71388912201,0.0,0.0,0.0,0.0,-0.0446808799121
2018/12/16/17:23:12.492106,55199,1545002592,491696869,base_footprint,4.71111106873,0.0,0.0,0.0,0.0,-0.0464104354404
2018/12/16/17:23:12.512185,55200,1545002592,511740210,base_footprint,4.705555439,0.0,0.0,0.0,0.0,-0.0484993979561
2018/12/16/17:23:12.532726,55201,1545002592,531785667,base_footprint,4.69999980927,0.0,0.0,0.0,0.0,-0.0509728152216
2018/12/16/17:23:12.552545,55202,1545002592,551809331,base_footprint,4.69722223282,0.0,0.0,0.0,0.0,-0.0538612776717
2018/12/16/17:23:12.572187,55203,1545002592,571850841,base_footprint,4.69444465637,0.0,0.0,0.0,0.0,-0.0571356116003
2018/12/16/17:23:12.592110,55204,1545002592,591863402,base_footprint,4.68888902664,0.0,0.0,0.0,0.0,-0.0607593155423
2018/12/16/17:23:12.612277,55205,1545002592,611992005,base_footprint,4.68333339691,0.0,0.0,0.0,0.0,-0.0643748757167
2018/12/16/17:23:12.632502,55206,1545002592,632086274,base_footprint,4.68055534363,0.0,0.0,0.0,0.0,-0.0686047688368
2018/12/16/17:23:12.652414,55207,1545002592,652095373,base_footprint,4.67500019073,0.0,0.0,0.0,0.0,-0.0725934444273
2018/12/16/17:23:12.672516,55208,1545002592,672160690,base_footprint,4.669444561,0.0,0.0,0.0,0.0,-0.0767669816096
2018/12/16/17:23:12.692335,55209,1545002592,692059386,base_footprint,4.66388893127,0.0,0.0,0.0,0.0,-0.0807379478612
2018/12/16/17:23:12.712366,55210,1545002592,712070596,base_footprint,4.66111087799,0.0,0.0,0.0,0.0,-0.0845573311625
2018/12/16/17:23:12.732839,55211,1545002592,732284728,base_footprint,4.65833330154,0.0,0.0,0.0,0.0,-0.0881797323696
2018/12/16/17:23:12.752859,55212,1545002592,752174489,base_footprint,4.6555557251,0.0,0.0,0.0,0.0,-0.0914121231799
2018/12/16/17:23:12.772665,55213,1545002592,772401342,base_footprint,4.65000009537,0.0,0.0,0.0,0.0,-0.0941986950906
2018/12/16/17:23:12.792752,55214,1545002592,792471014,base_footprint,4.64444446564,0.0,0.0,0.0,0.0,-0.0965931894388
2018/12/16/17:23:12.812527,55215,1545002592,812244697,base_footprint,4.64722204208,0.0,0.0,0.0,0.0,-0.0985809179343
2018/12/16/17:23:12.833156,55216,1545002592,832492773,base_footprint,4.64166688919,0.0,0.0,0.0,0.0,-0.100198199891
2018/12/16/17:23:12.852783,55217,1545002592,852515744,base_footprint,4.63888883591,0.0,0.0,0.0,0.0,-0.101487116536
2018/12/16/17:23:12.872780,55218,1545002592,872524970,base_footprint,4.63888883591,0.0,0.0,0.0,0.0,-0.102450693977
2018/12/16/17:23:12.892892,55219,1545002592,892588621,base_footprint,4.63333320618,0.0,0.0,0.0,0.0,-0.103097985735
2018/12/16/17:23:12.912779,55220,1545002592,912398738,base_footprint,4.62777757645,0.0,0.0,0.0,0.0,-0.103743476982
2018/12/16/17:23:12.933275,55221,1545002592,932550249,base_footprint,4.625,0.0,0.0,0.0,0.0,-0.104065556117
2018/12/16/17:23:12.953219,55222,1545002592,952638177,base_footprint,4.625,0.0,0.0,0.0,0.0,-0.10483427571
2018/12/16/17:23:12.972755,55223,1545002592,972538186,base_footprint,4.61944437027,0.0,0.0,0.0,0.0,-0.105476189958
2018/12/16/17:23:12.992836,55224,1545002592,992549030,base_footprint,4.61388874054,0.0,0.0,0.0,0.0,-0.106308055062
2018/12/16/17:23:13.012911,55225,1545002593,12570708,base_footprint,4.61111116409,0.0,0.0,0.0,0.0,-0.107393918196
2018/12/16/17:23:13.033085,55226,1545002593,32617223,base_footprint,4.60555553436,0.0,0.0,0.0,0.0,-0.108604559487
2018/12/16/17:23:13.052865,55227,1545002593,52644970,base_footprint,4.59999990463,0.0,0.0,0.0,0.0,-0.110003340067
2018/12/16/17:23:13.072923,55228,1545002593,72680204,base_footprint,4.59999990463,0.0,0.0,0.0,0.0,-0.111342083899
2018/12/16/17:23:13.092985,55229,1545002593,92717309,base_footprint,4.59722232819,0.0,0.0,0.0,0.0,-0.112995267065
2018/12/16/17:23:13.113181,55230,1545002593,112821522,base_footprint,4.59166669846,0.0,0.0,0.0,0.0,-0.114386336692
2018/12/16/17:23:13.133055,55231,1545002593,132770549,base_footprint,4.56944465637,0.0,0.0,0.0,0.0,-0.115543249516
2018/12/16/17:23:13.153385,55232,1545002593,153088316,base_footprint,4.56666660309,0.0,0.0,0.0,0.0,-0.116992743507
2018/12/16/17:23:13.173140,55233,1545002593,172850191,base_footprint,4.58333349228,0.0,0.0,0.0,0.0,-0.119708048248
2018/12/16/17:23:13.193175,55234,1545002593,192889155,base_footprint,4.57222223282,0.0,0.0,0.0,0.0,-0.120939961139
2018/12/16/17:23:13.213331,55235,1545002593,213062138,base_footprint,4.56666660309,0.0,0.0,0.0,0.0,-0.122503571439
2018/12/16/17:23:13.233324,55236,1545002593,232984995,base_footprint,4.56111097336,0.0,0.0,0.0,0.0,-0.124253177797
2018/12/16/17:23:13.253372,55237,1545002593,252986547,base_footprint,4.55833339691,0.0,0.0,0.0,0.0,-0.125695745353
2018/12/16/17:23:13.273231,55238,1545002593,273009275,base_footprint,4.56388902664,0.0,0.0,0.0,0.0,-0.12774936743
2018/12/16/17:23:13.293334,55239,1545002593,293044382,base_footprint,4.55000019073,0.0,0.0,0.0,0.0,-0.129255599373
2018/12/16/17:23:13.313408,55240,1545002593,313090692,base_footprint,4.54722213745,0.0,0.0,0.0,0.0,-0.130502581342
2018/12/16/17:23:13.333413,55241,1545002593,333114045,base_footprint,4.55000019073,0.0,0.0,0.0,0.0,-0.132098771677
2018/12/16/17:23:13.353366,55242,1545002593,353150487,base_footprint,4.54722213745,0.0,0.0,0.0,0.0,-0.13315492116
2018/12/16/17:23:13.373453,55243,1545002593,373165070,base_footprint,4.56111097336,0.0,0.0,0.0,0.0,-0.134321891153
2018/12/16/17:23:13.393545,55244,1545002593,393225465,base_footprint,4.544444561,0.0,0.0,0.0,0.0,-0.134588612085
2018/12/16/17:23:13.413556,55245,1545002593,413279685,base_footprint,4.52777767181,0.0,0.0,0.0,0.0,-0.13409500424
2018/12/16/17:23:13.433616,55246,1545002593,433292934,base_footprint,4.5305557251,0.0,0.0,0.0,0.0,-0.134366097194
2018/12/16/17:23:13.453688,55247,1545002593,453313691,base_footprint,4.52500009537,0.0,0.0,0.0,0.0,-0.134012743327
2018/12/16/17:23:13.473580,55248,1545002593,473347559,base_footprint,4.52500009537,0.0,0.0,0.0,0.0,-0.133635594706
2018/12/16/17:23:13.493688,55249,1545002593,493397273,base_footprint,4.5305557251,0.0,0.0,0.0,0.0,-0.13342205803
2018/12/16/17:23:13.513689,55250,1545002593,513428733,base_footprint,4.52500009537,0.0,0.0,0.0,0.0,-0.133069880515
2018/12/16/17:23:13.533690,55251,1545002593,533442617,base_footprint,4.52222204208,0.0,0.0,0.0,0.0,-0.132422850981
2018/12/16/17:23:13.553732,55252,1545002593,553477459,base_footprint,4.52500009537,0.0,0.0,0.0,0.0,-0.132127110881
2018/12/16/17:23:13.573810,55253,1545002593,573518974,base_footprint,4.52222204208,0.0,0.0,0.0,0.0,-0.131480715698
2018/12/16/17:23:13.593761,55254,1545002593,593538065,base_footprint,4.52222204208,0.0,0.0,0.0,0.0,-0.130915471035
2018/12/16/17:23:13.614130,55255,1545002593,613570113,base_footprint,4.51944446564,0.0,0.0,0.0,0.0,-0.130081929432
2018/12/16/17:23:13.633873,55256,1545002593,633607630,base_footprint,4.52222204208,0.0,0.0,0.0,0.0,-0.129219947304
2018/12/16/17:23:13.654270,55257,1545002593,653644694,base_footprint,4.52500009537,0.0,0.0,0.0,0.0,-0.12816845251
2018/12/16/17:23:13.673955,55258,1545002593,673664475,base_footprint,4.52222204208,0.0,0.0,0.0,0.0,-0.126959712759
2018/12/16/17:23:13.693998,55259,1545002593,693718255,base_footprint,4.52500009537,0.0,0.0,0.0,0.0,-0.126095503583
2018/12/16/17:23:13.713968,55260,1545002593,713761752,base_footprint,4.5305557251,0.0,0.0,0.0,0.0,-0.125118417916
2018/12/16/17:23:13.733987,55261,1545002593,733766671,base_footprint,4.53333330154,0.0,0.0,0.0,0.0,-0.124251394389
2018/12/16/17:23:13.754407,55262,1545002593,753817536,base_footprint,4.53333330154,0.0,0.0,0.0,0.0,-0.123307737756
2018/12/16/17:23:13.774116,55263,1545002593,773842112,base_footprint,4.53888893127,0.0,0.0,0.0,0.0,-0.122514138376
2018/12/16/17:23:13.794297,55264,1545002593,793885848,base_footprint,4.53888893127,0.0,0.0,0.0,0.0,-0.121947343516
2018/12/16/17:23:13.814269,55265,1545002593,813984729,base_footprint,4.53611087799,0.0,0.0,0.0,0.0,-0.120928706038
2018/12/16/17:23:13.834312,55266,1545002593,833985066,base_footprint,4.53611087799,0.0,0.0,0.0,0.0,-0.120173557527
2018/12/16/17:23:13.854301,55267,1545002593,853983936,base_footprint,4.53888893127,0.0,0.0,0.0,0.0,-0.119302730305
2018/12/16/17:23:13.874398,55268,1545002593,874010825,base_footprint,4.54166650772,0.0,0.0,0.0,0.0,-0.118619784999
2018/12/16/17:23:13.894405,55269,1545002593,894086202,base_footprint,4.53888893127,0.0,0.0,0.0,0.0,-0.117414116621
2018/12/16/17:23:13.914355,55270,1545002593,914086666,base_footprint,4.54166650772,0.0,0.0,0.0,0.0,-0.116352269831
2018/12/16/17:23:13.934407,55271,1545002593,934113443,base_footprint,4.544444561,0.0,0.0,0.0,0.0,-0.115100116112
2018/12/16/17:23:13.954439,55272,1545002593,954150111,base_footprint,4.544444561,0.0,0.0,0.0,0.0,-0.113587951432
2018/12/16/17:23:13.974590,55273,1545002593,974165320,base_footprint,4.55000019073,0.0,0.0,0.0,0.0,-0.112023790337
